{"displayFieldName":"EPANO","fieldAliases":{"OBJECTID":"OBJECTID","ID":"ID","EPANO":"EPANO","GARBAGE_NA":"GARBAGE_NA","COUNTY_NAM":"COUNTY_NAM","ZIPCODE":"ZIPCODE"},"geometryType":"esriGeometryPoint","spatialReference":{"wkid":104137},"fields":[{"name":"OBJECTID","type":"esriFieldTypeOID","alias":"OBJECTID"},{"name":"ID","type":"esriFieldTypeDouble","alias":"ID"},{"name":"EPANO","type":"esriFieldTypeString","alias":"EPANO","length":8},{"name":"GARBAGE_NA","type":"esriFieldTypeString","alias":"GARBAGE_NA","length":40},{"name":"COUNTY_NAM","type":"esriFieldTypeString","alias":"COUNTY_NAM","length":6},{"name":"ZIPCODE","type":"esriFieldTypeString","alias":"ZIPCODE","length":4}],"features":[{"attributes":{"OBJECTID":1,"ID":1,"EPANO":" ","GARBAGE_NA":"新豐鄉區域衛生掩埋場","COUNTY_NAM":"新竹縣","ZIPCODE":"304"},"geometry":{"x":120.9551659116829,"y":24.881306017606054}},{"attributes":{"OBJECTID":2,"ID":4,"EPANO":"G3900460","GARBAGE_NA":"三星鄉衛生掩埋場","COUNTY_NAM":"宜蘭縣","ZIPCODE":"266"},"geometry":{"x":121.64702407264731,"y":24.688789300291667}},{"attributes":{"OBJECTID":3,"ID":9,"EPANO":" ","GARBAGE_NA":"和美區域衛生掩埋場","COUNTY_NAM":"彰化縣","ZIPCODE":"508"},"geometry":{"x":120.52618026263562,"y":24.127987257377562}},{"attributes":{"OBJECTID":4,"ID":16,"EPANO":"L9201421","GARBAGE_NA":"后里鄉衛生掩埋場","COUNTY_NAM":"台中縣","ZIPCODE":"421"},"geometry":{"x":120.73359050560916,"y":24.290929319508823}},{"attributes":{"OBJECTID":5,"ID":17,"EPANO":"L9800700","GARBAGE_NA":"外埔鄉衛生掩埋場","COUNTY_NAM":"台中縣","ZIPCODE":"438"},"geometry":{"x":120.66420348333619,"y":24.358981926059172}},{"attributes":{"OBJECTID":6,"ID":20,"EPANO":"K8100183","GARBAGE_NA":"西湖鄉衛生掩埋場","COUNTY_NAM":"苗栗縣","ZIPCODE":"368"},"geometry":{"x":120.73377257482795,"y":24.566748144634388}},{"attributes":{"OBJECTID":7,"ID":21,"EPANO":"K7903117","GARBAGE_NA":"頭屋鄉衛生掩埋場","COUNTY_NAM":"苗栗縣","ZIPCODE":"362"},"geometry":{"x":120.89287226476003,"y":24.56992997764068}},{"attributes":{"OBJECTID":8,"ID":22,"EPANO":"K8403018","GARBAGE_NA":"獅潭鄉衛生掩埋場","COUNTY_NAM":"苗栗縣","ZIPCODE":"354"},"geometry":{"x":120.94743458071538,"y":24.591554160193244}},{"attributes":{"OBJECTID":9,"ID":23,"EPANO":" ","GARBAGE_NA":"三灣鄉衛生掩埋場","COUNTY_NAM":"苗栗縣","ZIPCODE":"352"},"geometry":{"x":120.94807060750669,"y":24.627966290186656}},{"attributes":{"OBJECTID":10,"ID":24,"EPANO":" ","GARBAGE_NA":"頭份鎮衛生掩埋場","COUNTY_NAM":"苗栗縣","ZIPCODE":"351"},"geometry":{"x":120.88887867828072,"y":24.66441657722925}},{"attributes":{"OBJECTID":11,"ID":25,"EPANO":"K8200615","GARBAGE_NA":"造橋鄉衛生掩埋場","COUNTY_NAM":"苗栗縣","ZIPCODE":"361"},"geometry":{"x":120.87734226007018,"y":24.615400857700035}},{"attributes":{"OBJECTID":12,"ID":27,"EPANO":"K7800282","GARBAGE_NA":"南庄鄉衛生掩埋場","COUNTY_NAM":"苗栗縣","ZIPCODE":"353"},"geometry":{"x":120.97758124828515,"y":24.560129406491981}},{"attributes":{"OBJECTID":13,"ID":30,"EPANO":" ","GARBAGE_NA":"通霄鎮衛生掩埋場","COUNTY_NAM":"苗栗縣","ZIPCODE":"357"},"geometry":{"x":120.75177538552403,"y":24.502995241570577}},{"attributes":{"OBJECTID":14,"ID":32,"EPANO":"K8000624","GARBAGE_NA":"三義鄉衛生掩埋場","COUNTY_NAM":"苗栗縣","ZIPCODE":"367"},"geometry":{"x":120.74329454247764,"y":24.367932808806071}},{"attributes":{"OBJECTID":15,"ID":33,"EPANO":"K7503037","GARBAGE_NA":"大湖鄉衛生掩埋場","COUNTY_NAM":"苗栗縣","ZIPCODE":"364"},"geometry":{"x":120.88061028003655,"y":24.434124279901887}},{"attributes":{"OBJECTID":16,"ID":35,"EPANO":" ","GARBAGE_NA":"竹山區域衛生掩埋場","COUNTY_NAM":"南投縣","ZIPCODE":"557"},"geometry":{"x":120.65672550451903,"y":23.77830911878004}},{"attributes":{"OBJECTID":17,"ID":36,"EPANO":" ","GARBAGE_NA":"集集鎮衛生掩埋場","COUNTY_NAM":"南投縣","ZIPCODE":"552"},"geometry":{"x":120.78309509849673,"y":23.84505899695063}},{"attributes":{"OBJECTID":18,"ID":37,"EPANO":"M4100244","GARBAGE_NA":"魚池鄉衛生掩埋場","COUNTY_NAM":"南投縣","ZIPCODE":"555"},"geometry":{"x":120.94471916975668,"y":23.911492634611474}},{"attributes":{"OBJECTID":19,"ID":40,"EPANO":" ","GARBAGE_NA":"中寮鄉衛生掩埋場","COUNTY_NAM":"南投縣","ZIPCODE":"541"},"geometry":{"x":120.74083565110014,"y":23.912431374191101}},{"attributes":{"OBJECTID":20,"ID":41,"EPANO":" ","GARBAGE_NA":"南投市衛生掩埋場","COUNTY_NAM":"南投縣","ZIPCODE":"540"},"geometry":{"x":120.66966715248097,"y":23.905969076314683}},{"attributes":{"OBJECTID":21,"ID":42,"EPANO":"V7502422","GARBAGE_NA":"台東市衛生掩埋場","COUNTY_NAM":"台東縣","ZIPCODE":"950"},"geometry":{"x":121.09218813278183,"y":22.720413730388149}},{"attributes":{"OBJECTID":22,"ID":43,"EPANO":"V8603035","GARBAGE_NA":"延平鄉衛生掩埋場","COUNTY_NAM":"台東縣","ZIPCODE":"953"},"geometry":{"x":121.1565270938769,"y":22.919055551769102}},{"attributes":{"OBJECTID":23,"ID":44,"EPANO":"V8300155","GARBAGE_NA":"鹿野鄉衛生掩埋場","COUNTY_NAM":"台東縣","ZIPCODE":"955"},"geometry":{"x":121.14790727948223,"y":22.930216753365357}},{"attributes":{"OBJECTID":24,"ID":45,"EPANO":"V8203053","GARBAGE_NA":"長濱鄉衛生掩埋場","COUNTY_NAM":"台東縣","ZIPCODE":"962"},"geometry":{"x":121.45978455466764,"y":23.319804689025489}},{"attributes":{"OBJECTID":25,"ID":46,"EPANO":"V8900020","GARBAGE_NA":"金峰區域衛生掩埋場","COUNTY_NAM":"台東縣","ZIPCODE":"964"},"geometry":{"x":120.93376247931027,"y":22.591673088728029}},{"attributes":{"OBJECTID":26,"ID":47,"EPANO":"V8100271","GARBAGE_NA":"東河鄉衛生掩埋場","COUNTY_NAM":"台東縣","ZIPCODE":"959"},"geometry":{"x":121.27633142850227,"y":23.005022989563727}},{"attributes":{"OBJECTID":27,"ID":48,"EPANO":"V7800530","GARBAGE_NA":"卑南鄉衛生掩埋場","COUNTY_NAM":"台東縣","ZIPCODE":"954"},"geometry":{"x":121.13231978456201,"y":22.854423894463647}},{"attributes":{"OBJECTID":28,"ID":49,"EPANO":" ","GARBAGE_NA":"池上鄉衛生掩埋場","COUNTY_NAM":"台東縣","ZIPCODE":"958"},"geometry":{"x":121.20071283196617,"y":23.089675573888744}},{"attributes":{"OBJECTID":29,"ID":50,"EPANO":"V7903027","GARBAGE_NA":"大武區域衛生掩埋場","COUNTY_NAM":"台東縣","ZIPCODE":"965"},"geometry":{"x":120.89539797960219,"y":22.350446494215085}},{"attributes":{"OBJECTID":30,"ID":51,"EPANO":" ","GARBAGE_NA":"玉里鎮衛生掩埋場","COUNTY_NAM":"花蓮縣","ZIPCODE":"981"},"geometry":{"x":121.32655212752891,"y":23.299344638471233}},{"attributes":{"OBJECTID":31,"ID":52,"EPANO":"U9501608","GARBAGE_NA":"吉安鄉衛生掩埋場","COUNTY_NAM":"花蓮縣","ZIPCODE":"973"},"geometry":{"x":121.59415579771024,"y":23.930220876454829}},{"attributes":{"OBJECTID":32,"ID":53,"EPANO":"U9400642","GARBAGE_NA":"新城鄉衛生掩埋場","COUNTY_NAM":"花蓮縣","ZIPCODE":"971"},"geometry":{"x":121.61760209485541,"y":24.048474527294026}},{"attributes":{"OBJECTID":33,"ID":54,"EPANO":" ","GARBAGE_NA":"壽豐鄉衛生掩埋場","COUNTY_NAM":"花蓮縣","ZIPCODE":"974"},"geometry":{"x":121.51075076469589,"y":23.81973188614613}},{"attributes":{"OBJECTID":34,"ID":55,"EPANO":"U9200295","GARBAGE_NA":"鳳林鎮衛生掩埋場","COUNTY_NAM":"花蓮縣","ZIPCODE":"975"},"geometry":{"x":121.48903529968968,"y":23.771579546215793}},{"attributes":{"OBJECTID":35,"ID":58,"EPANO":"R8701089","GARBAGE_NA":"麻豆鎮衛生掩埋場","COUNTY_NAM":"台南縣","ZIPCODE":"721"},"geometry":{"x":120.24790443853695,"y":23.204631865279968}},{"attributes":{"OBJECTID":36,"ID":62,"EPANO":"R1101214","GARBAGE_NA":"歸仁區域衛生掩埋場","COUNTY_NAM":"台南縣","ZIPCODE":"711"},"geometry":{"x":120.32035204634629,"y":22.903662894545974}},{"attributes":{"OBJECTID":37,"ID":64,"EPANO":"R0700099","GARBAGE_NA":"楠西鄉衛生掩埋場","COUNTY_NAM":"台南縣","ZIPCODE":"715"},"geometry":{"x":120.50281966573888,"y":23.156850656303401}},{"attributes":{"OBJECTID":38,"ID":66,"EPANO":"R0401073","GARBAGE_NA":"安定區域衛生掩埋場","COUNTY_NAM":"台南縣","ZIPCODE":"745"},"geometry":{"x":120.25964707014511,"y":23.113177682616751}},{"attributes":{"OBJECTID":39,"ID":69,"EPANO":" ","GARBAGE_NA":"恆春區域衛生掩埋場","COUNTY_NAM":"屏東縣","ZIPCODE":"946"},"geometry":{"x":120.76251743682084,"y":22.002788845888865}},{"attributes":{"OBJECTID":40,"ID":70,"EPANO":" ","GARBAGE_NA":"東港區域衛生掩埋場","COUNTY_NAM":"屏東縣","ZIPCODE":"928"},"geometry":{"x":120.48724822909578,"y":22.473333282785589}},{"attributes":{"OBJECTID":41,"ID":71,"EPANO":" ","GARBAGE_NA":"枋寮區域衛生掩埋場","COUNTY_NAM":"屏東縣","ZIPCODE":"925"},"geometry":{"x":120.59890036464485,"y":22.449942939665476}},{"attributes":{"OBJECTID":42,"ID":72,"EPANO":"Q7900638","GARBAGE_NA":"竹崎鄉衛生掩埋場","COUNTY_NAM":"嘉義縣","ZIPCODE":"604"},"geometry":{"x":120.48930763647692,"y":23.503839897047964}},{"attributes":{"OBJECTID":43,"ID":75,"EPANO":" ","GARBAGE_NA":"大林鎮衛生掩埋場","COUNTY_NAM":"嘉義縣","ZIPCODE":"622"},"geometry":{"x":120.51422708625924,"y":23.613445146036309}},{"attributes":{"OBJECTID":44,"ID":76,"EPANO":" ","GARBAGE_NA":"民雄鄉衛生掩埋場","COUNTY_NAM":"嘉義縣","ZIPCODE":"621"},"geometry":{"x":120.50602272035577,"y":23.547865542699913}},{"attributes":{"OBJECTID":45,"ID":79,"EPANO":" ","GARBAGE_NA":"土庫鎮衛生掩埋場","COUNTY_NAM":"雲林縣","ZIPCODE":"633"},"geometry":{"x":120.3834095069296,"y":23.670454703671133}},{"attributes":{"OBJECTID":46,"ID":80,"EPANO":" ","GARBAGE_NA":"莿桐鄉衛生掩埋場","COUNTY_NAM":"雲林縣","ZIPCODE":"647"},"geometry":{"x":120.53443257374336,"y":23.786091759110885}},{"attributes":{"OBJECTID":47,"ID":81,"EPANO":"P6090005","GARBAGE_NA":"褒忠鄉衛生掩埋場","COUNTY_NAM":"雲林縣","ZIPCODE":"634"},"geometry":{"x":120.31274580679447,"y":23.743967985416436}},{"attributes":{"OBJECTID":48,"ID":82,"EPANO":" ","GARBAGE_NA":"虎尾鎮衛生掩埋場","COUNTY_NAM":"雲林縣","ZIPCODE":"632"},"geometry":{"x":120.46500493686329,"y":23.702491241999699}},{"attributes":{"OBJECTID":49,"ID":83,"EPANO":" ","GARBAGE_NA":"崙背鄉衛生掩埋場","COUNTY_NAM":"雲林縣","ZIPCODE":"637"},"geometry":{"x":120.31908895288159,"y":23.811681512904528}},{"attributes":{"OBJECTID":50,"ID":84,"EPANO":" ","GARBAGE_NA":"四湖鄉衛生掩埋場","COUNTY_NAM":"雲林縣","ZIPCODE":"654"},"geometry":{"x":120.16452662111843,"y":23.681591759452278}},{"attributes":{"OBJECTID":51,"ID":86,"EPANO":"P6290005","GARBAGE_NA":"元長鄉衛生掩埋場","COUNTY_NAM":"雲林縣","ZIPCODE":"655"},"geometry":{"x":120.33803993738613,"y":23.598396501685862}},{"attributes":{"OBJECTID":52,"ID":87,"EPANO":" ","GARBAGE_NA":"二崙鄉衛生掩埋場","COUNTY_NAM":"雲林縣","ZIPCODE":"649"},"geometry":{"x":120.37441568437845,"y":23.817200333667028}},{"attributes":{"OBJECTID":53,"ID":88,"EPANO":" ","GARBAGE_NA":"湖內區域衛生掩埋場","COUNTY_NAM":"高雄縣","ZIPCODE":"829"},"geometry":{"x":120.2415490555924,"y":22.87272240192576}},{"attributes":{"OBJECTID":54,"ID":90,"EPANO":" ","GARBAGE_NA":"旗山區域衛生掩埋場","COUNTY_NAM":"高雄縣","ZIPCODE":"842"},"geometry":{"x":120.4753839348263,"y":22.896152400989575}},{"attributes":{"OBJECTID":55,"ID":91,"EPANO":"K7305219","GARBAGE_NA":"後龍鎮衛生掩埋場","COUNTY_NAM":"苗栗縣","ZIPCODE":"356"},"geometry":{"x":120.83114577086062,"y":24.667538414775574}},{"attributes":{"OBJECTID":56,"ID":92,"EPANO":" ","GARBAGE_NA":"中壢市衛生掩埋場","COUNTY_NAM":"桃園縣","ZIPCODE":"320"},"geometry":{"x":121.23417115565138,"y":24.987862636166735}},{"attributes":{"OBJECTID":57,"ID":93,"EPANO":"A4101196","GARBAGE_NA":"台北市山豬窟衛生掩埋場","COUNTY_NAM":"台北市","ZIPCODE":"115"},"geometry":{"x":121.62305368041298,"y":25.029319920273046}},{"attributes":{"OBJECTID":58,"ID":94,"EPANO":"F2300721","GARBAGE_NA":"八里區域衛生掩埋場","COUNTY_NAM":"台北縣","ZIPCODE":"249"},"geometry":{"x":121.3680229407943,"y":25.132582231698787}},{"attributes":{"OBJECTID":59,"ID":96,"EPANO":" ","GARBAGE_NA":"蘇澳區域衛生掩埋場","COUNTY_NAM":"宜蘭縣","ZIPCODE":"270"},"geometry":{"x":121.84324122950663,"y":24.640823711969901}},{"attributes":{"OBJECTID":60,"ID":100,"EPANO":" ","GARBAGE_NA":"八德市衛生掩埋場","COUNTY_NAM":"桃園縣","ZIPCODE":"334"},"geometry":{"x":121.32129357620003,"y":24.942245160217034}},{"attributes":{"OBJECTID":61,"ID":103,"EPANO":" ","GARBAGE_NA":"楊梅鎮衛生掩埋場","COUNTY_NAM":"桃園縣","ZIPCODE":"327"},"geometry":{"x":121.10990291667331,"y":24.946339396393718}},{"attributes":{"OBJECTID":62,"ID":106,"EPANO":"H5303300","GARBAGE_NA":"觀音鄉衛生掩埋場","COUNTY_NAM":"桃園縣","ZIPCODE":"328"},"geometry":{"x":121.13771309554809,"y":25.074656251044974}},{"attributes":{"OBJECTID":63,"ID":108,"EPANO":"O1790247","GARBAGE_NA":"新竹市衛生掩埋場","COUNTY_NAM":"新竹市","ZIPCODE":"300"},"geometry":{"x":120.91809523429903,"y":24.805401296177745}},{"attributes":{"OBJECTID":64,"ID":110,"EPANO":"J6500315","GARBAGE_NA":"峨眉鄉衛生掩埋場","COUNTY_NAM":"新竹縣","ZIPCODE":"315"},"geometry":{"x":121.03583920683883,"y":24.669320545803505}},{"attributes":{"OBJECTID":65,"ID":115,"EPANO":" ","GARBAGE_NA":"水上區域衛生掩埋場","COUNTY_NAM":"嘉義縣","ZIPCODE":"608"},"geometry":{"x":120.38031356691208,"y":23.451963996867427}},{"attributes":{"OBJECTID":66,"ID":116,"EPANO":"Q7101019","GARBAGE_NA":"新港鄉衛生掩埋場","COUNTY_NAM":"嘉義縣","ZIPCODE":"616"},"geometry":{"x":120.31244561381527,"y":23.533833714034081}},{"attributes":{"OBJECTID":67,"ID":117,"EPANO":" ","GARBAGE_NA":"朴子市衛生掩埋場","COUNTY_NAM":"嘉義縣","ZIPCODE":"613"},"geometry":{"x":120.23645794793624,"y":23.449684224271046}},{"attributes":{"OBJECTID":68,"ID":121,"EPANO":"B2402442","GARBAGE_NA":"台中市衛生掩埋場","COUNTY_NAM":"台中市","ZIPCODE":"408"},"geometry":{"x":120.59130736104689,"y":24.156433001478788}},{"attributes":{"OBJECTID":69,"ID":123,"EPANO":"L0502838","GARBAGE_NA":"大里市衛生掩埋場","COUNTY_NAM":"台中縣","ZIPCODE":"412"},"geometry":{"x":120.72504592440826,"y":24.080882955881368}},{"attributes":{"OBJECTID":70,"ID":124,"EPANO":" ","GARBAGE_NA":"西螺鎮衛生掩埋場","COUNTY_NAM":"雲林縣","ZIPCODE":"648"},"geometry":{"x":120.43588932407691,"y":23.813714892138698}},{"attributes":{"OBJECTID":71,"ID":126,"EPANO":" ","GARBAGE_NA":"東勢鄉衛生掩埋場","COUNTY_NAM":"雲林縣","ZIPCODE":"635"},"geometry":{"x":120.28337565458548,"y":23.737799826700424}},{"attributes":{"OBJECTID":72,"ID":127,"EPANO":" ","GARBAGE_NA":"斗南鎮衛生掩埋場","COUNTY_NAM":"雲林縣","ZIPCODE":"630"},"geometry":{"x":120.49161618120083,"y":23.675517496826952}},{"attributes":{"OBJECTID":73,"ID":128,"EPANO":"D3202004","GARBAGE_NA":"台南市衛生掩埋場","COUNTY_NAM":"台南市","ZIPCODE":"709"},"geometry":{"x":120.08404536639743,"y":23.038457372645954}},{"attributes":{"OBJECTID":74,"ID":129,"EPANO":" ","GARBAGE_NA":"林內鄉衛生掩埋場","COUNTY_NAM":"雲林縣","ZIPCODE":"643"},"geometry":{"x":120.5980678367396,"y":23.779708172750468}},{"attributes":{"OBJECTID":75,"ID":130,"EPANO":"R9800143","GARBAGE_NA":"大內鄉衛生掩埋場","COUNTY_NAM":"台南縣","ZIPCODE":"742"},"geometry":{"x":120.37332535529896,"y":23.138653506599308}},{"attributes":{"OBJECTID":76,"ID":132,"EPANO":"R9702179","GARBAGE_NA":"官田鄉衛生掩埋場","COUNTY_NAM":"台南縣","ZIPCODE":"720"},"geometry":{"x":120.39187154158451,"y":23.169411635093947}},{"attributes":{"OBJECTID":77,"ID":133,"EPANO":"R8402376","GARBAGE_NA":"新營區域衛生掩埋場","COUNTY_NAM":"台南縣","ZIPCODE":"730"},"geometry":{"x":120.29600561702888,"y":23.334867169347795}},{"attributes":{"OBJECTID":78,"ID":134,"EPANO":" ","GARBAGE_NA":"北門鄉衛生掩埋場","COUNTY_NAM":"台南縣","ZIPCODE":"727"},"geometry":{"x":120.13585574679242,"y":23.267783398454203}},{"attributes":{"OBJECTID":79,"ID":135,"EPANO":"R1004676","GARBAGE_NA":"仁德區域衛生掩埋場","COUNTY_NAM":"台南縣","ZIPCODE":"717"},"geometry":{"x":120.25863135504983,"y":22.928554082116804}},{"attributes":{"OBJECTID":80,"ID":138,"EPANO":" ","GARBAGE_NA":"路竹區域衛生掩埋場","COUNTY_NAM":"高雄縣","ZIPCODE":"821"},"geometry":{"x":120.28413401026704,"y":22.89177089629441}},{"attributes":{"OBJECTID":81,"ID":139,"EPANO":" ","GARBAGE_NA":"南州區域衛生掩埋場","COUNTY_NAM":"屏東縣","ZIPCODE":"926"},"geometry":{"x":120.52640778956254,"y":22.502356383267987}},{"attributes":{"OBJECTID":82,"ID":141,"EPANO":"V7703205","GARBAGE_NA":"關山區域衛生掩埋場","COUNTY_NAM":"台東縣","ZIPCODE":"956"},"geometry":{"x":121.16417570869737,"y":23.02396035633117}},{"attributes":{"OBJECTID":83,"ID":142,"EPANO":"K7701551","GARBAGE_NA":"銅鑼鄉衛生掩埋場","COUNTY_NAM":"苗栗縣","ZIPCODE":"366"},"geometry":{"x":120.79531398033728,"y":24.485467223267438}},{"attributes":{"OBJECTID":84,"ID":144,"EPANO":"K7103313","GARBAGE_NA":"竹南鎮衛生掩埋場","COUNTY_NAM":"苗栗縣","ZIPCODE":"350"},"geometry":{"x":120.83725543702722,"y":24.672688066698175}},{"attributes":{"OBJECTID":85,"ID":145,"EPANO":"R8500797","GARBAGE_NA":"鹽水鎮衛生掩埋場","COUNTY_NAM":"台南縣","ZIPCODE":"737"},"geometry":{"x":120.24330866841306,"y":23.301718521580696}},{"attributes":{"OBJECTID":86,"ID":146,"EPANO":" ","GARBAGE_NA":"光復鄉衛生掩埋場","COUNTY_NAM":"花蓮縣","ZIPCODE":"976"},"geometry":{"x":121.43998163191368,"y":23.678053432585809}},{"attributes":{"OBJECTID":87,"ID":147,"EPANO":"U9103004","GARBAGE_NA":"花蓮市衛生掩埋場","COUNTY_NAM":"花蓮縣","ZIPCODE":"970"},"geometry":{"x":121.64471122397597,"y":24.010335807240889}},{"attributes":{"OBJECTID":88,"ID":148,"EPANO":" ","GARBAGE_NA":"富里區域衛生掩埋場","COUNTY_NAM":"花蓮縣","ZIPCODE":"983"},"geometry":{"x":121.27288177605629,"y":23.206680139424684}},{"attributes":{"OBJECTID":89,"ID":149,"EPANO":" ","GARBAGE_NA":"瑞穗鄉衛生掩埋場","COUNTY_NAM":"花蓮縣","ZIPCODE":"978"},"geometry":{"x":121.3772107786498,"y":23.552231804565313}},{"attributes":{"OBJECTID":90,"ID":150,"EPANO":" ","GARBAGE_NA":"高雄市衛生掩埋場","COUNTY_NAM":"高雄市","ZIPCODE":"812"},"geometry":{"x":120.33918576288704,"y":22.523933119064168}},{"attributes":{"OBJECTID":91,"ID":153,"EPANO":"L0301313","GARBAGE_NA":"霧峰區域衛生掩埋場","COUNTY_NAM":"台中縣","ZIPCODE":"413"},"geometry":{"x":120.72577241106977,"y":24.013502092709018}},{"attributes":{"OBJECTID":92,"ID":154,"EPANO":" ","GARBAGE_NA":"岡山區域衛生掩埋場","COUNTY_NAM":"高雄縣","ZIPCODE":"820"},"geometry":{"x":120.33263129344989,"y":22.832790604509356}},{"attributes":{"OBJECTID":93,"ID":158,"EPANO":"V7600352","GARBAGE_NA":"成功鎮衛生掩埋場","COUNTY_NAM":"台東縣","ZIPCODE":"961"},"geometry":{"x":121.33247839122373,"y":23.020433491699297}},{"attributes":{"OBJECTID":94,"ID":156,"EPANO":"V9000047","GARBAGE_NA":"蘭嶼鄉衛生掩生掩埋場","COUNTY_NAM":"台東縣","ZIPCODE":"952"},"geometry":{"x":121.56871018133604,"y":22.011020730971403}},{"attributes":{"OBJECTID":95,"ID":155,"EPANO":"V8503012","GARBAGE_NA":"綠島鄉衛生掩生掩埋場","COUNTY_NAM":"台東縣","ZIPCODE":"951"},"geometry":{"x":121.50519218758305,"y":22.654544325073189}},{"attributes":{"OBJECTID":96,"ID":14,"EPANO":"L9301873","GARBAGE_NA":"神岡鄉衛生掩埋場","COUNTY_NAM":"台中縣","ZIPCODE":"429"},"geometry":{"x":120.67523916433728,"y":24.280409137970594}},{"attributes":{"OBJECTID":97,"ID":3,"EPANO":"G3801346","GARBAGE_NA":"五結鄉衛生掩埋場","COUNTY_NAM":"宜蘭縣","ZIPCODE":"268"},"geometry":{"x":121.84222028989606,"y":24.645897202568939}},{"attributes":{"OBJECTID":98,"ID":0,"EPANO":" ","GARBAGE_NA":"秀林鄉衛生掩埋場","COUNTY_NAM":"花蓮縣","ZIPCODE":" "},"geometry":{"x":121.64855816371525,"y":24.133379927631839}},{"attributes":{"OBJECTID":99,"ID":0,"EPANO":" ","GARBAGE_NA":"內門鄉衛生掩埋場","COUNTY_NAM":"高雄縣","ZIPCODE":" "},"geometry":{"x":120.41932831654428,"y":22.907724486799502}},{"attributes":{"OBJECTID":100,"ID":0,"EPANO":" ","GARBAGE_NA":"玉井鄉衛生掩埋場","COUNTY_NAM":"台南縣","ZIPCODE":" "},"geometry":{"x":120.47037856335523,"y":23.07837010869784}},{"attributes":{"OBJECTID":101,"ID":0,"EPANO":" ","GARBAGE_NA":"芳苑鄉衛生掩埋場","COUNTY_NAM":"彰化縣","ZIPCODE":" "},"geometry":{"x":120.37284455619941,"y":24.037683675752188}},{"attributes":{"OBJECTID":102,"ID":0,"EPANO":" ","GARBAGE_NA":"北埔鄉衛生掩埋場","COUNTY_NAM":"新竹縣","ZIPCODE":" "},"geometry":{"x":121.06317489374888,"y":24.699311249748749}},{"attributes":{"OBJECTID":103,"ID":0,"EPANO":" ","GARBAGE_NA":"南化鄉衛生掩埋場","COUNTY_NAM":"台南縣","ZIPCODE":" "},"geometry":{"x":120.47177196746544,"y":23.07669993817845}},{"attributes":{"OBJECTID":104,"ID":0,"EPANO":" ","GARBAGE_NA":"龍潭鄉衛生掩埋場","COUNTY_NAM":"桃園縣","ZIPCODE":" "},"geometry":{"x":121.17287064004984,"y":24.872507387742637}},{"attributes":{"OBJECTID":105,"ID":0,"EPANO":" ","GARBAGE_NA":"大寮鄉衛生掩埋場","COUNTY_NAM":"高雄縣","ZIPCODE":" "},"geometry":{"x":118.74561673167041,"y":0.018019002960518279}}]}