{"displayFieldName":"StName","fieldAliases":{"OBJECTID":"OBJECTID","Stcode":"Stcode","StName":"StName","Zone":"Zone","Dam":"Dam","Orgchg":"Orgchg","Riv_name":"Riv_name","Countyname":"Countyname","Townname":"Townname","Addr":"Addr","TM2_X":"TM2_X","TM2_Y":"TM2_Y","LONGITUTE":"LONGITUTE","LATITUTE":"LATITUTE","use_status":"use_status"},"geometryType":"esriGeometryPoint","spatialReference":{"wkid":104137},"fields":[{"name":"OBJECTID","type":"esriFieldTypeOID","alias":"OBJECTID"},{"name":"Stcode","type":"esriFieldTypeDouble","alias":"Stcode"},{"name":"StName","type":"esriFieldTypeString","alias":"StName","length":80},{"name":"Zone","type":"esriFieldTypeString","alias":"Zone","length":80},{"name":"Dam","type":"esriFieldTypeString","alias":"Dam","length":80},{"name":"Orgchg","type":"esriFieldTypeString","alias":"Orgchg","length":80},{"name":"Riv_name","type":"esriFieldTypeString","alias":"Riv_name","length":80},{"name":"Countyname","type":"esriFieldTypeString","alias":"Countyname","length":80},{"name":"Townname","type":"esriFieldTypeString","alias":"Townname","length":80},{"name":"Addr","type":"esriFieldTypeString","alias":"Addr","length":80},{"name":"TM2_X","type":"esriFieldTypeDouble","alias":"TM2_X"},{"name":"TM2_Y","type":"esriFieldTypeDouble","alias":"TM2_Y"},{"name":"LONGITUTE","type":"esriFieldTypeDouble","alias":"LONGITUTE"},{"name":"LATITUTE","type":"esriFieldTypeDouble","alias":"LATITUTE"},{"name":"use_status","type":"esriFieldTypeString","alias":"use_status","length":80}],"features":[{"attributes":{"OBJECTID":1,"Stcode":2075,"StName":"阿公店水庫一","Zone":"南區","Dam":"阿公店水庫","Orgchg":"高屏溪流域","Riv_name":"旗山溪","Countyname":"高雄市","Townname":"燕巢區","Addr":"高雄市燕巢區","TM2_X":182674.85999999999,"TM2_Y":2523800.8300000001,"LONGITUTE":120.344281,"LATITUTE":22.815111999999999,"use_status":"啟用"},"geometry":{"x":120.34415487263409,"y":22.813678331721555}},{"attributes":{"OBJECTID":2,"Stcode":2076,"StName":"阿公店水庫二","Zone":"南區","Dam":"阿公店水庫","Orgchg":"高屏溪流域","Riv_name":"旗山溪","Countyname":"高雄市","Townname":"燕巢區","Addr":"高雄市燕巢區","TM2_X":183478.53,"TM2_Y":2523418.5,"LONGITUTE":120.35273599999999,"LATITUTE":22.811868,"use_status":"啟用"},"geometry":{"x":120.35199973465642,"y":22.810257769984847}},{"attributes":{"OBJECTID":3,"Stcode":2077,"StName":"阿公店水庫三","Zone":"南區","Dam":"阿公店水庫","Orgchg":"高屏溪流域","Riv_name":"旗山溪","Countyname":"高雄市","Townname":"燕巢區","Addr":"高雄市燕巢區","TM2_X":183144.01000000001,"TM2_Y":2524502.7599999998,"LONGITUTE":120.34869500000001,"LATITUTE":22.820036000000002,"use_status":"啟用"},"geometry":{"x":120.34869470830444,"y":22.820035749888827}},{"attributes":{"OBJECTID":4,"Stcode":2087,"StName":"新山水庫一","Zone":"北區","Dam":"新山水庫","Orgchg":"淡水河流域","Riv_name":"基隆河","Countyname":"基隆市","Townname":"安樂區","Addr":"基隆市安樂區","TM2_X":321626.77000000002,"TM2_Y":2780761.4399999999,"LONGITUTE":121.71035500000001,"LATITUTE":25.133576000000001,"use_status":"啟用"},"geometry":{"x":121.71035573422336,"y":25.133576276242827}},{"attributes":{"OBJECTID":5,"Stcode":2088,"StName":"新山水庫二","Zone":"北區","Dam":"新山水庫","Orgchg":"淡水河流域","Riv_name":"基隆河","Countyname":"基隆市","Townname":"安樂區","Addr":"基隆市安樂區","TM2_X":321540.84000000003,"TM2_Y":2780217.4700000002,"LONGITUTE":121.709475,"LATITUTE":25.128668999999999,"use_status":"啟用"},"geometry":{"x":121.70947520838178,"y":25.128669654495926}},{"attributes":{"OBJECTID":6,"Stcode":2089,"StName":"西勢水庫","Zone":"北區","Dam":"西勢水庫","Orgchg":"淡水河流域","Riv_name":"基隆河","Countyname":"基隆市","Townname":"暖暖區","Addr":"基隆市暖暖區","TM2_X":324204.02000000002,"TM2_Y":2775643.21,"LONGITUTE":121.735637,"LATITUTE":25.087247000000001,"use_status":"啟用"},"geometry":{"x":121.7356373124726,"y":25.087246725160899}},{"attributes":{"OBJECTID":7,"Stcode":2090,"StName":"翡翠水庫一","Zone":"北區","Dam":"翡翠水庫","Orgchg":"淡水河流域","Riv_name":"北勢溪(北)","Countyname":"新北市","Townname":"石碇區","Addr":"新北市石碇區","TM2_X":308959.5,"TM2_Y":2756032.7599999998,"LONGITUTE":121.58367699999999,"LATITUTE":24.910876999999999,"use_status":"啟用"},"geometry":{"x":121.58367755739378,"y":24.910877584942796}},{"attributes":{"OBJECTID":8,"Stcode":2091,"StName":"翡翠水庫二","Zone":"北區","Dam":"翡翠水庫","Orgchg":"淡水河流域","Riv_name":"北勢溪(北)","Countyname":"新北市","Townname":"石碇區","Addr":"新北市石碇區","TM2_X":310334.08000000002,"TM2_Y":2755257.2200000002,"LONGITUTE":121.597251,"LATITUTE":24.903822000000002,"use_status":"啟用"},"geometry":{"x":121.59725111740144,"y":24.903822136806319}},{"attributes":{"OBJECTID":9,"Stcode":2092,"StName":"翡翠水庫三","Zone":"北區","Dam":"翡翠水庫","Orgchg":"淡水河流域","Riv_name":"北勢溪(北)","Countyname":"新北市","Townname":"石碇區","Addr":"新北市石碇區","TM2_X":312558,"TM2_Y":2755688,"LONGITUTE":121.61928399999999,"LATITUTE":24.907620999999999,"use_status":"啟用"},"geometry":{"x":121.61928426596361,"y":24.907621446662763}},{"attributes":{"OBJECTID":10,"Stcode":2093,"StName":"翡翠水庫四","Zone":"北區","Dam":"翡翠水庫","Orgchg":"淡水河流域","Riv_name":"北勢溪(北)","Countyname":"新北市","Townname":"石碇區","Addr":"新北市石碇區","TM2_X":312927.46999999997,"TM2_Y":2757554.2799999998,"LONGITUTE":121.623026,"LATITUTE":24.924454999999998,"use_status":"啟用"},"geometry":{"x":121.62302624738173,"y":24.924454896927525}},{"attributes":{"OBJECTID":11,"Stcode":2094,"StName":"翡翠水庫五","Zone":"北區","Dam":"翡翠水庫","Orgchg":"淡水河流域","Riv_name":"北勢溪(北)","Countyname":"新北市","Townname":"石碇區","Addr":"新北市石碇區","TM2_X":313986.39000000001,"TM2_Y":2757817.2999999998,"LONGITUTE":121.633521,"LATITUTE":24.926784999999999,"use_status":"啟用"},"geometry":{"x":121.63352193452042,"y":24.926785241747506}},{"attributes":{"OBJECTID":12,"Stcode":2095,"StName":"翡翠水庫六","Zone":"北區","Dam":"翡翠水庫","Orgchg":"淡水河流域","Riv_name":"北勢溪(北)","Countyname":"新北市","Townname":"石碇區","Addr":"新北市石碇區","TM2_X":312845.28999999998,"TM2_Y":2758995.7999999998,"LONGITUTE":121.622277,"LATITUTE":24.937472,"use_status":"啟用"},"geometry":{"x":121.62227798400109,"y":24.937472238564489}},{"attributes":{"OBJECTID":13,"Stcode":2096,"StName":"石門水庫一","Zone":"北區","Dam":"石門水庫","Orgchg":"淡水河流域","Riv_name":"大漢溪","Countyname":"桃園縣","Townname":"大溪鎮","Addr":"桃園縣大溪鎮","TM2_X":274507.75,"TM2_Y":2744032.46,"LONGITUTE":121.24241000000001,"LATITUTE":24.803477999999998,"use_status":"啟用"},"geometry":{"x":121.24241060669536,"y":24.803477931306222}},{"attributes":{"OBJECTID":14,"Stcode":2097,"StName":"石門水庫二","Zone":"北區","Dam":"石門水庫","Orgchg":"淡水河流域","Riv_name":"大漢溪","Countyname":"桃園縣","Townname":"大溪鎮","Addr":"桃園縣大溪鎮","TM2_X":274725.37,"TM2_Y":2744747.3399999999,"LONGITUTE":121.244576,"LATITUTE":24.809929,"use_status":"啟用"},"geometry":{"x":121.24457577407428,"y":24.809928746924825}},{"attributes":{"OBJECTID":15,"Stcode":2098,"StName":"石門水庫三","Zone":"北區","Dam":"石門水庫","Orgchg":"淡水河流域","Riv_name":"大漢溪","Countyname":"桃園縣","Townname":"大溪鎮","Addr":"桃園縣大溪鎮","TM2_X":275549.04999999999,"TM2_Y":2744888.9300000002,"LONGITUTE":121.252726,"LATITUTE":24.811192999999999,"use_status":"啟用"},"geometry":{"x":121.25272589484308,"y":24.811193553430726}},{"attributes":{"OBJECTID":16,"Stcode":2099,"StName":"石門水庫四","Zone":"北區","Dam":"石門水庫","Orgchg":"淡水河流域","Riv_name":"大漢溪","Countyname":"桃園縣","Townname":"大溪鎮","Addr":"桃園縣大溪鎮","TM2_X":275533.32000000001,"TM2_Y":2744237.9700000002,"LONGITUTE":121.25255799999999,"LATITUTE":24.805316000000001,"use_status":"啟用"},"geometry":{"x":121.25255838885489,"y":24.805316606522585}},{"attributes":{"OBJECTID":17,"Stcode":2100,"StName":"石門水庫五","Zone":"北區","Dam":"石門水庫","Orgchg":"淡水河流域","Riv_name":"大漢溪","Countyname":"桃園縣","Townname":"大溪鎮","Addr":"桃園縣大溪鎮","TM2_X":276876.48999999999,"TM2_Y":2745177.4900000002,"LONGITUTE":121.265862,"LATITUTE":24.813776000000001,"use_status":"啟用"},"geometry":{"x":121.2658621051979,"y":24.813776061223521}},{"attributes":{"OBJECTID":18,"Stcode":2101,"StName":"寶山水庫一","Zone":"北區","Dam":"寶山水庫","Orgchg":"頭前溪流域","Riv_name":"頭前溪","Countyname":"新竹縣","Townname":"寶山鄉","Addr":"新竹縣寶山鄉","TM2_X":255756,"TM2_Y":2737648,"LONGITUTE":121.056907,"LATITUTE":24.746020000000001,"use_status":"啟用"},"geometry":{"x":121.05690754701371,"y":24.746020406421071}},{"attributes":{"OBJECTID":19,"Stcode":2102,"StName":"寶山水庫二","Zone":"北區","Dam":"寶山水庫","Orgchg":"頭前溪流域","Riv_name":"頭前溪","Countyname":"新竹縣","Townname":"寶山鄉","Addr":"新竹縣寶山鄉","TM2_X":254725,"TM2_Y":2737943,"LONGITUTE":121.04671500000001,"LATITUTE":24.748687,"use_status":"啟用"},"geometry":{"x":121.04671541114541,"y":24.748687392076423}},{"attributes":{"OBJECTID":20,"Stcode":2103,"StName":"寶山水庫三","Zone":"北區","Dam":"寶山水庫","Orgchg":"頭前溪流域","Riv_name":"頭前溪","Countyname":"新竹縣","Townname":"寶山鄉","Addr":"新竹縣寶山鄉","TM2_X":254452.51000000001,"TM2_Y":2737188.6699999999,"LONGITUTE":121.04401900000001,"LATITUTE":24.741876999999999,"use_status":"啟用"},"geometry":{"x":121.0440189430514,"y":24.741877597400705}},{"attributes":{"OBJECTID":21,"Stcode":2104,"StName":"寶山水庫四","Zone":"北區","Dam":"寶山水庫","Orgchg":"頭前溪流域","Riv_name":"頭前溪","Countyname":"新竹縣","Townname":"寶山鄉","Addr":"新竹縣寶山鄉","TM2_X":254292.32999999999,"TM2_Y":2737905.7200000002,"LONGITUTE":121.04243700000001,"LATITUTE":24.748352000000001,"use_status":"啟用"},"geometry":{"x":121.04243755032677,"y":24.748352075070567}},{"attributes":{"OBJECTID":22,"Stcode":2134,"StName":"日月潭水庫一","Zone":"中區","Dam":"日月潭水庫","Orgchg":"濁水溪流域","Riv_name":"濁水溪","Countyname":"南投縣","Townname":"魚池鄉","Addr":"南投縣魚池鄉","TM2_X":240883.95999999999,"TM2_Y":2639619.9199999999,"LONGITUTE":120.91049599999999,"LATITUTE":23.860887999999999,"use_status":"啟用"},"geometry":{"x":120.91049604580745,"y":23.860888287594182}},{"attributes":{"OBJECTID":23,"Stcode":2135,"StName":"日月潭水庫二","Zone":"中區","Dam":"日月潭水庫","Orgchg":"濁水溪流域","Riv_name":"濁水溪","Countyname":"南投縣","Townname":"魚池鄉","Addr":"南投縣魚池鄉","TM2_X":241910.95999999999,"TM2_Y":2640385.75,"LONGITUTE":120.920575,"LATITUTE":23.867809000000001,"use_status":"啟用"},"geometry":{"x":120.92057520802346,"y":23.867809054874964}},{"attributes":{"OBJECTID":24,"Stcode":2136,"StName":"日月潭水庫三","Zone":"中區","Dam":"日月潭水庫","Orgchg":"濁水溪流域","Riv_name":"濁水溪","Countyname":"南投縣","Townname":"魚池鄉","Addr":"南投縣魚池鄉","TM2_X":242729.29000000001,"TM2_Y":2638499.54,"LONGITUTE":120.92862,"LATITUTE":23.850781000000001,"use_status":"啟用"},"geometry":{"x":120.92861956712355,"y":23.850781010576188}},{"attributes":{"OBJECTID":25,"Stcode":2137,"StName":"日月潭水庫四","Zone":"中區","Dam":"日月潭水庫","Orgchg":"濁水溪流域","Riv_name":"濁水溪","Countyname":"南投縣","Townname":"魚池鄉","Addr":"南投縣魚池鄉","TM2_X":241248.04000000001,"TM2_Y":2638972.04,"LONGITUTE":120.914075,"LATITUTE":23.855039999999999,"use_status":"啟用"},"geometry":{"x":120.91407454531058,"y":23.855040138882892}},{"attributes":{"OBJECTID":26,"Stcode":2138,"StName":"日月潭水庫五","Zone":"中區","Dam":"日月潭水庫","Orgchg":"濁水溪流域","Riv_name":"濁水溪","Countyname":"南投縣","Townname":"魚池鄉","Addr":"南投縣魚池鄉","TM2_X":240828.79000000001,"TM2_Y":2638448.29,"LONGITUTE":120.90996199999999,"LATITUTE":23.850307999999998,"use_status":"啟用"},"geometry":{"x":120.90996168210266,"y":23.850308461424703}},{"attributes":{"OBJECTID":27,"Stcode":2139,"StName":"頭社水庫","Zone":"中區","Dam":"頭社水庫","Orgchg":"濁水溪流域","Riv_name":"濁水溪","Countyname":"南投縣","Townname":"魚池鄉","Addr":"南投縣魚池鄉","TM2_X":239401.79000000001,"TM2_Y":2636884.25,"LONGITUTE":120.9135,"LATITUTE":23.836176999999999,"use_status":"啟用"},"geometry":{"x":120.89596340261467,"y":23.836176750598334}},{"attributes":{"OBJECTID":28,"Stcode":2140,"StName":"霧社水庫一","Zone":"中區","Dam":"霧社水庫","Orgchg":"濁水溪流域","Riv_name":"濁水溪","Countyname":"南投縣","Townname":"仁愛鄉","Addr":"南投縣仁愛鄉","TM2_X":263878.22999999998,"TM2_Y":2653155.5499999998,"LONGITUTE":121.13638899999999,"LATITUTE":23.983076000000001,"use_status":"啟用"},"geometry":{"x":121.13638872490529,"y":23.983075941876734}},{"attributes":{"OBJECTID":29,"Stcode":2141,"StName":"霧社水庫二","Zone":"中區","Dam":"霧社水庫","Orgchg":"濁水溪流域","Riv_name":"濁水溪","Countyname":"南投縣","Townname":"仁愛鄉","Addr":"南投縣仁愛鄉","TM2_X":263852.40000000002,"TM2_Y":2654229.4100000001,"LONGITUTE":121.136145,"LATITUTE":23.992771999999999,"use_status":"啟用"},"geometry":{"x":121.13614507516299,"y":23.992772658037161}},{"attributes":{"OBJECTID":30,"Stcode":2142,"StName":"霧社水庫三","Zone":"中區","Dam":"霧社水庫","Orgchg":"濁水溪流域","Riv_name":"濁水溪","Countyname":"南投縣","Townname":"仁愛鄉","Addr":"南投縣仁愛鄉","TM2_X":263884.76000000001,"TM2_Y":2655172.4700000002,"LONGITUTE":121.136472,"LATITUTE":24.001287999999999,"use_status":"啟用"},"geometry":{"x":121.13647209557858,"y":24.001287788512421}},{"attributes":{"OBJECTID":31,"Stcode":2143,"StName":"德基水庫一","Zone":"中區","Dam":"德基水庫","Orgchg":"大甲溪流域","Riv_name":"大甲溪","Countyname":"台中市","Townname":"和平區","Addr":"台中市和平區","TM2_X":267114.81,"TM2_Y":2683240.48,"LONGITUTE":121.16855099999999,"LATITUTE":24.254693,"use_status":"啟用"},"geometry":{"x":121.16855162968791,"y":24.254693198075909}},{"attributes":{"OBJECTID":32,"Stcode":2144,"StName":"德基水庫二","Zone":"中區","Dam":"德基水庫","Orgchg":"大甲溪流域","Riv_name":"大甲溪","Countyname":"台中市","Townname":"和平區","Addr":"台中市和平區","TM2_X":267931.73999999999,"TM2_Y":2683964.25,"LONGITUTE":121.17660600000001,"LATITUTE":24.261219000000001,"use_status":"啟用"},"geometry":{"x":121.17660599142188,"y":24.261219157361932}},{"attributes":{"OBJECTID":33,"Stcode":2145,"StName":"德基水庫三","Zone":"中區","Dam":"德基水庫","Orgchg":"大甲溪流域","Riv_name":"大甲溪","Countyname":"台中市","Townname":"和平區","Addr":"台中市和平區","TM2_X":270922.28999999998,"TM2_Y":2684055.3599999999,"LONGITUTE":121.20605999999999,"LATITUTE":24.262004999999998,"use_status":"啟用"},"geometry":{"x":121.20606048635142,"y":24.262004757522647}},{"attributes":{"OBJECTID":34,"Stcode":2146,"StName":"德基水庫四","Zone":"中區","Dam":"德基水庫","Orgchg":"大甲溪流域","Riv_name":"大甲溪","Countyname":"台中市","Townname":"和平區","Addr":"台中市和平區","TM2_X":272207.53000000003,"TM2_Y":2684531.77,"LONGITUTE":121.218726,"LATITUTE":24.266289,"use_status":"啟用"},"geometry":{"x":121.218725912491,"y":24.266288682303969}},{"attributes":{"OBJECTID":35,"Stcode":2147,"StName":"鯉魚潭水庫一","Zone":"中區","Dam":"鯉魚潭水庫","Orgchg":"大安溪流域","Riv_name":"大安溪","Countyname":"苗栗縣","Townname":"大湖鄉","Addr":"苗栗縣大湖鄉","TM2_X":229348.06,"TM2_Y":2692712.3799999999,"LONGITUTE":120.79647799999999,"LATITUTE":24.340174000000001,"use_status":"啟用"},"geometry":{"x":120.79647749998394,"y":24.340174002999206}},{"attributes":{"OBJECTID":36,"Stcode":2148,"StName":"鯉魚潭水庫二","Zone":"中區","Dam":"鯉魚潭水庫","Orgchg":"大安溪流域","Riv_name":"大安溪","Countyname":"苗栗縣","Townname":"大湖鄉","Addr":"苗栗縣大湖鄉","TM2_X":228699.88,"TM2_Y":2692818.2599999998,"LONGITUTE":120.790088,"LATITUTE":24.341121000000001,"use_status":"啟用"},"geometry":{"x":120.7900882178831,"y":24.341121302918896}},{"attributes":{"OBJECTID":37,"Stcode":2149,"StName":"鯉魚潭水庫三","Zone":"中區","Dam":"鯉魚潭水庫","Orgchg":"大安溪流域","Riv_name":"大安溪","Countyname":"苗栗縣","Townname":"大湖鄉","Addr":"苗栗縣大湖鄉","TM2_X":228162.67000000001,"TM2_Y":2692868.0600000001,"LONGITUTE":120.78479299999999,"LATITUTE":24.341563000000001,"use_status":"啟用"},"geometry":{"x":120.78479330513348,"y":24.341563535712659}},{"attributes":{"OBJECTID":38,"Stcode":2150,"StName":"明德水庫一","Zone":"中區","Dam":"明德水庫","Orgchg":"後龍溪流域","Riv_name":"後龍溪","Countyname":"苗栗縣","Townname":"頭屋鄉","Addr":"苗栗縣頭屋鄉","TM2_X":240267.09,"TM2_Y":2720468.3399999999,"LONGITUTE":120.903893,"LATITUTE":24.590889000000001,"use_status":"啟用"},"geometry":{"x":120.90389308615266,"y":24.590889116852413}},{"attributes":{"OBJECTID":39,"Stcode":2151,"StName":"明德水庫二","Zone":"中區","Dam":"明德水庫","Orgchg":"後龍溪流域","Riv_name":"後龍溪","Countyname":"苗栗縣","Townname":"頭屋鄉","Addr":"苗栗縣頭屋鄉","TM2_X":238770,"TM2_Y":2720049.5899999999,"LONGITUTE":120.88911400000001,"LATITUTE":24.587098000000001,"use_status":"啟用"},"geometry":{"x":120.8891135296888,"y":24.587098120306329}},{"attributes":{"OBJECTID":40,"Stcode":2152,"StName":"明德水庫三","Zone":"中區","Dam":"明德水庫","Orgchg":"後龍溪流域","Riv_name":"後龍溪","Countyname":"苗栗縣","Townname":"頭屋鄉","Addr":"苗栗縣頭屋鄉","TM2_X":238328.56,"TM2_Y":2719311,"LONGITUTE":120.884761,"LATITUTE":24.580425999999999,"use_status":"啟用"},"geometry":{"x":120.88476080326056,"y":24.580426217312599}},{"attributes":{"OBJECTID":41,"Stcode":2153,"StName":"永和山水庫一","Zone":"中區","Dam":"永和山水庫","Orgchg":"中港溪流域","Riv_name":"中港溪","Countyname":"苗栗縣","Townname":"三灣鄉","Addr":"苗栗縣三灣鄉","TM2_X":242257.37,"TM2_Y":2728111.3399999999,"LONGITUTE":120.92350399999999,"LATITUTE":24.659908000000001,"use_status":"啟用"},"geometry":{"x":120.92350396069789,"y":24.659907700369057}},{"attributes":{"OBJECTID":42,"Stcode":2154,"StName":"永和山水庫二","Zone":"中區","Dam":"永和山水庫","Orgchg":"中港溪流域","Riv_name":"中港溪","Countyname":"苗栗縣","Townname":"三灣鄉","Addr":"苗栗縣三灣鄉","TM2_X":243167.28,"TM2_Y":2727540.9100000001,"LONGITUTE":120.932496,"LATITUTE":24.654762000000002,"use_status":"啟用"},"geometry":{"x":120.93249650176759,"y":24.654761715058598}},{"attributes":{"OBJECTID":43,"Stcode":2155,"StName":"永和山水庫三","Zone":"中區","Dam":"永和山水庫","Orgchg":"中港溪流域","Riv_name":"中港溪","Countyname":"苗栗縣","Townname":"三灣鄉","Addr":"苗栗縣三灣鄉","TM2_X":241705.09,"TM2_Y":2727362.4100000001,"LONGITUTE":120.918052,"LATITUTE":24.653143,"use_status":"啟用"},"geometry":{"x":120.91805193519622,"y":24.653142893307049}},{"attributes":{"OBJECTID":44,"Stcode":2156,"StName":"蘭潭水庫一","Zone":"南區","Dam":"蘭潭水庫","Orgchg":"八掌溪流域","Riv_name":"八掌溪","Countyname":"嘉義市","Townname":"東區","Addr":"嘉義市東區","TM2_X":196851.32000000001,"TM2_Y":2596213.2000000002,"LONGITUTE":120.479732,"LATITUTE":23.468084999999999,"use_status":"啟用"},"geometry":{"x":120.47973208559442,"y":23.468085105749726}},{"attributes":{"OBJECTID":45,"Stcode":2157,"StName":"蘭潭水庫二","Zone":"南區","Dam":"蘭潭水庫","Orgchg":"八掌溪流域","Riv_name":"八掌溪","Countyname":"嘉義市","Townname":"東區","Addr":"嘉義市東區","TM2_X":196798.51000000001,"TM2_Y":2596514.8599999999,"LONGITUTE":120.479204,"LATITUTE":23.470807000000001,"use_status":"啟用"},"geometry":{"x":120.47920445993611,"y":23.470807316796034}},{"attributes":{"OBJECTID":46,"Stcode":2158,"StName":"蘭潭水庫三","Zone":"南區","Dam":"蘭潭水庫","Orgchg":"八掌溪流域","Riv_name":"八掌溪","Countyname":"嘉義市","Townname":"東區","Addr":"嘉義市東區","TM2_X":196802.26000000001,"TM2_Y":2596760.9500000002,"LONGITUTE":120.479232,"LATITUTE":23.473030000000001,"use_status":"啟用"},"geometry":{"x":120.4792324469345,"y":23.47302958780018}},{"attributes":{"OBJECTID":47,"Stcode":2159,"StName":"仁義潭水庫一","Zone":"南區","Dam":"仁義潭水庫","Orgchg":"八掌溪流域","Riv_name":"八掌溪","Countyname":"嘉義縣","Townname":"番路鄉","Addr":"嘉義縣番路鄉","TM2_X":200207.26999999999,"TM2_Y":2595899.79,"LONGITUTE":120.512593,"LATITUTE":23.465361000000001,"use_status":"啟用"},"geometry":{"x":120.51259263498963,"y":23.465361179855712}},{"attributes":{"OBJECTID":48,"Stcode":2160,"StName":"仁義潭水庫二","Zone":"南區","Dam":"仁義潭水庫","Orgchg":"八掌溪流域","Riv_name":"八掌溪","Countyname":"嘉義縣","Townname":"番路鄉","Addr":"嘉義縣番路鄉","TM2_X":200513.85000000001,"TM2_Y":2595929.5,"LONGITUTE":120.515593,"LATITUTE":23.465638999999999,"use_status":"啟用"},"geometry":{"x":120.51559259993992,"y":23.465638806463055}},{"attributes":{"OBJECTID":49,"Stcode":2161,"StName":"仁義潭水庫三","Zone":"南區","Dam":"仁義潭水庫","Orgchg":"八掌溪流域","Riv_name":"八掌溪","Countyname":"嘉義縣","Townname":"番路鄉","Addr":"嘉義縣番路鄉","TM2_X":199980.29000000001,"TM2_Y":2595912.8700000001,"LONGITUTE":120.51036999999999,"LATITUTE":23.465471999999998,"use_status":"啟用"},"geometry":{"x":120.51037041717038,"y":23.465472331785453}},{"attributes":{"OBJECTID":50,"Stcode":2162,"StName":"仁義潭水庫四","Zone":"南區","Dam":"仁義潭水庫","Orgchg":"八掌溪流域","Riv_name":"八掌溪","Countyname":"嘉義縣","Townname":"番路鄉","Addr":"嘉義縣番路鄉","TM2_X":199489.10000000001,"TM2_Y":2595840.75,"LONGITUTE":120.505565,"LATITUTE":23.464805999999999,"use_status":"啟用"},"geometry":{"x":120.5055648534301,"y":23.464805930537853}},{"attributes":{"OBJECTID":51,"Stcode":2163,"StName":"曾文水庫一","Zone":"南區","Dam":"曾文水庫","Orgchg":"曾文溪流域","Riv_name":"曾文溪","Countyname":"嘉義縣","Townname":"大埔鄉","Addr":"嘉義縣大埔鄉","TM2_X":203006.26999999999,"TM2_Y":2571625.7000000002,"LONGITUTE":120.540746,"LATITUTE":23.246248000000001,"use_status":"啟用"},"geometry":{"x":120.54074562435812,"y":23.246248462112064}},{"attributes":{"OBJECTID":52,"Stcode":2164,"StName":"曾文水庫二","Zone":"南區","Dam":"曾文水庫","Orgchg":"曾文溪流域","Riv_name":"曾文溪","Countyname":"嘉義縣","Townname":"大埔鄉","Addr":"嘉義縣大埔鄉","TM2_X":204510.14000000001,"TM2_Y":2571700.9100000001,"LONGITUTE":120.55544,"LATITUTE":23.246970000000001,"use_status":"啟用"},"geometry":{"x":120.55543985589928,"y":23.246969897751118}},{"attributes":{"OBJECTID":53,"Stcode":2165,"StName":"曾文水庫三","Zone":"南區","Dam":"曾文水庫","Orgchg":"曾文溪流域","Riv_name":"曾文溪","Countyname":"嘉義縣","Townname":"大埔鄉","Addr":"嘉義縣大埔鄉","TM2_X":204341.07999999999,"TM2_Y":2572172.0800000001,"LONGITUTE":120.553774,"LATITUTE":23.25122,"use_status":"啟用"},"geometry":{"x":120.5537735612992,"y":23.251219962032287}},{"attributes":{"OBJECTID":54,"Stcode":2166,"StName":"曾文水庫四","Zone":"南區","Dam":"曾文水庫","Orgchg":"曾文溪流域","Riv_name":"曾文溪","Countyname":"嘉義縣","Townname":"大埔鄉","Addr":"嘉義縣大埔鄉","TM2_X":204625.54000000001,"TM2_Y":2574030.8100000001,"LONGITUTE":120.55346900000001,"LATITUTE":23.263636999999999,"use_status":"啟用"},"geometry":{"x":120.55649800873307,"y":23.268012479096829}},{"attributes":{"OBJECTID":55,"Stcode":2167,"StName":"曾文水庫五","Zone":"南區","Dam":"曾文水庫","Orgchg":"曾文溪流域","Riv_name":"曾文溪","Countyname":"嘉義縣","Townname":"大埔鄉","Addr":"嘉義縣大埔鄉","TM2_X":206351.87,"TM2_Y":2577336.8599999999,"LONGITUTE":120.57327600000001,"LATITUTE":23.297913000000001,"use_status":"啟用"},"geometry":{"x":120.57327611705702,"y":23.297913405796194}},{"attributes":{"OBJECTID":56,"Stcode":2168,"StName":"曾文水庫六","Zone":"南區","Dam":"曾文水庫","Orgchg":"曾文溪流域","Riv_name":"曾文溪","Countyname":"嘉義縣","Townname":"大埔鄉","Addr":"嘉義縣大埔鄉","TM2_X":208939.17999999999,"TM2_Y":2578944.2799999998,"LONGITUTE":120.598527,"LATITUTE":23.312494999999998,"use_status":"啟用"},"geometry":{"x":120.59852677090124,"y":23.312495456502546}},{"attributes":{"OBJECTID":57,"Stcode":2169,"StName":"烏山頭水庫一","Zone":"南區","Dam":"烏山頭水庫","Orgchg":"曾文溪流域","Riv_name":"曾文溪","Countyname":"台南市","Townname":"六甲區","Addr":"台南市六甲區","TM2_X":186213.60999999999,"TM2_Y":2567853.2400000002,"LONGITUTE":120.376801,"LATITUTE":23.211618000000001,"use_status":"啟用"},"geometry":{"x":120.37680111965388,"y":23.211617939733877}},{"attributes":{"OBJECTID":58,"Stcode":2170,"StName":"烏山頭水庫二","Zone":"南區","Dam":"烏山頭水庫","Orgchg":"曾文溪流域","Riv_name":"曾文溪","Countyname":"台南市","Townname":"官田區","Addr":"台南市官田區","TM2_X":185706.04999999999,"TM2_Y":2566868,"LONGITUTE":120.37188399999999,"LATITUTE":23.202701999999999,"use_status":"啟用"},"geometry":{"x":120.37188402430051,"y":23.202701540364167}},{"attributes":{"OBJECTID":59,"Stcode":2171,"StName":"烏山頭水庫三","Zone":"南區","Dam":"烏山頭水庫","Orgchg":"曾文溪流域","Riv_name":"曾文溪","Countyname":"台南市","Townname":"六甲區","Addr":"台南市六甲區","TM2_X":186711.85999999999,"TM2_Y":2567352.75,"LONGITUTE":120.38169000000001,"LATITUTE":23.207118000000001,"use_status":"啟用"},"geometry":{"x":120.38168964344304,"y":23.207117743409786}},{"attributes":{"OBJECTID":60,"Stcode":2172,"StName":"烏山頭水庫四","Zone":"南區","Dam":"烏山頭水庫","Orgchg":"曾文溪流域","Riv_name":"曾文溪","Countyname":"台南市","Townname":"官田區","Addr":"台南市官田區","TM2_X":186293.48999999999,"TM2_Y":2565945.6699999999,"LONGITUTE":120.377661,"LATITUTE":23.194396000000001,"use_status":"啟用"},"geometry":{"x":120.37766127546935,"y":23.194395731336588}},{"attributes":{"OBJECTID":61,"Stcode":2173,"StName":"烏山頭水庫五","Zone":"南區","Dam":"烏山頭水庫","Orgchg":"曾文溪流域","Riv_name":"曾文溪","Countyname":"台南市","Townname":"官田區","Addr":"台南市官田區","TM2_X":187273.25,"TM2_Y":2565646.1400000001,"LONGITUTE":120.387244,"LATITUTE":23.191728999999999,"use_status":"啟用"},"geometry":{"x":120.38724429201318,"y":23.191728534849027}},{"attributes":{"OBJECTID":62,"Stcode":2174,"StName":"白河水庫一","Zone":"南區","Dam":"白河水庫","Orgchg":"急水溪流域","Riv_name":"急水溪","Countyname":"台南市","Townname":"白河區","Addr":"台南市白河區","TM2_X":196214.79999999999,"TM2_Y":2583723.0600000001,"LONGITUTE":120.47554100000001,"LATITUTE":23.35528,"use_status":"啟用"},"geometry":{"x":120.4739474770428,"y":23.355279709286624}},{"attributes":{"OBJECTID":63,"Stcode":2175,"StName":"白河水庫二","Zone":"南區","Dam":"白河水庫","Orgchg":"急水溪流域","Riv_name":"急水溪","Countyname":"台南市","Townname":"白河區","Addr":"台南市白河區","TM2_X":196686.17999999999,"TM2_Y":2584471.9199999999,"LONGITUTE":120.478531,"LATITUTE":23.362057,"use_status":"啟用"},"geometry":{"x":120.47853128635377,"y":23.362057302961514}},{"attributes":{"OBJECTID":64,"Stcode":2176,"StName":"鏡面水庫一","Zone":"南區","Dam":"鏡面水庫","Orgchg":"曾文溪流域","Riv_name":"菜寮溪","Countyname":"台南市","Townname":"南化區","Addr":"台南市南化區","TM2_X":197524.73999999999,"TM2_Y":2550554.6200000001,"LONGITUTE":120.48829619999999,"LATITUTE":23.0583472,"use_status":"啟用"},"geometry":{"x":120.48790158340513,"y":23.05580663488843}},{"attributes":{"OBJECTID":65,"Stcode":2177,"StName":"鏡面水庫二","Zone":"南區","Dam":"鏡面水庫","Orgchg":"曾文溪流域","Riv_name":"菜寮溪","Countyname":"台南市","Townname":"南化區","Addr":"台南市南化區","TM2_X":197457.10000000001,"TM2_Y":2550745.5699999998,"LONGITUTE":120.4884629,"LATITUTE":23.058074000000001,"use_status":"啟用"},"geometry":{"x":120.4872349835755,"y":23.057528832921044}},{"attributes":{"OBJECTID":66,"Stcode":2178,"StName":"南化水庫一","Zone":"南區","Dam":"南化水庫","Orgchg":"曾文溪流域","Riv_name":"曾文溪","Countyname":"台南市","Townname":"南化區","Addr":"台南市南化區","TM2_X":203012.44,"TM2_Y":2554039.7200000002,"LONGITUTE":120.541347,"LATITUTE":23.087443,"use_status":"啟用"},"geometry":{"x":120.54134715456199,"y":23.087442752557656}},{"attributes":{"OBJECTID":67,"Stcode":2179,"StName":"南化水庫二","Zone":"南區","Dam":"南化水庫","Orgchg":"曾文溪流域","Riv_name":"曾文溪","Countyname":"台南市","Townname":"南化區","Addr":"台南市南化區","TM2_X":204379.37,"TM2_Y":2556179.4199999999,"LONGITUTE":120.554626,"LATITUTE":23.106802999999999,"use_status":"啟用"},"geometry":{"x":120.55462596498097,"y":23.106803181724327}},{"attributes":{"OBJECTID":68,"Stcode":2180,"StName":"南化水庫三","Zone":"南區","Dam":"南化水庫","Orgchg":"曾文溪流域","Riv_name":"曾文溪","Countyname":"台南市","Townname":"南化區","Addr":"台南市南化區","TM2_X":205327.20999999999,"TM2_Y":2557965.9300000002,"LONGITUTE":120.564178,"LATITUTE":23.126353999999999,"use_status":"啟用"},"geometry":{"x":120.56382697556828,"y":23.122961819655874}},{"attributes":{"OBJECTID":69,"Stcode":2181,"StName":"澄清湖水庫一","Zone":"南區","Dam":"澄清湖水庫","Orgchg":"高屏溪流域","Riv_name":"高屏溪","Countyname":"高雄市","Townname":"鳥松區","Addr":"高雄市鳥松區","TM2_X":183888.38,"TM2_Y":2506363.29,"LONGITUTE":120.356713,"LATITUTE":22.656257,"use_status":"啟用"},"geometry":{"x":120.35671281072322,"y":22.656257439527966}},{"attributes":{"OBJECTID":70,"Stcode":2182,"StName":"澄清湖水庫二","Zone":"南區","Dam":"澄清湖水庫","Orgchg":"高屏溪流域","Riv_name":"高屏溪","Countyname":"高雄市","Townname":"鳥松區","Addr":"高雄市鳥松區","TM2_X":183640.14999999999,"TM2_Y":2507047.25,"LONGITUTE":120.354269,"LATITUTE":22.662424000000001,"use_status":"啟用"},"geometry":{"x":120.354268675825,"y":22.662424258764389}},{"attributes":{"OBJECTID":71,"Stcode":2183,"StName":"澄清湖水庫三","Zone":"南區","Dam":"澄清湖水庫","Orgchg":"高屏溪流域","Riv_name":"高屏溪","Countyname":"高雄市","Townname":"鳥松區","Addr":"高雄市鳥松區","TM2_X":183817.17000000001,"TM2_Y":2507049.5499999998,"LONGITUTE":120.355991,"LATITUTE":22.662451999999998,"use_status":"啟用"},"geometry":{"x":120.35599103305677,"y":22.662451961755956}},{"attributes":{"OBJECTID":72,"Stcode":2184,"StName":"澄清湖水庫四","Zone":"南區","Dam":"澄清湖水庫","Orgchg":"高屏溪流域","Riv_name":"高屏溪","Countyname":"高雄市","Townname":"鳥松區","Addr":"高雄市鳥松區","TM2_X":183218.64000000001,"TM2_Y":2507270.5800000001,"LONGITUTE":120.35015799999999,"LATITUTE":22.664424,"use_status":"啟用"},"geometry":{"x":120.35015777106376,"y":22.664424465694609}},{"attributes":{"OBJECTID":73,"Stcode":2185,"StName":"鳳山水庫一","Zone":"南區","Dam":"鳳山水庫","Orgchg":"高屏溪流域","Riv_name":"高屏溪","Countyname":"高雄市","Townname":"小港區","Addr":"高雄市小港區","TM2_X":187479.45000000001,"TM2_Y":2493543.7599999998,"LONGITUTE":120.392218,"LATITUTE":22.540980000000001,"use_status":"啟用"},"geometry":{"x":120.39216202351582,"y":22.540624812742667}},{"attributes":{"OBJECTID":74,"Stcode":2186,"StName":"鳳山水庫二","Zone":"南區","Dam":"鳳山水庫","Orgchg":"高屏溪流域","Riv_name":"高屏溪","Countyname":"高雄市","Townname":"小港區","Addr":"高雄市小港區","TM2_X":187266.04000000001,"TM2_Y":2493362.27,"LONGITUTE":120.390094,"LATITUTE":22.538978,"use_status":"啟用"},"geometry":{"x":120.39009449642708,"y":22.538977971851107}},{"attributes":{"OBJECTID":75,"Stcode":2187,"StName":"鳳山水庫三","Zone":"南區","Dam":"鳳山水庫","Orgchg":"高屏溪流域","Riv_name":"高屏溪","Countyname":"高雄市","Townname":"小港區","Addr":"高雄市小港區","TM2_X":187100.17999999999,"TM2_Y":2493329.1200000001,"LONGITUTE":120.38848299999999,"LATITUTE":22.538671999999998,"use_status":"啟用"},"geometry":{"x":120.38848337871063,"y":22.53867248282398}},{"attributes":{"OBJECTID":76,"Stcode":2188,"StName":"鳳山水庫四","Zone":"南區","Dam":"鳳山水庫","Orgchg":"高屏溪流域","Riv_name":"高屏溪","Countyname":"高雄市","Townname":"林園區","Addr":"高雄市林園區","TM2_X":187215.70999999999,"TM2_Y":2492938,"LONGITUTE":120.389622,"LATITUTE":22.535145,"use_status":"啟用"},"geometry":{"x":120.38962204669902,"y":22.535144642126909}},{"attributes":{"OBJECTID":77,"Stcode":2189,"StName":"牡丹水庫一","Zone":"南區","Dam":"牡丹水庫","Orgchg":"四重溪流域","Riv_name":"四重溪","Countyname":"屏東縣","Townname":"牡丹鄉","Addr":"屏東縣牡丹鄉","TM2_X":227438.84,"TM2_Y":2448386.77,"LONGITUTE":120.781288,"LATITUTE":22.133792,"use_status":"啟用"},"geometry":{"x":120.78128846869447,"y":22.133791856756492}},{"attributes":{"OBJECTID":78,"Stcode":2190,"StName":"牡丹水庫二","Zone":"南區","Dam":"牡丹水庫","Orgchg":"四重溪流域","Riv_name":"四重溪","Countyname":"屏東縣","Townname":"牡丹鄉","Addr":"屏東縣牡丹鄉","TM2_X":227571.73999999999,"TM2_Y":2449118.5699999998,"LONGITUTE":120.782567,"LATITUTE":22.140402999999999,"use_status":"啟用"},"geometry":{"x":120.7825666708348,"y":22.140402932539615}},{"attributes":{"OBJECTID":79,"Stcode":2191,"StName":"牡丹水庫三","Zone":"南區","Dam":"牡丹水庫","Orgchg":"四重溪流域","Riv_name":"四重溪","Countyname":"屏東縣","Townname":"牡丹鄉","Addr":"屏東縣牡丹鄉","TM2_X":227865.14999999999,"TM2_Y":2449908.5699999998,"LONGITUTE":120.782318,"LATITUTE":22.147105,"use_status":"啟用"},"geometry":{"x":120.78540033963762,"y":22.147541689179885}},{"attributes":{"OBJECTID":80,"Stcode":2192,"StName":"成功水庫","Zone":"南區","Dam":"成功水庫","Orgchg":"磺溪流域","Riv_name":"磺溪","Countyname":"澎湖縣","Townname":"湖西鄉","Addr":"澎湖縣湖西鄉","TM2_X":109767.62,"TM2_Y":2608908.2200000002,"LONGITUTE":119.625964,"LATITUTE":23.577479,"use_status":"啟用"},"geometry":{"x":119.62621901300882,"y":23.577517518143345}},{"attributes":{"OBJECTID":81,"Stcode":2193,"StName":"興仁水庫","Zone":"南區","Dam":"興仁水庫","Orgchg":"雙溪流域","Riv_name":"雙溪","Countyname":"澎湖縣","Townname":"馬公市","Addr":"澎湖縣馬公市","TM2_X":107587.86,"TM2_Y":2605912.6899999999,"LONGITUTE":119.606836,"LATITUTE":23.549441999999999,"use_status":"啟用"},"geometry":{"x":119.60515554728801,"y":23.550285450516089}},{"attributes":{"OBJECTID":82,"Stcode":2194,"StName":"東衛水庫","Zone":"南區","Dam":"東衛水庫","Orgchg":"磺溪流域","Riv_name":"磺溪","Countyname":"澎湖縣","Townname":"馬公市","Addr":"澎湖縣馬公市","TM2_X":107065.75,"TM2_Y":2607796.1800000002,"LONGITUTE":119.597683,"LATITUTE":23.567762999999999,"use_status":"啟用"},"geometry":{"x":119.59986278812787,"y":23.567242501588268}},{"attributes":{"OBJECTID":83,"Stcode":2195,"StName":"西安水庫","Zone":"南區","Dam":"西安水庫","Orgchg":"磺溪流域","Riv_name":"磺溪","Countyname":"澎湖縣","Townname":"望安鄉","Addr":"澎湖縣望安鄉","TM2_X":96702.350000000006,"TM2_Y":2585321.8599999999,"LONGITUTE":119.497236,"LATITUTE":23.364550000000001,"use_status":"啟用"},"geometry":{"x":119.50066628851599,"y":23.363417382365402}},{"attributes":{"OBJECTID":84,"Stcode":2196,"StName":"小池水庫","Zone":"南區","Dam":"小池水庫","Orgchg":"NULL","Riv_name":"NULL","Countyname":"澎湖縣","Townname":"西嶼鄉","Addr":"澎湖縣西嶼鄉","TM2_X":97858.699999999997,"TM2_Y":2612539.5899999999,"LONGITUTE":119.50930700000001,"LATITUTE":23.610886000000001,"use_status":"啟用"},"geometry":{"x":119.5092127525356,"y":23.609222837589062}},{"attributes":{"OBJECTID":85,"Stcode":2197,"StName":"七美水庫","Zone":"南區","Dam":"七美水庫","Orgchg":"NULL","Riv_name":"NULL","Countyname":"澎湖縣","Townname":"七美鄉","Addr":"澎湖縣七美鄉","TM2_X":90392.740000000005,"TM2_Y":2568522.5499999998,"LONGITUTE":119.434562,"LATITUTE":23.211728999999998,"use_status":"啟用"},"geometry":{"x":119.44073994469962,"y":23.211165896841635}},{"attributes":{"OBJECTID":86,"Stcode":2201,"StName":"德基水庫五","Zone":"中區","Dam":"德基水庫","Orgchg":"大甲溪流域","Riv_name":"大甲溪","Countyname":"台中市","Townname":"和平區","Addr":"台中市和平區","TM2_X":275147,"TM2_Y":2684957,"LONGITUTE":121.24768400000001,"LATITUTE":24.270084000000001,"use_status":"啟用"},"geometry":{"x":121.24768451734342,"y":24.270083762684799}},{"attributes":{"OBJECTID":87,"Stcode":2202,"StName":"大埔水庫","Zone":"中區","Dam":"大埔水庫","Orgchg":"中港溪流域","Riv_name":"中港溪","Countyname":"新竹縣","Townname":"峨嵋鄉","Addr":"新竹縣峨嵋鄉","TM2_X":248355.69,"TM2_Y":2729882.0299999998,"LONGITUTE":120.983752,"LATITUTE":24.675913000000001,"use_status":"啟用"},"geometry":{"x":120.9837523844822,"y":24.675913469357852}},{"attributes":{"OBJECTID":88,"Stcode":2203,"StName":"石門水庫六","Zone":"北區","Dam":"石門水庫","Orgchg":"淡水河流域","Riv_name":"大漢溪","Countyname":"桃園縣","Townname":"大溪鎮","Addr":"桃園縣大溪鎮","TM2_X":281417.40000000002,"TM2_Y":2744396.8300000001,"LONGITUTE":121.266362,"LATITUTE":24.810776000000001,"use_status":"啟用"},"geometry":{"x":121.31076270658329,"y":24.806641307622481}},{"attributes":{"OBJECTID":89,"Stcode":2204,"StName":"寶二水庫一","Zone":"北區","Dam":"寶二水庫","Orgchg":"頭前溪流域","Riv_name":"上坪溪","Countyname":"新竹縣","Townname":"北埔鄉","Addr":"新竹縣北埔鄉普尾村普尾34之8號","TM2_X":256569.60000000001,"TM2_Y":2736187.79,"LONGITUTE":121.06475930000001,"LATITUTE":24.732786999999998,"use_status":"啟用"},"geometry":{"x":121.06494447205498,"y":24.732833350311541}},{"attributes":{"OBJECTID":90,"Stcode":2205,"StName":"寶二水庫二","Zone":"北區","Dam":"寶二水庫","Orgchg":"頭前溪流域","Riv_name":"上坪溪","Countyname":"新竹縣","Townname":"北埔鄉","Addr":"新竹縣北埔鄉普尾村普尾34之8號","TM2_X":255920.48999999999,"TM2_Y":2736224.4199999999,"LONGITUTE":121.0583657,"LATITUTE":24.7330741,"use_status":"停用"},"geometry":{"x":121.05852778438853,"y":24.733166713655596}},{"attributes":{"OBJECTID":91,"Stcode":2206,"StName":"寶二水庫三","Zone":"北區","Dam":"寶二水庫","Orgchg":"頭前溪流域","Riv_name":"上坪溪","Countyname":"新竹縣","Townname":"北埔鄉","Addr":"新竹縣北埔鄉普尾村普尾34之8號","TM2_X":255406.48000000001,"TM2_Y":2735695.0299999998,"LONGITUTE":121.0533519,"LATITUTE":24.7283416,"use_status":"停用"},"geometry":{"x":121.05344443036157,"y":24.728388905290423}},{"attributes":{"OBJECTID":92,"Stcode":2207,"StName":"寶二水庫四","Zone":"北區","Dam":"寶二水庫","Orgchg":"頭前溪流域","Riv_name":"上坪溪","Countyname":"新竹縣","Townname":"北埔鄉","Addr":"新竹縣北埔鄉普尾村普尾34之8號","TM2_X":254648.04999999999,"TM2_Y":2734891.7599999998,"LONGITUTE":121.0458519,"LATITUTE":24.721115699999999,"use_status":"停用"},"geometry":{"x":121.04594449568046,"y":24.721138895959243}},{"attributes":{"OBJECTID":93,"Stcode":0,"StName":"西勢水庫一","Zone":" ","Dam":"西勢水庫","Orgchg":" ","Riv_name":" ","Countyname":"基隆市","Townname":"暖暖區","Addr":"基隆市暖暖區","TM2_X":323353.84000000003,"TM2_Y":2775882.0499999998,"LONGITUTE":121.72721900000001,"LATITUTE":25.089359000000002,"use_status":"停用"},"geometry":{"x":121.72721899972846,"y":25.089359000206052}},{"attributes":{"OBJECTID":94,"Stcode":0,"StName":"西勢水庫二","Zone":" ","Dam":"西勢水庫","Orgchg":" ","Riv_name":" ","Countyname":"基隆市","Townname":"暖暖區","Addr":"基隆市暖暖區","TM2_X":324258.96000000002,"TM2_Y":2775593.1600000001,"LONGITUTE":121.736176,"LATITUTE":25.086707000000001,"use_status":"停用"},"geometry":{"x":121.73617600040775,"y":25.086706999795272}},{"attributes":{"OBJECTID":95,"Stcode":0,"StName":"曾文水庫七","Zone":" ","Dam":"曾文水庫","Orgchg":" ","Riv_name":" ","Countyname":"嘉義縣","Townname":"大埔鄉","Addr":"嘉義縣大埔鄉","TM2_X":203927.09,"TM2_Y":2571961.5099999998,"LONGITUTE":120.549736,"LATITUTE":23.249227999999999,"use_status":"停用"},"geometry":{"x":120.54973599979607,"y":23.249227999683821}},{"attributes":{"OBJECTID":96,"Stcode":0,"StName":"興仁水庫一","Zone":" ","Dam":"興仁水庫","Orgchg":" ","Riv_name":" ","Countyname":"澎湖縣","Townname":"馬公市","Addr":"澎湖縣馬公市","TM2_X":107758.03,"TM2_Y":2605826.4500000002,"LONGITUTE":119.606836,"LATITUTE":23.549441999999999,"use_status":"廢站"},"geometry":{"x":119.60683599965813,"y":23.549441999620143}},{"attributes":{"OBJECTID":97,"Stcode":0,"StName":"興仁水庫二","Zone":" ","Dam":"興仁水庫","Orgchg":" ","Riv_name":" ","Countyname":"澎湖縣","Townname":"馬公市","Addr":"澎湖縣馬公市","TM2_X":107516.49000000001,"TM2_Y":2605897.3700000001,"LONGITUTE":119.60446399999999,"LATITUTE":23.550060999999999,"use_status":"停用"},"geometry":{"x":119.60446400002617,"y":23.550060999757232}},{"attributes":{"OBJECTID":98,"Stcode":0,"StName":"興仁水庫三","Zone":" ","Dam":"興仁水庫","Orgchg":" ","Riv_name":" ","Countyname":"澎湖縣","Townname":"馬公市","Addr":"澎湖縣馬公市","TM2_X":107672.56,"TM2_Y":2605721.6099999999,"LONGITUTE":119.606009,"LATITUTE":23.548487999999999,"use_status":"停用"},"geometry":{"x":119.60600899985276,"y":23.548487999887183}},{"attributes":{"OBJECTID":99,"Stcode":0,"StName":"東衛水庫一","Zone":" ","Dam":"東衛水庫","Orgchg":" ","Riv_name":" ","Countyname":"澎湖縣","Townname":"馬公市","Addr":"澎湖縣馬公市","TM2_X":106890.78999999999,"TM2_Y":2607799.0499999998,"LONGITUTE":119.59815500000001,"LATITUTE":23.567173,"use_status":"廢站"},"geometry":{"x":119.59815500006745,"y":23.567173000260798}},{"attributes":{"OBJECTID":100,"Stcode":0,"StName":"東衛水庫二","Zone":" ","Dam":"東衛水庫","Orgchg":" ","Riv_name":" ","Countyname":"澎湖縣","Townname":"馬公市","Addr":"澎湖縣馬公市","TM2_X":106958.82000000001,"TM2_Y":2607811.4500000002,"LONGITUTE":119.59882,"LATITUTE":23.567291000000001,"use_status":"停用"},"geometry":{"x":119.59882000047818,"y":23.56729099990752}},{"attributes":{"OBJECTID":101,"Stcode":0,"StName":"東衛水庫三","Zone":" ","Dam":"東衛水庫","Orgchg":" ","Riv_name":" ","Countyname":"澎湖縣","Townname":"馬公市","Addr":"澎湖縣馬公市","TM2_X":106808.33,"TM2_Y":2607876.1800000002,"LONGITUTE":119.59734,"LATITUTE":23.567862000000002,"use_status":"停用"},"geometry":{"x":119.59733999993729,"y":23.567862000412713}}]}