{"displayFieldName":"STATION_NA","fieldAliases":{"OBJECTID":"OBJECTID","STATION_NA":"STATION_NA","COUNTY_NA":"COUNTY_NA","ZIPCODE":"ZIPCODE","ADDRESS":"ADDRESS","TEL":"TEL","LICENSE_NO":"LICENSE_NO","OWNER":"OWNER","LOCATION_T":"LOCATION_T","LOCATION_X":"LOCATION_X","LOCATION_Y":"LOCATION_Y"},"geometryType":"esriGeometryMultipoint","spatialReference":{"wkid":104137},"fields":[{"name":"OBJECTID","type":"esriFieldTypeOID","alias":"OBJECTID"},{"name":"STATION_NA","type":"esriFieldTypeString","alias":"STATION_NA","length":30},{"name":"COUNTY_NA","type":"esriFieldTypeString","alias":"COUNTY_NA","length":6},{"name":"ZIPCODE","type":"esriFieldTypeString","alias":"ZIPCODE","length":4},{"name":"ADDRESS","type":"esriFieldTypeString","alias":"ADDRESS","length":40},{"name":"TEL","type":"esriFieldTypeString","alias":"TEL","length":11},{"name":"LICENSE_NO","type":"esriFieldTypeString","alias":"LICENSE_NO","length":3},{"name":"OWNER","type":"esriFieldTypeString","alias":"OWNER","length":10},{"name":"LOCATION_T","type":"esriFieldTypeString","alias":"LOCATION_T","length":10},{"name":"LOCATION_X","type":"esriFieldTypeDouble","alias":"LOCATION_X"},{"name":"LOCATION_Y","type":"esriFieldTypeDouble","alias":"LOCATION_Y"}],"features":[{"attributes":{"OBJECTID":1201,"STATION_NA":"聖鑫機車精品店","COUNTY_NA":"南投縣","ZIPCODE":"545","ADDRESS":"545南投縣埔里鎮大城里中山路3段623號","TEL":"049-2915914","LICENSE_NO":"M46","OWNER":"張為璸","LOCATION_T":"中華電信","LOCATION_X":244015,"LOCATION_Y":2651995},"geometry":{"points":[[120.94932997101186,23.970789998350444]]}},{"attributes":{"OBJECTID":1202,"STATION_NA":"永富車業","COUNTY_NA":"南投縣","ZIPCODE":"545","ADDRESS":"545南投縣埔里鎮中山路三段107號","TEL":"049-2982346","LICENSE_NO":"M47","OWNER":"林志民","LOCATION_T":"現地調查","LOCATION_X":245393,"LOCATION_Y":2651511},"geometry":{"points":[[120.96287218798446,23.966423267801616]]}},{"attributes":{"OBJECTID":1203,"STATION_NA":"東山機車行","COUNTY_NA":"南投縣","ZIPCODE":"545","ADDRESS":"545南投縣埔里鎮中正路183-2號","TEL":"049-2984772","LICENSE_NO":"M48","OWNER":"王宗傑","LOCATION_T":"中華電信","LOCATION_X":246483,"LOCATION_Y":2650504},"geometry":{"points":[[120.97358422332968,23.957332507107335]]}},{"attributes":{"OBJECTID":1204,"STATION_NA":"城中車行","COUNTY_NA":"南投縣","ZIPCODE":"542","ADDRESS":"542南投縣草屯鎮土城里中正路167號","TEL":"049-2552132","LICENSE_NO":"M49","OWNER":"林素銀","LOCATION_T":"地址對位","LOCATION_X":227016,"LOCATION_Y":2653006},"geometry":{"points":[[120.78227255714687,23.979775650106721]]}},{"attributes":{"OBJECTID":1205,"STATION_NA":"永興機車行","COUNTY_NA":"南投縣","ZIPCODE":"542","ADDRESS":"542南投縣草屯鎮山腳里虎山路372號1F","TEL":"049-2332087","LICENSE_NO":"M50","OWNER":"簡秉癸","LOCATION_T":"地址對位","LOCATION_X":217307,"LOCATION_Y":2651464},"geometry":{"points":[[120.68689445194532,23.965683255614529]]}},{"attributes":{"OBJECTID":1206,"STATION_NA":"新明義機車行","COUNTY_NA":"南投縣","ZIPCODE":"542","ADDRESS":"542南投縣草屯鎮中正路666號","TEL":"049-2353676","LICENSE_NO":"M51","OWNER":"張明哲","LOCATION_T":"地址對位","LOCATION_X":217064,"LOCATION_Y":2652977},"geometry":{"points":[[120.68447413066521,23.979339211309366]]}},{"attributes":{"OBJECTID":1207,"STATION_NA":"新士車業(股)公司","COUNTY_NA":"南投縣","ZIPCODE":"542","ADDRESS":"542南投縣草屯鎮中正路708號","TEL":"049-2365537","LICENSE_NO":"M52","OWNER":"詹柏樺","LOCATION_T":"地址對位","LOCATION_X":217080,"LOCATION_Y":2653094},"geometry":{"points":[[120.68462882767578,23.980395954906577]]}},{"attributes":{"OBJECTID":1208,"STATION_NA":"輝煌機車行","COUNTY_NA":"南投縣","ZIPCODE":"542","ADDRESS":"542南投縣草屯鎮中正路807號","TEL":"049-2333677","LICENSE_NO":"M53","OWNER":"曾明松","LOCATION_T":"地址對位","LOCATION_X":217099,"LOCATION_Y":2653371},"geometry":{"points":[[120.68480955221438,23.982897433109112]]}},{"attributes":{"OBJECTID":1209,"STATION_NA":"鴻彬機車行","COUNTY_NA":"南投縣","ZIPCODE":"542","ADDRESS":"542南投縣草屯鎮虎山路412號1F","TEL":"049-2335106","LICENSE_NO":"M54","OWNER":"鄒淑熹","LOCATION_T":"地址對位","LOCATION_X":217375,"LOCATION_Y":2651554},"geometry":{"points":[[120.68756063438478,23.966497283162912]]}},{"attributes":{"OBJECTID":1210,"STATION_NA":"泉源車行","COUNTY_NA":"南投縣","ZIPCODE":"542","ADDRESS":"542南投縣草屯鎮新庄里芬草路186號","TEL":"049-2330742","LICENSE_NO":"M55","OWNER":"廖土泉","LOCATION_T":"地址對位","LOCATION_X":215622,"LOCATION_Y":2654464},"geometry":{"points":[[120.67027126523158,23.992734965333636]]}},{"attributes":{"OBJECTID":1211,"STATION_NA":"台新機車行","COUNTY_NA":"南投縣","ZIPCODE":"542","ADDRESS":"542南投縣草屯鎮碧山路1050號","TEL":"049-2336297","LICENSE_NO":"M56","OWNER":"吳阿舟","LOCATION_T":"地址對位","LOCATION_X":214369,"LOCATION_Y":2652403},"geometry":{"points":[[120.65800545209163,23.974098469593493]]}},{"attributes":{"OBJECTID":1212,"STATION_NA":"大統機車行","COUNTY_NA":"南投縣","ZIPCODE":"542","ADDRESS":"542南投縣草屯鎮碧山路1155-7號","TEL":"049-2314258","LICENSE_NO":"M57","OWNER":"林明顯","LOCATION_T":"地址對位","LOCATION_X":213716,"LOCATION_Y":2652110},"geometry":{"points":[[120.65159588616139,23.971438345465206]]}},{"attributes":{"OBJECTID":1213,"STATION_NA":"長興機車行","COUNTY_NA":"南投縣","ZIPCODE":"544","ADDRESS":"544南投縣國姓鄉國姓路433-31號","TEL":"049-2721911","LICENSE_NO":"M58","OWNER":"何本滄","LOCATION_T":"地址對位","LOCATION_X":234291,"LOCATION_Y":2659340},"geometry":{"points":[[120.85370233201749,24.037051656514691]]}},{"attributes":{"OBJECTID":1214,"STATION_NA":"諭興機車行","COUNTY_NA":"南投縣","ZIPCODE":"541","ADDRESS":"541南投縣中寮鄉永平村永安街162號","TEL":"049-2692991","LICENSE_NO":"M59","OWNER":"張淑美","LOCATION_T":"地址對位","LOCATION_X":225260,"LOCATION_Y":2641999},"geometry":{"points":[[120.76519476858485,23.880360616903122]]}},{"attributes":{"OBJECTID":1215,"STATION_NA":"李王順機車行","COUNTY_NA":"南投縣","ZIPCODE":"556","ADDRESS":"556南投縣信義鄉明德村明德街19號","TEL":"049-2791142","LICENSE_NO":"M60","OWNER":"李國印","LOCATION_T":"中華電信","LOCATION_X":234238,"LOCATION_Y":2621700},"geometry":{"points":[[120.85355907372532,23.697166475921772]]}},{"attributes":{"OBJECTID":1216,"STATION_NA":"好朋友機車行","COUNTY_NA":"南投縣","ZIPCODE":"558","ADDRESS":"558南投縣鹿谷鄉鹿谷村鹿彰路350號","TEL":" ","LICENSE_NO":"M61","OWNER":" ","LOCATION_T":"中華電信","LOCATION_X":223812,"LOCATION_Y":2627394},"geometry":{"points":[[120.7512245652045,23.74845855409572]]}},{"attributes":{"OBJECTID":1217,"STATION_NA":"德來機車行有限公司","COUNTY_NA":"彰化縣","ZIPCODE":"500","ADDRESS":"500彰化縣彰化市中山路二段555號","TEL":"04-7227555","LICENSE_NO":"N01","OWNER":"張分淵","LOCATION_T":"地址對位","LOCATION_X":202905,"LOCATION_Y":2664097},"geometry":{"points":[[120.5449785947762,24.07939917409945]]}},{"attributes":{"OBJECTID":1218,"STATION_NA":"鴻安車業有限公司","COUNTY_NA":"彰化縣","ZIPCODE":"500","ADDRESS":"500彰化縣彰化市中山路三段290號","TEL":"04-7257565","LICENSE_NO":"N02","OWNER":"陳鴻文","LOCATION_T":"地址對位","LOCATION_X":204500,"LOCATION_Y":2664880},"geometry":{"points":[[120.56064117073217,24.086515176150602]]}},{"attributes":{"OBJECTID":1219,"STATION_NA":"金發機車行","COUNTY_NA":"彰化縣","ZIPCODE":"500","ADDRESS":"500彰化縣彰化市中正路一段78號","TEL":"04-7224816","LICENSE_NO":"N03","OWNER":"陳趙英麗","LOCATION_T":"地址對位","LOCATION_X":203503,"LOCATION_Y":2664652},"geometry":{"points":[[120.55084240664911,24.084427898634729]]}},{"attributes":{"OBJECTID":1220,"STATION_NA":"實用車業有限公司","COUNTY_NA":"彰化縣","ZIPCODE":"500","ADDRESS":"500彰化縣彰化市中正路一段396號","TEL":"04-7222062","LICENSE_NO":"N04","OWNER":"陳質種","LOCATION_T":"地址對位","LOCATION_X":202747,"LOCATION_Y":2664489},"geometry":{"points":[[120.54341213294931,24.082934038231109]]}},{"attributes":{"OBJECTID":1221,"STATION_NA":"銘松車行","COUNTY_NA":"彰化縣","ZIPCODE":"500","ADDRESS":"500彰化縣彰化市福成街149號","TEL":"04-7245629","LICENSE_NO":"N05","OWNER":"詹明常","LOCATION_T":"地址對位","LOCATION_X":203753,"LOCATION_Y":2665933},"geometry":{"points":[[120.5532611267288,24.096001694062945]]}},{"attributes":{"OBJECTID":1222,"STATION_NA":"全中行車業有限公司","COUNTY_NA":"彰化縣","ZIPCODE":"500","ADDRESS":"500彰化縣彰化市光復路33號","TEL":"04-27222030","LICENSE_NO":"N06","OWNER":"趙健雄","LOCATION_T":"地址對位","LOCATION_X":202899,"LOCATION_Y":2664251},"geometry":{"points":[[120.54491467320258,24.080789516646998]]}},{"attributes":{"OBJECTID":1223,"STATION_NA":"朝生機車行","COUNTY_NA":"彰化縣","ZIPCODE":"500","ADDRESS":"500彰化縣彰化市彰南路三段146號","TEL":"04-7381872","LICENSE_NO":"N07","OWNER":"邱福生","LOCATION_T":"地址對位","LOCATION_X":208106,"LOCATION_Y":2664375},"geometry":{"points":[[120.59612191009766,24.08205348156239]]}},{"attributes":{"OBJECTID":1224,"STATION_NA":"銘隆車業有限公司","COUNTY_NA":"彰化縣","ZIPCODE":"500","ADDRESS":"500彰化縣彰化市彰草路417號","TEL":"04-27525029","LICENSE_NO":"N08","OWNER":"陳局明","LOCATION_T":"地址對位","LOCATION_X":200588,"LOCATION_Y":2663886},"geometry":{"points":[[120.52219801976503,24.07742440377978]]}},{"attributes":{"OBJECTID":1225,"STATION_NA":"二水永興有限公司","COUNTY_NA":"彰化縣","ZIPCODE":"530","ADDRESS":"530彰化縣二水鄉聖化村員集路三段594號","TEL":"04-28792451","LICENSE_NO":"N09","OWNER":"黃明欽","LOCATION_T":"地址對位","LOCATION_X":210153,"LOCATION_Y":2634088},"geometry":{"points":[[120.61706106947393,23.808624875954212]]}},{"attributes":{"OBJECTID":1226,"STATION_NA":"正全機車有限公司","COUNTY_NA":"彰化縣","ZIPCODE":"526","ADDRESS":"526彰化縣二林鎮大成路一段372號","TEL":"04-28961539","LICENSE_NO":"N10","OWNER":"吳正良","LOCATION_T":"地址對位","LOCATION_X":184274,"LOCATION_Y":2643497},"geometry":{"points":[[120.36266513947866,23.892742973934013]]}},{"attributes":{"OBJECTID":1227,"STATION_NA":"宏隆機車行","COUNTY_NA":"彰化縣","ZIPCODE":"526","ADDRESS":"526彰化縣二林鎮新生路94號","TEL":"04-28960611","LICENSE_NO":"N11","OWNER":"梁朝期","LOCATION_T":"地址對位","LOCATION_X":184854,"LOCATION_Y":2644463},"geometry":{"points":[[120.36831860688547,23.901488973288661]]}},{"attributes":{"OBJECTID":1228,"STATION_NA":"原昌車業有限公司","COUNTY_NA":"彰化縣","ZIPCODE":"515","ADDRESS":"515彰化縣大村鄉美港村中山路一段9號","TEL":"04-28356089","LICENSE_NO":"N12","OWNER":"游添福","LOCATION_T":"地址對位","LOCATION_X":205563,"LOCATION_Y":2652438},"geometry":{"points":[[120.57147042991473,23.974197928446184]]}},{"attributes":{"OBJECTID":1229,"STATION_NA":"良英機車行","COUNTY_NA":"彰化縣","ZIPCODE":"521","ADDRESS":"521彰化縣北斗鎮中山路二段233號","TEL":"04-28882524","LICENSE_NO":"N13","OWNER":"陳俊英","LOCATION_T":"地址對位","LOCATION_X":200290,"LOCATION_Y":2641742},"geometry":{"points":[[120.52000788069614,23.877465758923314]]}},{"attributes":{"OBJECTID":1230,"STATION_NA":"瑞榮車業有限公司","COUNTY_NA":"彰化縣","ZIPCODE":"504","ADDRESS":"504彰化縣秀水鄉鶴鳴村民主街215號","TEL":"04-7697242","LICENSE_NO":"N14","OWNER":"陳家成","LOCATION_T":"地址對位","LOCATION_X":197891,"LOCATION_Y":2661739},"geometry":{"points":[[120.49574944170629,24.0579532291171]]}},{"attributes":{"OBJECTID":1231,"STATION_NA":"耀祥輪業有限公司","COUNTY_NA":"彰化縣","ZIPCODE":"508","ADDRESS":"508彰化縣和美鎮道周路713號","TEL":"04-7558669","LICENSE_NO":"N15","OWNER":"黃添丁","LOCATION_T":"地址對位","LOCATION_X":197462,"LOCATION_Y":2667767},"geometry":{"points":[[120.4913165127695,24.112366642565505]]}},{"attributes":{"OBJECTID":1232,"STATION_NA":"銓湧機車有限公司","COUNTY_NA":"彰化縣","ZIPCODE":"508","ADDRESS":"508彰化縣和美鎮彰美路六段63號","TEL":"04-27553145","LICENSE_NO":"N16","OWNER":"賴利湧","LOCATION_T":"地址對位","LOCATION_X":198065,"LOCATION_Y":2667877},"geometry":{"points":[[120.49724460851668,24.113379547103889]]}},{"attributes":{"OBJECTID":1233,"STATION_NA":"東陽機車行","COUNTY_NA":"彰化縣","ZIPCODE":"511","ADDRESS":"511彰化縣社頭鄉員集路二段333號","TEL":"04-28732927","LICENSE_NO":"N17","OWNER":"陳玉華","LOCATION_T":"地址對位","LOCATION_X":207100,"LOCATION_Y":2644293},"geometry":{"points":[[120.58680485699826,23.900695043145262]]}},{"attributes":{"OBJECTID":1234,"STATION_NA":"順進機車行","COUNTY_NA":"彰化縣","ZIPCODE":"511","ADDRESS":"511彰化縣社頭鄉員集路二段604號","TEL":"04-28731277","LICENSE_NO":"N18","OWNER":"詹森林","LOCATION_T":"地址對位","LOCATION_X":206819,"LOCATION_Y":2644742},"geometry":{"points":[[120.58403229239271,23.904741847861732]]}},{"attributes":{"OBJECTID":1235,"STATION_NA":"祺淵車業有限公司","COUNTY_NA":"彰化縣","ZIPCODE":"511","ADDRESS":"511彰化縣社頭鄉社斗路一段50號","TEL":"04-8736727","LICENSE_NO":"N19","OWNER":"邱素香","LOCATION_T":"地址對位","LOCATION_X":207511,"LOCATION_Y":2644022},"geometry":{"points":[[120.59084894392926,23.898258889830267]]}},{"attributes":{"OBJECTID":1236,"STATION_NA":"明德機車行","COUNTY_NA":"彰化縣","ZIPCODE":"528","ADDRESS":"528彰化縣芳苑鄉斗苑路芳苑段160號","TEL":"04-8984143","LICENSE_NO":"N20","OWNER":"洪才元","LOCATION_T":"地址對位","LOCATION_X":180126,"LOCATION_Y":2646894},"geometry":{"points":[[120.32177027474906,23.923241829160659]]}},{"attributes":{"OBJECTID":1237,"STATION_NA":"宏展車業股份有限公司","COUNTY_NA":"彰化縣","ZIPCODE":"503","ADDRESS":"503彰化縣花壇鄉中山路二段772號","TEL":"04-27867186","LICENSE_NO":"N21","OWNER":"賴利湧","LOCATION_T":"地址對位","LOCATION_X":201701,"LOCATION_Y":2660773},"geometry":{"points":[[120.53324617898008,24.049349539522883]]}},{"attributes":{"OBJECTID":1238,"STATION_NA":"安詮車業有限公司","COUNTY_NA":"彰化縣","ZIPCODE":"503","ADDRESS":"503彰化縣花壇鄉花壇村花壇街1號","TEL":"04-27863948","LICENSE_NO":"N22","OWNER":"郭清山","LOCATION_T":"地址對位","LOCATION_X":202435,"LOCATION_Y":2657570},"geometry":{"points":[[120.54056683028773,24.020449473645847]]}},{"attributes":{"OBJECTID":1239,"STATION_NA":"良美機車企業行","COUNTY_NA":"彰化縣","ZIPCODE":"502","ADDRESS":"502彰化縣芬園鄉芬草路二段159號","TEL":"04-9522810","LICENSE_NO":"N23","OWNER":"王月燭","LOCATION_T":"地址對位","LOCATION_X":211753,"LOCATION_Y":2656772},"geometry":{"points":[[120.63218762183597,24.013490500439612]]}},{"attributes":{"OBJECTID":1240,"STATION_NA":"杉陽輪業有限公司","COUNTY_NA":"彰化縣","ZIPCODE":"510","ADDRESS":"510彰化縣員林鎮中山路一段519號","TEL":"04-8323501","LICENSE_NO":"N24","OWNER":"徐志惠","LOCATION_T":"地址對位","LOCATION_X":205154,"LOCATION_Y":2650155},"geometry":{"points":[[120.56751922092636,23.953572561631965]]}},{"attributes":{"OBJECTID":1241,"STATION_NA":"冠緯車業有限公司","COUNTY_NA":"彰化縣","ZIPCODE":"510","ADDRESS":"510彰化縣員林鎮大同路二段345號","TEL":"04-8323040","LICENSE_NO":"N25","OWNER":"黃鴻口永","LOCATION_T":"地址對位","LOCATION_X":205602,"LOCATION_Y":2651846},"geometry":{"points":[[120.57187120221816,23.968853529078157]]}},{"attributes":{"OBJECTID":1242,"STATION_NA":"和平機車行","COUNTY_NA":"彰化縣","ZIPCODE":"510","ADDRESS":"510彰化縣員林鎮中山路二段21號","TEL":"04-8322357","LICENSE_NO":"N26","OWNER":"戴勝雄","LOCATION_T":"地址對位","LOCATION_X":205461,"LOCATION_Y":2650871},"geometry":{"points":[[120.5705144912656,23.96004600785356]]}},{"attributes":{"OBJECTID":1243,"STATION_NA":"大益機車行","COUNTY_NA":"彰化縣","ZIPCODE":"510","ADDRESS":"510彰化縣員林鎮中山路二段558號","TEL":"04-8333173","LICENSE_NO":"N27","OWNER":"張黃金蘭","LOCATION_T":"地址對位","LOCATION_X":205600,"LOCATION_Y":2652298},"geometry":{"points":[[120.57183818113248,23.972934802746035]]}},{"attributes":{"OBJECTID":1244,"STATION_NA":"建新機車行","COUNTY_NA":"彰化縣","ZIPCODE":"512","ADDRESS":"512彰化縣永靖鄉中山路二段125號","TEL":"04-8224826","LICENSE_NO":"N28","OWNER":"邱賴藤花","LOCATION_T":"地址對位","LOCATION_X":203329,"LOCATION_Y":2646602},"geometry":{"points":[[120.5496981999529,23.921439583590658]]}},{"attributes":{"OBJECTID":1245,"STATION_NA":"健發機車行","COUNTY_NA":"彰化縣","ZIPCODE":"510","ADDRESS":"510彰化縣員林鎮中正路67號","TEL":"04-8323991","LICENSE_NO":"N29","OWNER":"蔡建湧","LOCATION_T":"地址對位","LOCATION_X":205966,"LOCATION_Y":2649854},"geometry":{"points":[[120.57550618547526,23.950876921228616]]}},{"attributes":{"OBJECTID":1246,"STATION_NA":"新勝輪機車行","COUNTY_NA":"彰化縣","ZIPCODE":"513","ADDRESS":"513彰化縣埔心鄉太平村中山路60號","TEL":"04-8323602","LICENSE_NO":"N30","OWNER":"徐維乾","LOCATION_T":"地址對位","LOCATION_X":204306,"LOCATION_Y":2648497},"geometry":{"points":[[120.5592375991237,23.938578210168554]]}},{"attributes":{"OBJECTID":1247,"STATION_NA":"泰安機車行","COUNTY_NA":"彰化縣","ZIPCODE":"505","ADDRESS":"505彰化縣鹿港鎮民權路27號","TEL":"04-7775291","LICENSE_NO":"N31","OWNER":"郭明安","LOCATION_T":"地址對位","LOCATION_X":192070,"LOCATION_Y":2661805},"geometry":{"points":[[120.43850871636866,24.058349247704683]]}},{"attributes":{"OBJECTID":1248,"STATION_NA":"泉興機車股份有限公司","COUNTY_NA":"彰化縣","ZIPCODE":"505","ADDRESS":"505彰化縣鹿港鎮彰鹿路八段88號","TEL":"04-7772363","LICENSE_NO":"N32","OWNER":"呂嘉甫","LOCATION_T":"地址對位","LOCATION_X":191977,"LOCATION_Y":2660909},"geometry":{"points":[[120.43762958880831,24.050255698142905]]}},{"attributes":{"OBJECTID":1249,"STATION_NA":"連陞車業有限公司","COUNTY_NA":"彰化縣","ZIPCODE":"505","ADDRESS":"505彰化縣鹿港鎮民族路30號","TEL":"04-7773429","LICENSE_NO":"N33","OWNER":"林和貴","LOCATION_T":"地址對位","LOCATION_X":191919,"LOCATION_Y":2661630},"geometry":{"points":[[120.4370308489291,24.056763658787947]]}},{"attributes":{"OBJECTID":1250,"STATION_NA":"昌盛車業有限公司","COUNTY_NA":"彰化縣","ZIPCODE":"524","ADDRESS":"524彰化縣溪州鄉中央路三段336號","TEL":"04-8895286","LICENSE_NO":"N34","OWNER":"林昌敏","LOCATION_T":"地址對位","LOCATION_X":197729,"LOCATION_Y":2638906},"geometry":{"points":[[120.49495919457769,23.851777177558223]]}},{"attributes":{"OBJECTID":1251,"STATION_NA":"永光機車行","COUNTY_NA":"彰化縣","ZIPCODE":"514","ADDRESS":"514彰化縣溪湖鎮彰水路三段317號","TEL":"04-8851929","LICENSE_NO":"N35","OWNER":"楊富凱","LOCATION_T":"地址對位","LOCATION_X":196246,"LOCATION_Y":2650930},"geometry":{"points":[[120.47996745684506,23.960299379341475]]}},{"attributes":{"OBJECTID":1252,"STATION_NA":"富勝輪業有限公司","COUNTY_NA":"彰化縣","ZIPCODE":"521","ADDRESS":"521彰化縣北斗鎮斗苑路一段318號","TEL":"04-8887711","LICENSE_NO":"N40","OWNER":"胡允恭","LOCATION_T":"地址對位","LOCATION_X":200335,"LOCATION_Y":2641181},"geometry":{"points":[[120.52046825228969,23.872401549613475]]}},{"attributes":{"OBJECTID":1253,"STATION_NA":"春興機車行","COUNTY_NA":"彰化縣","ZIPCODE":"521","ADDRESS":"521彰化縣北斗鎮地政路328號","TEL":"04-8884783","LICENSE_NO":"N41","OWNER":"陳文東","LOCATION_T":"地址對位","LOCATION_X":201002,"LOCATION_Y":2641447},"geometry":{"points":[[120.52700882068388,23.874823686152407]]}},{"attributes":{"OBJECTID":1254,"STATION_NA":"裕興機車行","COUNTY_NA":"彰化縣","ZIPCODE":"512","ADDRESS":"512彰化縣永靖鄉永福路一段578號","TEL":"04-8222168","LICENSE_NO":"N42","OWNER":"黃王淑裁","LOCATION_T":"地址對位","LOCATION_X":201374,"LOCATION_Y":2646989},"geometry":{"points":[[120.53048239002302,23.924876374404828]]}},{"attributes":{"OBJECTID":1255,"STATION_NA":"信源車業有限公司","COUNTY_NA":"彰化縣","ZIPCODE":"520","ADDRESS":"520彰化縣田中鎮員集路一段915號","TEL":"04-8741658","LICENSE_NO":"N43","OWNER":"陳國仁","LOCATION_T":"地址對位","LOCATION_X":207374,"LOCATION_Y":2638857},"geometry":{"points":[[120.58965057130352,23.851616703523469]]}},{"attributes":{"OBJECTID":1256,"STATION_NA":"隆盛機車行","COUNTY_NA":"彰化縣","ZIPCODE":"520","ADDRESS":"520彰化縣田中鎮員集路三段225號","TEL":"04-8742093","LICENSE_NO":"N44","OWNER":"蕭武勇","LOCATION_T":"地址對位","LOCATION_X":207116,"LOCATION_Y":2640937},"geometry":{"points":[[120.58705788402906,23.870391719302287]]}},{"attributes":{"OBJECTID":1257,"STATION_NA":"千暉機車行有限公司","COUNTY_NA":"彰化縣","ZIPCODE":"508","ADDRESS":"508彰化縣和美鎮彰新路五段60巷22號","TEL":"04-7565589","LICENSE_NO":"N45","OWNER":"葉嘉旭","LOCATION_T":"地址對位","LOCATION_X":199672,"LOCATION_Y":2669569},"geometry":{"points":[[120.51299586093894,24.128707941610759]]}},{"attributes":{"OBJECTID":1258,"STATION_NA":"正一機車行","COUNTY_NA":"彰化縣","ZIPCODE":"503","ADDRESS":"503彰化縣花壇鄉中山路一段411號","TEL":"04-7861038","LICENSE_NO":"N46","OWNER":"巫燈權","LOCATION_T":"地址對位","LOCATION_X":202402,"LOCATION_Y":2658029},"geometry":{"points":[[120.54022760737199,24.024593118430914]]}},{"attributes":{"OBJECTID":1259,"STATION_NA":"越發車業有限公司","COUNTY_NA":"彰化縣","ZIPCODE":"512","ADDRESS":"512彰化縣永靖鄉中山路三段350號","TEL":"04-8235492","LICENSE_NO":"N47","OWNER":"徐玉香","LOCATION_T":"地址對位","LOCATION_X":204020,"LOCATION_Y":2648175},"geometry":{"points":[[120.55643772979235,23.935662644571163]]}},{"attributes":{"OBJECTID":1260,"STATION_NA":"全友輪業有限公司","COUNTY_NA":"彰化縣","ZIPCODE":"510","ADDRESS":"510彰化縣員林鎮中山路一段582號","TEL":"04-8348536","LICENSE_NO":"N48","OWNER":"賴逸郎","LOCATION_T":"地址對位","LOCATION_X":205262,"LOCATION_Y":2650276},"geometry":{"points":[[120.56857677701628,23.95466808667128]]}},{"attributes":{"OBJECTID":1261,"STATION_NA":"采和機車行","COUNTY_NA":"彰化縣","ZIPCODE":"510","ADDRESS":"510彰化縣員林鎮中山路二段36號","TEL":"04-8321017","LICENSE_NO":"N49","OWNER":"吳永珍","LOCATION_T":"地址對位","LOCATION_X":205480,"LOCATION_Y":2650914},"geometry":{"points":[[120.57069991794533,23.960434785770303]]}},{"attributes":{"OBJECTID":1262,"STATION_NA":"信倡機車行","COUNTY_NA":"彰化縣","ZIPCODE":"510","ADDRESS":"510彰化縣員林鎮民生路199號","TEL":"04-8355967","LICENSE_NO":"N50","OWNER":"范榮哲","LOCATION_T":"地址對位","LOCATION_X":205527,"LOCATION_Y":2650422},"geometry":{"points":[[120.5711762259121,23.955993636853844]]}},{"attributes":{"OBJECTID":1263,"STATION_NA":"宏順機車行","COUNTY_NA":"彰化縣","ZIPCODE":"510","ADDRESS":"510彰化縣員林鎮員鹿路75號","TEL":"04-8348355","LICENSE_NO":"N51","OWNER":"楊傳熙","LOCATION_T":"地址對位","LOCATION_X":205164,"LOCATION_Y":2650427},"geometry":{"points":[[120.56760939260876,23.956028824505509]]}},{"attributes":{"OBJECTID":1264,"STATION_NA":"昌益機車行","COUNTY_NA":"彰化縣","ZIPCODE":"523","ADDRESS":"523彰化縣埤頭鄉彰水路三段439號","TEL":"04-8922098","LICENSE_NO":"N52","OWNER":"蔡文燦","LOCATION_T":"地址對位","LOCATION_X":194051,"LOCATION_Y":2643217},"geometry":{"points":[[120.45869083958534,23.890581867665627]]}},{"attributes":{"OBJECTID":1265,"STATION_NA":"大昇車行","COUNTY_NA":"彰化縣","ZIPCODE":"505","ADDRESS":"505彰化縣鹿港鎮鹿草路一段1號","TEL":"04-7773239","LICENSE_NO":"N53","OWNER":"蔡榮福","LOCATION_T":"地址對位","LOCATION_X":191546,"LOCATION_Y":2662086},"geometry":{"points":[[120.43334508072812,24.060867378411793]]}},{"attributes":{"OBJECTID":1266,"STATION_NA":"聖峰輪業有限公司","COUNTY_NA":"彰化縣","ZIPCODE":"524","ADDRESS":"524彰化縣溪洲鄉中山路三段391號","TEL":"04-8896132","LICENSE_NO":"N54","OWNER":"廖慶章","LOCATION_T":"地址對位","LOCATION_X":197787,"LOCATION_Y":2639036},"geometry":{"points":[[120.49552409260048,23.852952910536953]]}},{"attributes":{"OBJECTID":1267,"STATION_NA":"育利輪業有限公司","COUNTY_NA":"彰化縣","ZIPCODE":"514","ADDRESS":"514彰化縣溪湖鎮二溪路一段217號","TEL":"04-8852087","LICENSE_NO":"N55","OWNER":"林岑燕","LOCATION_T":"地址對位","LOCATION_X":195716,"LOCATION_Y":2650809},"geometry":{"points":[[120.47476419192206,23.95918912668801]]}},{"attributes":{"OBJECTID":1268,"STATION_NA":"東隆機車有限公司","COUNTY_NA":"彰化縣","ZIPCODE":"514","ADDRESS":"514彰化縣溪湖鎮員鹿路二段526號","TEL":"04-8810261","LICENSE_NO":"N56","OWNER":"徐錫恩","LOCATION_T":"地址對位","LOCATION_X":196586,"LOCATION_Y":2650631},"geometry":{"points":[[120.48331903620317,23.957610844603312]]}},{"attributes":{"OBJECTID":1269,"STATION_NA":"穩發車業行","COUNTY_NA":"彰化縣","ZIPCODE":"514","ADDRESS":"514彰化縣溪湖鎮彰水路三段490號","TEL":"04-8855973","LICENSE_NO":"N57","OWNER":"楊來發","LOCATION_T":"地址對位","LOCATION_X":196274,"LOCATION_Y":2651357},"geometry":{"points":[[120.48022707059488,23.964155878019689]]}},{"attributes":{"OBJECTID":1270,"STATION_NA":"富宏車業有限公司","COUNTY_NA":"彰化縣","ZIPCODE":"500","ADDRESS":"508彰化縣彰化市華山路8號","TEL":"04-7253657","LICENSE_NO":"N58","OWNER":"陳寶治","LOCATION_T":"地址對位","LOCATION_X":202713,"LOCATION_Y":2663556},"geometry":{"points":[[120.54310761523999,24.074508636236473]]}},{"attributes":{"OBJECTID":1271,"STATION_NA":"瑞挺車業有限公司","COUNTY_NA":"彰化縣","ZIPCODE":"500","ADDRESS":"500彰化縣彰化市中山路二段401號","TEL":"04-7241930","LICENSE_NO":"N59","OWNER":"黃桂花","LOCATION_T":"地址對位","LOCATION_X":202794,"LOCATION_Y":2663682},"geometry":{"points":[[120.54390018330173,24.07564872173392]]}},{"attributes":{"OBJECTID":1272,"STATION_NA":"春金車業有限公司","COUNTY_NA":"彰化縣","ZIPCODE":"500","ADDRESS":"500彰化縣彰化市中山路二段531號","TEL":"04-7237188","LICENSE_NO":"N60","OWNER":"楊添金","LOCATION_T":"地址對位","LOCATION_X":202889,"LOCATION_Y":2664058},"geometry":{"points":[[120.544822479261,24.079046561724557]]}},{"attributes":{"OBJECTID":1273,"STATION_NA":"金馬機車行","COUNTY_NA":"彰化縣","ZIPCODE":"500","ADDRESS":"500彰化縣彰化市中山路二段549號","TEL":"04-7223724","LICENSE_NO":"N61","OWNER":"李炳富","LOCATION_T":"地址對位","LOCATION_X":202900,"LOCATION_Y":2664085},"geometry":{"points":[[120.54492980248938,24.079290675611311]]}},{"attributes":{"OBJECTID":1274,"STATION_NA":"萬能發機車行","COUNTY_NA":"彰化縣","ZIPCODE":"500","ADDRESS":"500彰化縣彰化市中正路二段309號","TEL":"04-7227571","LICENSE_NO":"N62","OWNER":"盧富雄","LOCATION_T":"地址對位","LOCATION_X":202091,"LOCATION_Y":2663642},"geometry":{"points":[[120.53698771222629,24.075266736558376]]}},{"attributes":{"OBJECTID":1275,"STATION_NA":"英輪車業行","COUNTY_NA":"彰化縣","ZIPCODE":"500","ADDRESS":"500彰化縣彰化市成功路2號","TEL":"04-7224315","LICENSE_NO":"N63","OWNER":"曾聰文","LOCATION_T":"地址對位","LOCATION_X":202543,"LOCATION_Y":2663595},"geometry":{"points":[[120.5414344783515,24.07485576886042]]}},{"attributes":{"OBJECTID":1276,"STATION_NA":"宏進機車行","COUNTY_NA":"彰化縣","ZIPCODE":"500","ADDRESS":"500彰化縣彰化市彰水路50-1號","TEL":"04-7632227","LICENSE_NO":"N64","OWNER":"林珈蓁","LOCATION_T":"地址對位","LOCATION_X":200264,"LOCATION_Y":2662190},"geometry":{"points":[[120.51906871385118,24.062100587310997]]}},{"attributes":{"OBJECTID":1277,"STATION_NA":"六順機車行","COUNTY_NA":"彰化縣","ZIPCODE":"500","ADDRESS":"500彰化縣彰化市福馬街10號","TEL":"04-7240758","LICENSE_NO":"N65","OWNER":"蔡秀執","LOCATION_T":"地址對位","LOCATION_X":202936,"LOCATION_Y":2666287},"geometry":{"points":[[120.54521370595155,24.099174266429667]]}},{"attributes":{"OBJECTID":1278,"STATION_NA":"全美車業行","COUNTY_NA":"彰化縣","ZIPCODE":"506","ADDRESS":"506彰化縣福興鄉彰鹿路七段467-1號","TEL":"04-7787774","LICENSE_NO":"N66","OWNER":"高秀玲","LOCATION_T":"地址對位","LOCATION_X":192756,"LOCATION_Y":2660617},"geometry":{"points":[[120.44530036123096,24.047647201559997]]}},{"attributes":{"OBJECTID":1279,"STATION_NA":"財   金原   機   車   行","COUNTY_NA":"彰化縣","ZIPCODE":"500","ADDRESS":"500彰化縣彰化市大埔路482號","TEL":"04-7252726","LICENSE_NO":"N68","OWNER":"楊順進","LOCATION_T":"地址對位","LOCATION_X":202701,"LOCATION_Y":2662408},"geometry":{"points":[[120.54302640277156,24.064142487682563]]}},{"attributes":{"OBJECTID":1280,"STATION_NA":"進昌機車行","COUNTY_NA":"彰化縣","ZIPCODE":"500","ADDRESS":"500彰化縣彰化市大埔路586號","TEL":"04-7325269","LICENSE_NO":"N69","OWNER":"李炎昌","LOCATION_T":"地址對位","LOCATION_X":202679,"LOCATION_Y":2662647},"geometry":{"points":[[120.54280238918139,24.066299882809382]]}},{"attributes":{"OBJECTID":1281,"STATION_NA":"順達機車零件行","COUNTY_NA":"彰化縣","ZIPCODE":"500","ADDRESS":"500彰化縣彰化市中山路3段21-1號","TEL":"04-7224817","LICENSE_NO":"N70","OWNER":"張金川","LOCATION_T":"地址對位","LOCATION_X":203766,"LOCATION_Y":2664677},"geometry":{"points":[[120.55342831188791,24.084661231134824]]}},{"attributes":{"OBJECTID":1282,"STATION_NA":"良韋車業有限公司","COUNTY_NA":"彰化縣","ZIPCODE":"500","ADDRESS":"500彰化縣彰化市中山路一段327號","TEL":"04-7297426","LICENSE_NO":"N71","OWNER":"賴良?","LOCATION_T":"地址對位","LOCATION_X":201863,"LOCATION_Y":2662015},"geometry":{"points":[[120.53479849559902,24.060569048983648]]}},{"attributes":{"OBJECTID":1283,"STATION_NA":"富晟龍機車行","COUNTY_NA":"彰化縣","ZIPCODE":"500","ADDRESS":"500彰化縣彰化市中山路二段265號","TEL":"04-7243898","LICENSE_NO":"N72","OWNER":"曹文通","LOCATION_T":"地址對位","LOCATION_X":202685,"LOCATION_Y":2663327},"geometry":{"points":[[120.54283958429129,24.072440077344936]]}},{"attributes":{"OBJECTID":1284,"STATION_NA":"三民機車行","COUNTY_NA":"彰化縣","ZIPCODE":"500","ADDRESS":"500彰化縣彰化市中民街39號","TEL":"04-7232749","LICENSE_NO":"N73","OWNER":"楊倍源","LOCATION_T":"地址對位","LOCATION_X":203134,"LOCATION_Y":2664726},"geometry":{"points":[[120.54721083619509,24.085085336959501]]}},{"attributes":{"OBJECTID":1285,"STATION_NA":"聯全機車行","COUNTY_NA":"彰化縣","ZIPCODE":"500","ADDRESS":"500彰化縣彰化市中華路226號","TEL":"04-7252336","LICENSE_NO":"N74","OWNER":"洪吳秀英","LOCATION_T":"地址對位","LOCATION_X":202239,"LOCATION_Y":2663951},"geometry":{"points":[[120.53843323986901,24.078061228197971]]}},{"attributes":{"OBJECTID":1286,"STATION_NA":"鑫輝車業行","COUNTY_NA":"彰化縣","ZIPCODE":"500","ADDRESS":"500彰化縣彰化市民生路406號","TEL":"04-7238070","LICENSE_NO":"N75","OWNER":"曾聰輝","LOCATION_T":"地址對位","LOCATION_X":202629,"LOCATION_Y":2664716},"geometry":{"points":[[120.54224429430519,24.084980222155547]]}},{"attributes":{"OBJECTID":1287,"STATION_NA":"和益機車行","COUNTY_NA":"彰化縣","ZIPCODE":"500","ADDRESS":"500彰化縣彰化市永安街195號","TEL":"04-7247630","LICENSE_NO":"N76","OWNER":"趙惠娟","LOCATION_T":"地址對位","LOCATION_X":202863,"LOCATION_Y":2664993},"geometry":{"points":[[120.54453692888201,24.087488237297993]]}},{"attributes":{"OBJECTID":1288,"STATION_NA":"偉宏機車行","COUNTY_NA":"彰化縣","ZIPCODE":"500","ADDRESS":"500彰化縣彰化市竹和路120號","TEL":"04-7234348","LICENSE_NO":"N77","OWNER":"劉協儒","LOCATION_T":"地址對位","LOCATION_X":204325,"LOCATION_Y":2664646},"geometry":{"points":[[120.55892721073631,24.084397326783538]]}},{"attributes":{"OBJECTID":1289,"STATION_NA":"新輪機車材料行","COUNTY_NA":"彰化縣","ZIPCODE":"500","ADDRESS":"500彰化縣彰化市自強南路148號","TEL":"04-7265977","LICENSE_NO":"N78","OWNER":"粘淑貞","LOCATION_T":"地址對位","LOCATION_X":201885,"LOCATION_Y":2664750},"geometry":{"points":[[120.5349256726154,24.085265092171639]]}},{"attributes":{"OBJECTID":1290,"STATION_NA":"國斌機車行","COUNTY_NA":"彰化縣","ZIPCODE":"500","ADDRESS":"500彰化縣彰化市茄苳路一段17號","TEL":"04-7237200","LICENSE_NO":"N79","OWNER":"林國斌","LOCATION_T":"地址對位","LOCATION_X":202844,"LOCATION_Y":2665142},"geometry":{"points":[[120.54434530198665,24.088833043960989]]}},{"attributes":{"OBJECTID":1291,"STATION_NA":"順立機車行","COUNTY_NA":"彰化縣","ZIPCODE":"500","ADDRESS":"500彰化縣彰化市泰和路二段390號1F","TEL":"04-7271703","LICENSE_NO":"N80","OWNER":"王錦鏘","LOCATION_T":"地址對位","LOCATION_X":204025,"LOCATION_Y":2665864},"geometry":{"points":[[120.55593871525892,24.095386496391889]]}},{"attributes":{"OBJECTID":1292,"STATION_NA":"明洲機車店","COUNTY_NA":"彰化縣","ZIPCODE":"500","ADDRESS":"500彰化縣彰化市彰水路118號","TEL":"04-7524766","LICENSE_NO":"N81","OWNER":"蔡泛川","LOCATION_T":"地址對位","LOCATION_X":200143,"LOCATION_Y":2661987},"geometry":{"points":[[120.51788570028302,24.060263868263025]]}},{"attributes":{"OBJECTID":1293,"STATION_NA":"勝興機車行","COUNTY_NA":"彰化縣","ZIPCODE":"500","ADDRESS":"500彰化縣彰化市彰南路1段283號","TEL":"04-7322888","LICENSE_NO":"N82","OWNER":"邱福興","LOCATION_T":"地址對位","LOCATION_X":205724,"LOCATION_Y":2664852},"geometry":{"points":[[120.57268057099894,24.086296599047866]]}},{"attributes":{"OBJECTID":1294,"STATION_NA":"旭發機車行","COUNTY_NA":"彰化縣","ZIPCODE":"500","ADDRESS":"500彰化縣彰化市彰南路二段108號","TEL":"04-7384997","LICENSE_NO":"N83","OWNER":"王秋蘭","LOCATION_T":"地址對位","LOCATION_X":206403,"LOCATION_Y":2664711},"geometry":{"points":[[120.57936295593217,24.085042041804911]]}},{"attributes":{"OBJECTID":1295,"STATION_NA":"三永機車行","COUNTY_NA":"彰化縣","ZIPCODE":"500","ADDRESS":"500彰化縣彰化市彰南路二段2號","TEL":"04-7385906","LICENSE_NO":"N84","OWNER":"陳振仁","LOCATION_T":"地址對位","LOCATION_X":206911,"LOCATION_Y":2664577},"geometry":{"points":[[120.58436318173514,24.083845815574449]]}},{"attributes":{"OBJECTID":1296,"STATION_NA":"幃祥有限公司","COUNTY_NA":"彰化縣","ZIPCODE":"500","ADDRESS":"500彰化縣彰化市辭修路66號","TEL":"04-7242209","LICENSE_NO":"N85","OWNER":"張振生","LOCATION_T":"地址對位","LOCATION_X":202256,"LOCATION_Y":2665027},"geometry":{"points":[[120.53856565265703,24.087777290638051]]}},{"attributes":{"OBJECTID":1297,"STATION_NA":"承益機車行","COUNTY_NA":"彰化縣","ZIPCODE":"526","ADDRESS":"526彰化縣二林鎮大成路一段154號","TEL":"04-8961376","LICENSE_NO":"N86","OWNER":"黃三林","LOCATION_T":"地址對位","LOCATION_X":184691,"LOCATION_Y":2643947},"geometry":{"points":[[120.36674047249089,23.896823179336003]]}},{"attributes":{"OBJECTID":1298,"STATION_NA":"宏興機車行","COUNTY_NA":"彰化縣","ZIPCODE":"526","ADDRESS":"526彰化縣二林鎮北平里二溪路一段93號","TEL":"04-8961546","LICENSE_NO":"N87","OWNER":"洪西庚","LOCATION_T":"地址對位","LOCATION_X":185153,"LOCATION_Y":2644494},"geometry":{"points":[[120.37125377534016,23.90178090197082]]}},{"attributes":{"OBJECTID":1299,"STATION_NA":"上揚機車行","COUNTY_NA":"彰化縣","ZIPCODE":"515","ADDRESS":"515彰化縣大村鄉加錫村加錫一巷7號","TEL":"04-8525584","LICENSE_NO":"N88","OWNER":"劉美葉","LOCATION_T":"地址對位","LOCATION_X":200988,"LOCATION_Y":2653562},"geometry":{"points":[[120.52647493921549,23.984215550377744]]}},{"attributes":{"OBJECTID":1300,"STATION_NA":"進達機車行","COUNTY_NA":"彰化縣","ZIPCODE":"512","ADDRESS":"512彰化縣永靖鄉永西村瑚璉路361號","TEL":"04-8239110","LICENSE_NO":"N89","OWNER":"陳朝勝","LOCATION_T":"地址對位","LOCATION_X":202884,"LOCATION_Y":2646834},"geometry":{"points":[[120.54531986727635,23.923521497416552]]}},{"attributes":{"OBJECTID":1301,"STATION_NA":"新健興機車行","COUNTY_NA":"彰化縣","ZIPCODE":"512","ADDRESS":"512彰化縣永靖鄉瑚璉路455號","TEL":"04-8235172","LICENSE_NO":"N90","OWNER":"涂健達","LOCATION_T":"地址對位","LOCATION_X":202683,"LOCATION_Y":2646742},"geometry":{"points":[[120.54334837374799,23.922684919332198]]}},{"attributes":{"OBJECTID":1302,"STATION_NA":"金興機車行","COUNTY_NA":"彰化縣","ZIPCODE":"512","ADDRESS":"512彰化縣永靖鄉東寧村永興路二段169號","TEL":"04-8224246","LICENSE_NO":"N91","OWNER":"楊金賜","LOCATION_T":"地址對位","LOCATION_X":204550,"LOCATION_Y":2646862},"geometry":{"points":[[120.5616838455384,23.923822051423347]]}},{"attributes":{"OBJECTID":1303,"STATION_NA":"清敏機車行","COUNTY_NA":"彰化縣","ZIPCODE":"520","ADDRESS":"520彰化縣田中鎮中州路二段447號","TEL":"04-8743183","LICENSE_NO":"N92","OWNER":"謝清敏","LOCATION_T":"地址對位","LOCATION_X":205746,"LOCATION_Y":2638897},"geometry":{"points":[[120.57366633607937,23.851934485570666]]}},{"attributes":{"OBJECTID":1304,"STATION_NA":"佑祥機車行","COUNTY_NA":"彰化縣","ZIPCODE":"520","ADDRESS":"520彰化縣田中鎮北路里復興路583號","TEL":"04-8741200","LICENSE_NO":"N93","OWNER":"張碩偉","LOCATION_T":"地址對位","LOCATION_X":207587,"LOCATION_Y":2639989},"geometry":{"points":[[120.59170954077857,23.861843886459386]]}},{"attributes":{"OBJECTID":1305,"STATION_NA":"聿泰機車行","COUNTY_NA":"彰化縣","ZIPCODE":"520","ADDRESS":"520彰化縣田中鎮復興路615號","TEL":"04-8750322","LICENSE_NO":"N94","OWNER":"李陳賞","LOCATION_T":"地址對位","LOCATION_X":207533,"LOCATION_Y":2639986},"geometry":{"points":[[120.59117943570122,23.861815387762334]]}},{"attributes":{"OBJECTID":1306,"STATION_NA":"建成機車行","COUNTY_NA":"彰化縣","ZIPCODE":"520","ADDRESS":"520彰化縣田中鎮碧峰里中南路二段571號","TEL":"04-8743730","LICENSE_NO":"N95","OWNER":"陳忠仁","LOCATION_T":"地址對位","LOCATION_X":208675,"LOCATION_Y":2638989},"geometry":{"points":[[120.60241960411965,23.852842152965234]]}},{"attributes":{"OBJECTID":1307,"STATION_NA":"億興機車行","COUNTY_NA":"彰化縣","ZIPCODE":"504","ADDRESS":"504彰化縣秀水鄉安東村中山路270號","TEL":"04-7681717","LICENSE_NO":"N96","OWNER":"陳金興","LOCATION_T":"地址對位","LOCATION_X":198705,"LOCATION_Y":2659241},"geometry":{"points":[[120.50384094314148,24.035423713018119]]}},{"attributes":{"OBJECTID":1308,"STATION_NA":"廣福機車行","COUNTY_NA":"彰化縣","ZIPCODE":"522","ADDRESS":"522彰化縣田尾鄉中山路1段368號","TEL":"04-8833054","LICENSE_NO":"N97","OWNER":"闕蕊","LOCATION_T":"地址對位","LOCATION_X":200984,"LOCATION_Y":2643098},"geometry":{"points":[[120.52677831655969,23.889730919633205]]}},{"attributes":{"OBJECTID":1309,"STATION_NA":"名峰機車 行","COUNTY_NA":"彰化縣","ZIPCODE":"522","ADDRESS":"522彰化縣田尾鄉溪畔村中山路二段430號","TEL":"04-8226681","LICENSE_NO":"N98","OWNER":"許津源","LOCATION_T":"地址對位","LOCATION_X":202113,"LOCATION_Y":2644467},"geometry":{"points":[[120.5378217907125,23.902126092942236]]}},{"attributes":{"OBJECTID":1310,"STATION_NA":"伸益機車有限公司","COUNTY_NA":"彰化縣","ZIPCODE":"509","ADDRESS":"509彰化縣伸港鄉新港村新港路119-1號","TEL":"04-7981215","LICENSE_NO":"N99","OWNER":"柯順記","LOCATION_T":"地址對位","LOCATION_X":197091,"LOCATION_Y":2671323},"geometry":{"points":[[120.48753965477158,24.144460094298047]]}},{"attributes":{"OBJECTID":1311,"STATION_NA":"海隆工業社","COUNTY_NA":"彰化縣","ZIPCODE":"504","ADDRESS":"504彰化縣秀水鄉埔崙村彰水路二段381號","TEL":"04-7692127","LICENSE_NO":"NA0","OWNER":"楊秀勤","LOCATION_T":"地址對位","LOCATION_X":197658,"LOCATION_Y":2658333},"geometry":{"points":[[120.49357962025174,24.027191216851147]]}},{"attributes":{"OBJECTID":1312,"STATION_NA":"政記車業股份有限公司","COUNTY_NA":"彰化縣","ZIPCODE":"504","ADDRESS":"504彰化縣秀水鄉彰水路二段635號","TEL":"04-7693047","LICENSE_NO":"NA1","OWNER":"周世傑","LOCATION_T":"地址對位","LOCATION_X":198041,"LOCATION_Y":2658820},"geometry":{"points":[[120.4973276662586,24.031601005923569]]}},{"attributes":{"OBJECTID":1313,"STATION_NA":"勝順機車行","COUNTY_NA":"彰化縣","ZIPCODE":"504","ADDRESS":"504彰化縣秀水鄉鶴鳴村彰鹿路406號","TEL":"04-7692507","LICENSE_NO":"NA2","OWNER":"黃嘉賓","LOCATION_T":"地址對位","LOCATION_X":197617,"LOCATION_Y":2660857},"geometry":{"points":[[120.49308657351078,24.049980370326029]]}},{"attributes":{"OBJECTID":1314,"STATION_NA":"和興機車行","COUNTY_NA":"彰化縣","ZIPCODE":"508","ADDRESS":"508彰化縣和美鎮竹營里美寮路二段495號","TEL":"04-7552788","LICENSE_NO":"NA3","OWNER":"楊其煥","LOCATION_T":"地址對位","LOCATION_X":198708,"LOCATION_Y":2667851},"geometry":{"points":[[120.50357101818021,24.113165623415732]]}},{"attributes":{"OBJECTID":1315,"STATION_NA":"偉煌機車實業有限公司","COUNTY_NA":"彰化縣","ZIPCODE":"508","ADDRESS":"508彰化縣和美鎮和東里彰美路五段340號","TEL":"04-7556056","LICENSE_NO":"NA4","OWNER":"鄭炎煌","LOCATION_T":"地址對位","LOCATION_X":198270,"LOCATION_Y":2667659},"geometry":{"points":[[120.49926890360723,24.111417934252348]]}},{"attributes":{"OBJECTID":1316,"STATION_NA":"鈜尚車業有限公司","COUNTY_NA":"彰化縣","ZIPCODE":"508","ADDRESS":"508彰化縣和美鎮彰美路6段66號","TEL":"04-7553176","LICENSE_NO":"NA5","OWNER":"江銘洲","LOCATION_T":"地址對位","LOCATION_X":198082,"LOCATION_Y":2667907},"geometry":{"points":[[120.49741079502242,24.113650966579321]]}},{"attributes":{"OBJECTID":1317,"STATION_NA":"裕木機車行","COUNTY_NA":"彰化縣","ZIPCODE":"508","ADDRESS":"508彰化縣和美鎮彰草路2段674號","TEL":"04-7526391","LICENSE_NO":"NA6","OWNER":"林裕木","LOCATION_T":"地址對位","LOCATION_X":198305,"LOCATION_Y":2664364},"geometry":{"points":[[120.49972830193566,24.081668553817508]]}},{"attributes":{"OBJECTID":1318,"STATION_NA":"谷村車業有限公司","COUNTY_NA":"彰化縣","ZIPCODE":"508","ADDRESS":"508彰化縣和美鎮彰新路二段313號","TEL":"04-7355185","LICENSE_NO":"NA7","OWNER":"林谷村","LOCATION_T":"地址對位","LOCATION_X":201862,"LOCATION_Y":2666387},"geometry":{"points":[[120.53464613646698,24.100045278080763]]}},{"attributes":{"OBJECTID":1319,"STATION_NA":"昇佳機車行","COUNTY_NA":"彰化縣","ZIPCODE":"511","ADDRESS":"511彰化縣社頭鄉舊社村忠義路764號","TEL":"04-8738551","LICENSE_NO":"NA8","OWNER":"洪陀","LOCATION_T":"地址對位","LOCATION_X":207665,"LOCATION_Y":2644149},"geometry":{"points":[[120.59235780512371,23.899409709093959]]}},{"attributes":{"OBJECTID":1320,"STATION_NA":"尚展機車行","COUNTY_NA":"彰化縣","ZIPCODE":"511","ADDRESS":"511彰化縣社頭鄉清水村山腳路一段463號","TEL":"04-8721563","LICENSE_NO":"NA9","OWNER":"黃維銘","LOCATION_T":"地址對位","LOCATION_X":209379,"LOCATION_Y":2642996},"geometry":{"points":[[120.60922230176197,23.889042412717739]]}},{"attributes":{"OBJECTID":1321,"STATION_NA":"大眾機車行","COUNTY_NA":"彰化縣","ZIPCODE":"528","ADDRESS":"528彰化縣芳苑鄉斗苑路三合段677號","TEL":"04-8964671","LICENSE_NO":"NB0","OWNER":"洪森霖","LOCATION_T":"地址對位","LOCATION_X":182441,"LOCATION_Y":2645190},"geometry":{"points":[[120.34458724807344,23.907954444818568]]}},{"attributes":{"OBJECTID":1322,"STATION_NA":"新發順機車行","COUNTY_NA":"彰化縣","ZIPCODE":"528","ADDRESS":"528彰化縣芳苑鄉王功村芳漢路王功段506號","TEL":"04-8932283","LICENSE_NO":"NB1","OWNER":"陳※修","LOCATION_T":"地址對位","LOCATION_X":182051,"LOCATION_Y":2651476},"geometry":{"points":[[120.34046849779914,23.964695467470669]]}},{"attributes":{"OBJECTID":1323,"STATION_NA":"如來發機車行","COUNTY_NA":"彰化縣","ZIPCODE":"528","ADDRESS":"528彰化縣芳苑鄉王功村芳漢路王功段548號","TEL":"04-8932365","LICENSE_NO":"NB2","OWNER":"黃丁禮","LOCATION_T":"地址對位","LOCATION_X":182119,"LOCATION_Y":2651581},"geometry":{"points":[[120.34113183565491,23.965646378480979]]}},{"attributes":{"OBJECTID":1324,"STATION_NA":"新永順機車行","COUNTY_NA":"彰化縣","ZIPCODE":"528","ADDRESS":"528彰化縣芳苑鄉建平村二溪路二段614號","TEL":"04-8862368","LICENSE_NO":"NB3","OWNER":"陳朝明","LOCATION_T":"地址對位","LOCATION_X":186733,"LOCATION_Y":2650725},"geometry":{"points":[[120.38650503203364,23.9581046471029]]}},{"attributes":{"OBJECTID":1325,"STATION_NA":"欣欣機車行","COUNTY_NA":"彰化縣","ZIPCODE":"503","ADDRESS":"503彰化縣花壇鄉中庄村中山路一段69-1號","TEL":"04-7868787","LICENSE_NO":"NB4","OWNER":"洪綢","LOCATION_T":"地址對位","LOCATION_X":203669,"LOCATION_Y":2656503},"geometry":{"points":[[120.55273117286518,24.010850608736245]]}},{"attributes":{"OBJECTID":1326,"STATION_NA":"金旺機車行","COUNTY_NA":"彰化縣","ZIPCODE":"503","ADDRESS":"503彰化縣花壇鄉永春村彰員路38-1號","TEL":"04-7868231","LICENSE_NO":"NB5","OWNER":"楊金榮","LOCATION_T":"地址對位","LOCATION_X":202999,"LOCATION_Y":2660735},"geometry":{"points":[[120.54601023904867,24.049044811222998]]}},{"attributes":{"OBJECTID":1327,"STATION_NA":"松輪機車行","COUNTY_NA":"彰化縣","ZIPCODE":"503","ADDRESS":"503彰化縣花壇鄉金墩村中山路一段199-2號","TEL":"04-7864178","LICENSE_NO":"NB6","OWNER":"劉守清","LOCATION_T":"地址對位","LOCATION_X":203382,"LOCATION_Y":2657095},"geometry":{"points":[[120.54989133095553,24.016187952940736]]}},{"attributes":{"OBJECTID":1328,"STATION_NA":"信一機車行","COUNTY_NA":"彰化縣","ZIPCODE":"503","ADDRESS":"503彰化縣花壇鄉中山路一段395號","TEL":"04-7862999","LICENSE_NO":"NB7","OWNER":"賴麗雲","LOCATION_T":"地址對位","LOCATION_X":202428,"LOCATION_Y":2658003},"geometry":{"points":[[120.54048404543212,24.024359111902804]]}},{"attributes":{"OBJECTID":1329,"STATION_NA":"台裕機車行","COUNTY_NA":"彰化縣","ZIPCODE":"503","ADDRESS":"503彰化縣花壇鄉花壇村中山路一段406號","TEL":"04-7863622","LICENSE_NO":"NB8","OWNER":"李陳翠薰","LOCATION_T":"地址對位","LOCATION_X":202458,"LOCATION_Y":2658067},"geometry":{"points":[[120.54077690494067,24.024937895697278]]}},{"attributes":{"OBJECTID":1330,"STATION_NA":"東信輪車行","COUNTY_NA":"彰化縣","ZIPCODE":"503","ADDRESS":"503彰化縣花壇鄉灣雅村彰員路一段770號","TEL":"04-7865043","LICENSE_NO":"NB9","OWNER":"黃賴銀","LOCATION_T":"地址對位","LOCATION_X":204796,"LOCATION_Y":2657083},"geometry":{"points":[[120.56379164414098,24.016119692190248]]}},{"attributes":{"OBJECTID":1331,"STATION_NA":"慶瓏機車行","COUNTY_NA":"彰化縣","ZIPCODE":"502","ADDRESS":"502彰化縣芬園鄉竹林村彰南路4段311號","TEL":"04-9522031","LICENSE_NO":"NC0","OWNER":"鄭銘進","LOCATION_T":"地址對位","LOCATION_X":211288,"LOCATION_Y":2657236},"geometry":{"points":[[120.62760453123542,24.017669589928566]]}},{"attributes":{"OBJECTID":1332,"STATION_NA":"勇裕機車工業行","COUNTY_NA":"彰化縣","ZIPCODE":"502","ADDRESS":"502彰化縣芬園鄉芬園村芬草路2段153號","TEL":"04-9524207","LICENSE_NO":"NC1","OWNER":"林明勇","LOCATION_T":"地址對位","LOCATION_X":211765,"LOCATION_Y":2656773},"geometry":{"points":[[120.63230555384438,24.013499812843076]]}},{"attributes":{"OBJECTID":1333,"STATION_NA":"瑞和機車行","COUNTY_NA":"彰化縣","ZIPCODE":"515","ADDRESS":"515彰化縣大村鄉山腳路42之8號","TEL":"04-8324933","LICENSE_NO":"NC2","OWNER":"游江碧鈴","LOCATION_T":"地址對位","LOCATION_X":207382,"LOCATION_Y":2653579},"geometry":{"points":[[120.58931355290729,23.984549021780875]]}},{"attributes":{"OBJECTID":1334,"STATION_NA":"芳裕機車行","COUNTY_NA":"彰化縣","ZIPCODE":"510","ADDRESS":"510彰化縣員林鎮仁美里育英路155號","TEL":"04-8340396","LICENSE_NO":"NC3","OWNER":"徐振富","LOCATION_T":"地址對位","LOCATION_X":205826,"LOCATION_Y":2651246},"geometry":{"points":[[120.57408997952176,23.96344195823842]]}},{"attributes":{"OBJECTID":1335,"STATION_NA":"豐益車行","COUNTY_NA":"彰化縣","ZIPCODE":"510","ADDRESS":"510彰化縣員林鎮員水路一段193號","TEL":"04-8311640","LICENSE_NO":"NC4","OWNER":"徐清錦","LOCATION_T":"地址對位","LOCATION_X":208488,"LOCATION_Y":2649723},"geometry":{"points":[[120.60028861386007,23.949760568922745]]}},{"attributes":{"OBJECTID":1336,"STATION_NA":"廣達機車行","COUNTY_NA":"彰化縣","ZIPCODE":"510","ADDRESS":"510彰化縣員林鎮浮圳里員東路1段536號","TEL":"04-8313699","LICENSE_NO":"NC5","OWNER":"江榮洲","LOCATION_T":"地址對位","LOCATION_X":207245,"LOCATION_Y":2651077},"geometry":{"points":[[120.58803816491319,23.961953758907907]]}},{"attributes":{"OBJECTID":1337,"STATION_NA":"進成機車行","COUNTY_NA":"彰化縣","ZIPCODE":"510","ADDRESS":"510彰化縣員林鎮崙雅里崙雅巷1-5號","TEL":"04-8313271","LICENSE_NO":"NC6","OWNER":"徐大杉","LOCATION_T":"地址對位","LOCATION_X":208476,"LOCATION_Y":2649088},"geometry":{"points":[[120.60018790069726,23.94402687169471]]}},{"attributes":{"OBJECTID":1338,"STATION_NA":"日豐機車行","COUNTY_NA":"彰化縣","ZIPCODE":"510","ADDRESS":"510彰化縣員林鎮新生里新生路256號","TEL":"04-8327029","LICENSE_NO":"NC7","OWNER":"邱東權","LOCATION_T":"地址對位","LOCATION_X":205295,"LOCATION_Y":2651048},"geometry":{"points":[[120.56887813589537,23.961639661509508]]}},{"attributes":{"OBJECTID":1339,"STATION_NA":"佑盛機車行","COUNTY_NA":"彰化縣","ZIPCODE":"513","ADDRESS":"513彰化縣埔心鄉中正路1段265號","TEL":"04-8295207","LICENSE_NO":"NC8","OWNER":"黃妙如","LOCATION_T":"地址對位","LOCATION_X":202878,"LOCATION_Y":2649889},"geometry":{"points":[[120.54516516852576,23.951106214690746]]}},{"attributes":{"OBJECTID":1340,"STATION_NA":"鎰來機車行","COUNTY_NA":"彰化縣","ZIPCODE":"523","ADDRESS":"523彰化縣埤頭鄉合興村彰水路3段345號","TEL":"04-8922381","LICENSE_NO":"NC9","OWNER":"陳美蘭","LOCATION_T":"地址對位","LOCATION_X":194038,"LOCATION_Y":2642941},"geometry":{"points":[[120.45857352532201,23.888089303591094]]}},{"attributes":{"OBJECTID":1341,"STATION_NA":"昇馬車業有限公司","COUNTY_NA":"彰化縣","ZIPCODE":"523","ADDRESS":"523彰化縣埤頭鄉合興村彰水路3段487號","TEL":"04-8922308","LICENSE_NO":"ND0","OWNER":"洪釵","LOCATION_T":"地址對位","LOCATION_X":194082,"LOCATION_Y":2643317},"geometry":{"points":[[120.45899151886756,23.891485870424116]]}},{"attributes":{"OBJECTID":1342,"STATION_NA":"正新機車行","COUNTY_NA":"彰化縣","ZIPCODE":"505","ADDRESS":"505彰化縣鹿港鎮鹿和路3段613號","TEL":"04-7716746","LICENSE_NO":"ND1","OWNER":"施清煙","LOCATION_T":"地址對位","LOCATION_X":196292,"LOCATION_Y":2664778},"geometry":{"points":[[120.47991516415497,24.085340521107874]]}},{"attributes":{"OBJECTID":1343,"STATION_NA":"宏發機車行","COUNTY_NA":"彰化縣","ZIPCODE":"505","ADDRESS":"505彰化縣鹿港鎮鹿和路一段299號","TEL":"04-7763092","LICENSE_NO":"ND2","OWNER":"翁許雲嬌","LOCATION_T":"地址對位","LOCATION_X":192610,"LOCATION_Y":2662240},"geometry":{"points":[[120.44380153722615,24.062296431189097]]}},{"attributes":{"OBJECTID":1344,"STATION_NA":"力駿車業行","COUNTY_NA":"彰化縣","ZIPCODE":"505","ADDRESS":"505彰化縣鹿港鎮菜園里菜園路4號","TEL":"04-7774178","LICENSE_NO":"ND3","OWNER":"黃榮福","LOCATION_T":"地址對位","LOCATION_X":191416,"LOCATION_Y":2661001},"geometry":{"points":[[120.43210997804064,24.051065958430826]]}},{"attributes":{"OBJECTID":1345,"STATION_NA":"友宏輪業有限公司","COUNTY_NA":"彰化縣","ZIPCODE":"505","ADDRESS":"505彰化縣鹿港鎮順興里復興路594號","TEL":"04-7772808","LICENSE_NO":"ND4","OWNER":"尤秀玉","LOCATION_T":"地址對位","LOCATION_X":191434,"LOCATION_Y":2661985},"geometry":{"points":[[120.43224779096825,24.05995133616236]]}},{"attributes":{"OBJECTID":1346,"STATION_NA":"東光機車行","COUNTY_NA":"彰化縣","ZIPCODE":"505","ADDRESS":"505彰化縣鹿港鎮彰鹿路5段6、8號1fF","TEL":"04-7773879","LICENSE_NO":"ND5","OWNER":"黃東圭","LOCATION_T":"地址對位","LOCATION_X":196229,"LOCATION_Y":2660777},"geometry":{"points":[[120.47944190947159,24.049212190401381]]}},{"attributes":{"OBJECTID":1347,"STATION_NA":"明利機車行","COUNTY_NA":"彰化縣","ZIPCODE":"524","ADDRESS":"524彰化縣溪州鄉東州村登山路4段333號","TEL":"04-8896165","LICENSE_NO":"ND6","OWNER":"李詩萍","LOCATION_T":"地址對位","LOCATION_X":198699,"LOCATION_Y":2638903},"geometry":{"points":[[120.50448213843404,23.851781114308025]]}},{"attributes":{"OBJECTID":1348,"STATION_NA":"權生機車行","COUNTY_NA":"彰化縣","ZIPCODE":"524","ADDRESS":"524彰化縣溪洲鄉瓦厝村莒光路52號","TEL":"04-8895163","LICENSE_NO":"ND7","OWNER":"林能環","LOCATION_T":"地址對位","LOCATION_X":197422,"LOCATION_Y":2639181},"geometry":{"points":[[120.49193568231986,23.854250433928421]]}},{"attributes":{"OBJECTID":1349,"STATION_NA":"尚國機車行","COUNTY_NA":"彰化縣","ZIPCODE":"506","ADDRESS":"506彰化縣福興鄉沿海路四段795號","TEL":"04-7789384","LICENSE_NO":"ND8","OWNER":"黃隆昌","LOCATION_T":"地址對位","LOCATION_X":190832,"LOCATION_Y":2660120},"geometry":{"points":[[120.42640326828619,24.043089733180089]]}},{"attributes":{"OBJECTID":1350,"STATION_NA":"益昇機車行","COUNTY_NA":"彰化縣","ZIPCODE":"506","ADDRESS":"506彰化縣福興鄉福南村沿海路4段756號","TEL":"04-7750880","LICENSE_NO":"ND9","OWNER":"許碧香","LOCATION_T":"地址對位","LOCATION_X":190828,"LOCATION_Y":2660060},"geometry":{"points":[[120.42636635015667,24.042547830641492]]}},{"attributes":{"OBJECTID":1351,"STATION_NA":"連瑩機車商行","COUNTY_NA":"彰化縣","ZIPCODE":"506","ADDRESS":"506彰化縣福興鄉福興村沿海路5段186號","TEL":"04-7787018","LICENSE_NO":"NE0","OWNER":"粘文寬","LOCATION_T":"地址對位","LOCATION_X":191130,"LOCATION_Y":2660555},"geometry":{"points":[[120.42931574874851,24.047028427258102]]}},{"attributes":{"OBJECTID":1352,"STATION_NA":"長榮發機車行","COUNTY_NA":"彰化縣","ZIPCODE":"506","ADDRESS":"506彰化縣福興鄉福興村沿海路5段85號","TEL":"04-7783691","LICENSE_NO":"NE1","OWNER":"許溪榮","LOCATION_T":"地址對位","LOCATION_X":190990,"LOCATION_Y":2660384},"geometry":{"points":[[120.42794610839805,24.045479275785652]]}},{"attributes":{"OBJECTID":1353,"STATION_NA":"盛昌機車行","COUNTY_NA":"彰化縣","ZIPCODE":"500","ADDRESS":"500彰化縣彰化市中正路二段94號","TEL":"04-7226509","LICENSE_NO":"NE2","OWNER":"黃振雄","LOCATION_T":"地址對位","LOCATION_X":202151,"LOCATION_Y":2664145},"geometry":{"points":[[120.53756149082433,24.079810302222427]]}},{"attributes":{"OBJECTID":1354,"STATION_NA":"昆益機車行","COUNTY_NA":"彰化縣","ZIPCODE":"500","ADDRESS":"500彰化縣彰化市成功里大埔路721號","TEL":"04-7243272","LICENSE_NO":"NE3","OWNER":"林昆揚","LOCATION_T":"地址對位","LOCATION_X":202643,"LOCATION_Y":2662966},"geometry":{"points":[[120.54243812129,24.069179221704601]]}},{"attributes":{"OBJECTID":1355,"STATION_NA":"吉祥車業股份有限公司","COUNTY_NA":"新竹市","ZIPCODE":"300","ADDRESS":"300新竹市東區文華里經國路一段704號","TEL":"03-5231911","LICENSE_NO":"O04","OWNER":"蔡江祥","LOCATION_T":"地址對位","LOCATION_X":246451,"LOCATION_Y":2745428},"geometry":{"points":[[120.97309715755772,24.814426812678214]]}},{"attributes":{"OBJECTID":1356,"STATION_NA":"福明車行","COUNTY_NA":"新竹市","ZIPCODE":"300","ADDRESS":"300新竹市東區明湖路469號","TEL":"03-5203330","LICENSE_NO":"O05","OWNER":"林明焜","LOCATION_T":"地址對位","LOCATION_X":245902,"LOCATION_Y":2741641},"geometry":{"points":[[120.96767554709382,24.780234007456421]]}},{"attributes":{"OBJECTID":1357,"STATION_NA":"舜晟機車行","COUNTY_NA":"新竹市","ZIPCODE":"300","ADDRESS":"300新竹市北區西大路514號","TEL":"03-5283901","LICENSE_NO":"O06","OWNER":"黃正源","LOCATION_T":"地址對位","LOCATION_X":245463,"LOCATION_Y":2744428},"geometry":{"points":[[120.96332644913144,24.805395691303829]]}},{"attributes":{"OBJECTID":1358,"STATION_NA":"鑫豐車業有限公司","COUNTY_NA":"新竹市","ZIPCODE":"300","ADDRESS":"300新竹市東區光復路一段679號","TEL":"03-5773475","LICENSE_NO":"O07","OWNER":"吳梅妹","LOCATION_T":"地址對位","LOCATION_X":250132,"LOCATION_Y":2742414},"geometry":{"points":[[121.0095083328203,24.787217384060096]]}},{"attributes":{"OBJECTID":1359,"STATION_NA":"銘祥機車行","COUNTY_NA":"新竹市","ZIPCODE":"300","ADDRESS":"300新竹市東區中華路一段232號","TEL":"03-5321648","LICENSE_NO":"O08","OWNER":"廖韋月裡","LOCATION_T":"地址對位","LOCATION_X":248181,"LOCATION_Y":2745326},"geometry":{"points":[[120.99021065038005,24.813508372886069]]}},{"attributes":{"OBJECTID":1360,"STATION_NA":"如隆車業有限公司","COUNTY_NA":"新竹市","ZIPCODE":"300","ADDRESS":"300新竹市東區中華路二段593號","TEL":"03-5213550","LICENSE_NO":"O09","OWNER":"陳林富菊","LOCATION_T":"地址對位","LOCATION_X":245883,"LOCATION_Y":2743752},"geometry":{"points":[[120.9674824520917,24.799293338830459]]}},{"attributes":{"OBJECTID":1361,"STATION_NA":"雙宏機車行","COUNTY_NA":"新竹市","ZIPCODE":"300","ADDRESS":"300新竹市東區建華里寶山路5號","TEL":"03-5252791","LICENSE_NO":"O10","OWNER":"何黎蘭","LOCATION_T":"地址對位","LOCATION_X":246475,"LOCATION_Y":2743202},"geometry":{"points":[[120.97333892120407,24.794328894119207]]}},{"attributes":{"OBJECTID":1362,"STATION_NA":"佶益車業有限公司","COUNTY_NA":"新竹市","ZIPCODE":"300","ADDRESS":"300新竹市北區中山路316號","TEL":"03-5254624","LICENSE_NO":"O11","OWNER":"鄭世明","LOCATION_T":"地址對位","LOCATION_X":245197,"LOCATION_Y":2744045},"geometry":{"points":[[120.96069645587821,24.80193691804433]]}},{"attributes":{"OBJECTID":1363,"STATION_NA":"協榮機車行","COUNTY_NA":"新竹市","ZIPCODE":"300","ADDRESS":"300新竹市東區光復路二段217號","TEL":"03-5712045","LICENSE_NO":"O12","OWNER":"鄔婉芝","LOCATION_T":"地址對位","LOCATION_X":248292,"LOCATION_Y":2743769},"geometry":{"points":[[120.99130960258327,24.799450756162315]]}},{"attributes":{"OBJECTID":1364,"STATION_NA":"三朧機車有限公司","COUNTY_NA":"新竹市","ZIPCODE":"300","ADDRESS":"300新竹市東區光復路二段339號","TEL":"03-5711070","LICENSE_NO":"O13","OWNER":"符金龍","LOCATION_T":"地址對位","LOCATION_X":247841,"LOCATION_Y":2743933},"geometry":{"points":[[120.98684860558045,24.800931016651287]]}},{"attributes":{"OBJECTID":1365,"STATION_NA":"祥泰輪業股份有限公司","COUNTY_NA":"新竹市","ZIPCODE":"300","ADDRESS":"300新竹市東區西大路158號","TEL":"03-5261688","LICENSE_NO":"O14","OWNER":"朱添發","LOCATION_T":"地址對位","LOCATION_X":246119,"LOCATION_Y":2743511},"geometry":{"points":[[120.96981723533911,24.797117985054392]]}},{"attributes":{"OBJECTID":1366,"STATION_NA":"金祥車業有限公司","COUNTY_NA":"新竹市","ZIPCODE":"300","ADDRESS":"300新竹市東區西大路526號","TEL":"03-5240622","LICENSE_NO":"O15","OWNER":"蔡欽榮","LOCATION_T":"地址對位","LOCATION_X":245443,"LOCATION_Y":2744448},"geometry":{"points":[[120.96312856672377,24.805576211395422]]}},{"attributes":{"OBJECTID":1367,"STATION_NA":"振益車行","COUNTY_NA":"新竹市","ZIPCODE":"300","ADDRESS":"300新竹市北區經國路二段626號","TEL":"03-5266555","LICENSE_NO":"O16","OWNER":"江靜美","LOCATION_T":"地址對位","LOCATION_X":244523,"LOCATION_Y":2743995},"geometry":{"points":[[120.95403001356691,24.801483394257023]]}},{"attributes":{"OBJECTID":1368,"STATION_NA":"百翔行","COUNTY_NA":"新竹市","ZIPCODE":"300","ADDRESS":"300新竹市中山路189號","TEL":"03-5267668","LICENSE_NO":"O18","OWNER":"張明貴","LOCATION_T":"地址對位","LOCATION_X":245388,"LOCATION_Y":2744109},"geometry":{"points":[[120.96258548002859,24.8025153026467]]}},{"attributes":{"OBJECTID":1369,"STATION_NA":"凱竣車業有限公司","COUNTY_NA":"新竹市","ZIPCODE":"300","ADDRESS":"300新竹市中正路241號","TEL":"03-5346566","LICENSE_NO":"O19","OWNER":"林文賓","LOCATION_T":"地址對位","LOCATION_X":245557,"LOCATION_Y":2745169},"geometry":{"points":[[120.96425428378274,24.812086280614576]]}},{"attributes":{"OBJECTID":1370,"STATION_NA":"全德機車行","COUNTY_NA":"新竹市","ZIPCODE":"300","ADDRESS":"300新竹市中華路2段552號","TEL":"03-5224506","LICENSE_NO":"O20","OWNER":"江崇岷","LOCATION_T":"地址對位","LOCATION_X":245972,"LOCATION_Y":2743842},"geometry":{"points":[[120.96836252717179,24.800106134353285]]}},{"attributes":{"OBJECTID":1371,"STATION_NA":"永達機車行","COUNTY_NA":"新竹市","ZIPCODE":"300","ADDRESS":"300新竹市中華路4段719號","TEL":"03-5387520","LICENSE_NO":"O21","OWNER":"洪玉文","LOCATION_T":"地址對位","LOCATION_X":242041,"LOCATION_Y":2742540},"geometry":{"points":[[120.9294877073858,24.788336589225121]]}},{"attributes":{"OBJECTID":1372,"STATION_NA":"興源機車行","COUNTY_NA":"新竹市","ZIPCODE":"300","ADDRESS":"300新竹市中華路5段864號","TEL":"03-5374755","LICENSE_NO":"O22","OWNER":"蔡福來","LOCATION_T":"地址對位","LOCATION_X":240299,"LOCATION_Y":2739600},"geometry":{"points":[[120.91227717296999,24.761783483097894]]}},{"attributes":{"OBJECTID":1373,"STATION_NA":"元久達車業商號","COUNTY_NA":"新竹市","ZIPCODE":"300","ADDRESS":"300新竹市牛埔路170巷4號1F","TEL":"03-5388229","LICENSE_NO":"O23","OWNER":"朱淑女","LOCATION_T":"地址對位","LOCATION_X":244378,"LOCATION_Y":2743809},"geometry":{"points":[[120.95259646321837,24.799803563720303]]}},{"attributes":{"OBJECTID":1374,"STATION_NA":"松泰車業有限公司","COUNTY_NA":"新竹市","ZIPCODE":"300","ADDRESS":"300新竹市北大路451號","TEL":"03-5252298","LICENSE_NO":"O24","OWNER":"倪朝燦","LOCATION_T":"地址對位","LOCATION_X":245154,"LOCATION_Y":2744076},"geometry":{"points":[[120.9602710484338,24.802216689333335]]}},{"attributes":{"OBJECTID":1375,"STATION_NA":"三福機車行","COUNTY_NA":"新竹市","ZIPCODE":"300","ADDRESS":"300新竹市民族路212號","TEL":"03-5323311","LICENSE_NO":"O25","OWNER":"陳英強","LOCATION_T":"地址對位","LOCATION_X":247170,"LOCATION_Y":2744901},"geometry":{"points":[[120.98021035234181,24.809669919562545]]}},{"attributes":{"OBJECTID":1376,"STATION_NA":"遠倫機車行","COUNTY_NA":"新竹市","ZIPCODE":"300","ADDRESS":"300新竹市光復路1段396號","TEL":"03-5788465","LICENSE_NO":"O26","OWNER":"黃紫瓊","LOCATION_T":"地址對位","LOCATION_X":250680,"LOCATION_Y":2742117},"geometry":{"points":[[121.01492781779081,24.784535565208127]]}},{"attributes":{"OBJECTID":1377,"STATION_NA":"鎮利機車行","COUNTY_NA":"新竹市","ZIPCODE":"300","ADDRESS":"300新竹市光復路1段482號","TEL":"03-5772016","LICENSE_NO":"O27","OWNER":"卓萬鎮","LOCATION_T":"地址對位","LOCATION_X":250447,"LOCATION_Y":2742222},"geometry":{"points":[[121.01262355856565,24.785483726929662]]}},{"attributes":{"OBJECTID":1378,"STATION_NA":"亞特機車行","COUNTY_NA":"新竹市","ZIPCODE":"300","ADDRESS":"300新竹市光華二街66-1號1F","TEL":"03-5351355","LICENSE_NO":"O28","OWNER":"何瑞真","LOCATION_T":"地址對位","LOCATION_X":246712,"LOCATION_Y":2745931},"geometry":{"points":[[120.97567810889602,24.81896881037493]]}},{"attributes":{"OBJECTID":1379,"STATION_NA":"松進車業行","COUNTY_NA":"新竹市","ZIPCODE":"300","ADDRESS":"300新竹市北區西大路565號","TEL":"03-5257475","LICENSE_NO":"O29","OWNER":"許金龍","LOCATION_T":"地址對位","LOCATION_X":245102,"LOCATION_Y":2744860},"geometry":{"points":[[120.95975437261473,24.80929511465672]]}},{"attributes":{"OBJECTID":1380,"STATION_NA":"榮新車行","COUNTY_NA":"新竹市","ZIPCODE":"300","ADDRESS":"300新竹市延平路1段495號","TEL":"03-5221642","LICENSE_NO":"O30","OWNER":"朱燦榮","LOCATION_T":"地址對位","LOCATION_X":243644,"LOCATION_Y":2744372},"geometry":{"points":[[120.94533419722347,24.804884143621031]]}},{"attributes":{"OBJECTID":1381,"STATION_NA":"盛嘉有限公司","COUNTY_NA":"新竹市","ZIPCODE":"300","ADDRESS":"300新竹市東大路1段6號1F","TEL":"03-5260706","LICENSE_NO":"O31","OWNER":"黃增銘","LOCATION_T":"地址對位","LOCATION_X":246851,"LOCATION_Y":2744008},"geometry":{"points":[[120.97705636106704,24.801606722313423]]}},{"attributes":{"OBJECTID":1382,"STATION_NA":"進福車行","COUNTY_NA":"新竹市","ZIPCODE":"300","ADDRESS":"300新竹市東大路3段554號1F","TEL":"03-5367984","LICENSE_NO":"O32","OWNER":"陳生根","LOCATION_T":"地址對位","LOCATION_X":243236,"LOCATION_Y":2748070},"geometry":{"points":[[120.94128248646369,24.838271481646903]]}},{"attributes":{"OBJECTID":1383,"STATION_NA":"欣輪機車行","COUNTY_NA":"新竹市","ZIPCODE":"300","ADDRESS":"300新竹市食品路199號","TEL":"03-5237916","LICENSE_NO":"O33","OWNER":"鄭振充","LOCATION_T":"地址對位","LOCATION_X":246675,"LOCATION_Y":2743429},"geometry":{"points":[[120.97531659655391,24.796378793698899]]}},{"attributes":{"OBJECTID":1384,"STATION_NA":"佳宏機車行","COUNTY_NA":"新竹市","ZIPCODE":"300","ADDRESS":"300新竹市高峰路3號1F","TEL":"03-5267741","LICENSE_NO":"O34","OWNER":"張明河","LOCATION_T":"地址對位","LOCATION_X":246444,"LOCATION_Y":2743175},"geometry":{"points":[[120.97303237515358,24.794085053520298]]}},{"attributes":{"OBJECTID":1385,"STATION_NA":"振泓輪業商行","COUNTY_NA":"新竹市","ZIPCODE":"300","ADDRESS":"300新竹市湳雅街355號1F","TEL":"03-5430710","LICENSE_NO":"O35","OWNER":"張文炘","LOCATION_T":"地址對位","LOCATION_X":246879,"LOCATION_Y":2746455},"geometry":{"points":[[120.97732928953826,24.823700219719846]]}},{"attributes":{"OBJECTID":1386,"STATION_NA":"東易有限公司","COUNTY_NA":"雲林縣","ZIPCODE":"653","ADDRESS":"653雲林縣口湖鄉下崙村中山路3之39號","TEL":"05-7991289","LICENSE_NO":"P01","OWNER":"吳飛龍","LOCATION_T":"中華電信","LOCATION_X":163876,"LOCATION_Y":2612941},"geometry":{"points":[[120.16412448852529,23.615889005684792]]}},{"attributes":{"OBJECTID":1387,"STATION_NA":"新正興機車行","COUNTY_NA":"雲林縣","ZIPCODE":"633","ADDRESS":"653雲林縣土庫鎮中央路23號","TEL":"05-6621862","LICENSE_NO":"P02","OWNER":"張秀蘭","LOCATION_T":"中華電信","LOCATION_X":186746,"LOCATION_Y":2619072},"geometry":{"points":[[120.38797263949941,23.672292855613367]]}},{"attributes":{"OBJECTID":1388,"STATION_NA":"豐吉機車行","COUNTY_NA":"雲林縣","ZIPCODE":"631","ADDRESS":"631雲林縣大埤鄉怡然村三民路2之8號","TEL":"05-5912374","LICENSE_NO":"P03","OWNER":"王明豐","LOCATION_T":"中華電信","LOCATION_X":188342,"LOCATION_Y":2615240},"geometry":{"points":[[120.40377676519033,23.637753404554463]]}},{"attributes":{"OBJECTID":1389,"STATION_NA":"述衡車業行","COUNTY_NA":"雲林縣","ZIPCODE":"640","ADDRESS":"640雲林縣斗六市中山路21號","TEL":"05-5322555","LICENSE_NO":"P04","OWNER":"呂慶和","LOCATION_T":"地址對位","LOCATION_X":202469,"LOCATION_Y":2623141},"geometry":{"points":[[120.54199177055908,23.709568816984788]]}},{"attributes":{"OBJECTID":1390,"STATION_NA":"佺益車業有限公司","COUNTY_NA":"雲林縣","ZIPCODE":"640","ADDRESS":"640雲林縣斗六市文化路55號","TEL":"05-5324098","LICENSE_NO":"P06","OWNER":"王煉城","LOCATION_T":"地址對位","LOCATION_X":203049,"LOCATION_Y":2623314},"geometry":{"points":[[120.54767435213218,23.711147744322005]]}},{"attributes":{"OBJECTID":1391,"STATION_NA":"東晉車業有限公司","COUNTY_NA":"雲林縣","ZIPCODE":"640","ADDRESS":"640雲林縣斗六市文化路92號","TEL":"05-5320757","LICENSE_NO":"P07","OWNER":"劉水河","LOCATION_T":"地址對位","LOCATION_X":203040,"LOCATION_Y":2623258},"geometry":{"points":[[120.54758781948074,23.710641826735696]]}},{"attributes":{"OBJECTID":1392,"STATION_NA":"永裕車業行","COUNTY_NA":"雲林縣","ZIPCODE":"640","ADDRESS":"640雲林縣斗六市雲林路一段164號","TEL":"05-5325452","LICENSE_NO":"P08","OWNER":"彭　品","LOCATION_T":"地址對位","LOCATION_X":202041,"LOCATION_Y":2622924},"geometry":{"points":[[120.53780133214549,23.70759686357184]]}},{"attributes":{"OBJECTID":1393,"STATION_NA":"聯全機車業有限公司","COUNTY_NA":"雲林縣","ZIPCODE":"640","ADDRESS":"640雲林縣斗六市雲林路一段202號","TEL":"05-5331717","LICENSE_NO":"P09","OWNER":"劉琪瓔","LOCATION_T":"地址對位","LOCATION_X":201880,"LOCATION_Y":2622814},"geometry":{"points":[[120.5362259660874,23.70659887057257]]}},{"attributes":{"OBJECTID":1394,"STATION_NA":"光陽斗六服務站","COUNTY_NA":"雲林縣","ZIPCODE":"640","ADDRESS":"640雲林縣斗六市雲林路三段80-6號","TEL":"05-5221246","LICENSE_NO":"P10","OWNER":"柯弘明","LOCATION_T":"地址對位","LOCATION_X":200063,"LOCATION_Y":2621588},"geometry":{"points":[[120.51844804915787,23.695474011862416]]}},{"attributes":{"OBJECTID":1395,"STATION_NA":"昌昇機車行","COUNTY_NA":"雲林縣","ZIPCODE":"640","ADDRESS":"640雲林縣斗六市萬年路450號","TEL":"05-5518187","LICENSE_NO":"P11","OWNER":"蔡坤泉","LOCATION_T":"地址對位","LOCATION_X":203413,"LOCATION_Y":2625278},"geometry":{"points":[[120.55118394233062,23.728892439291208]]}},{"attributes":{"OBJECTID":1396,"STATION_NA":"大慶機車行","COUNTY_NA":"雲林縣","ZIPCODE":"630","ADDRESS":"630雲林縣斗南鎮延平路107號","TEL":"05-5972787","LICENSE_NO":"P12","OWNER":"李慶池","LOCATION_T":"地址對位","LOCATION_X":196159,"LOCATION_Y":2621372},"geometry":{"points":[[120.48017479996274,23.693399239983862]]}},{"attributes":{"OBJECTID":1397,"STATION_NA":"聯成機車行","COUNTY_NA":"雲林縣","ZIPCODE":"630","ADDRESS":"630雲林縣斗南鎮延平路二段323號","TEL":"05-5973062","LICENSE_NO":"P13","OWNER":"賴俊章","LOCATION_T":"地址對位","LOCATION_X":195808,"LOCATION_Y":2619623},"geometry":{"points":[[120.47679574789207,23.677594896092153]]}},{"attributes":{"OBJECTID":1398,"STATION_NA":"凱發車行","COUNTY_NA":"雲林縣","ZIPCODE":"630","ADDRESS":"630雲林縣斗南鎮南昌路212號","TEL":"05-5975022","LICENSE_NO":"P14","OWNER":"陳俊彥","LOCATION_T":"地址對位","LOCATION_X":195836,"LOCATION_Y":2619135},"geometry":{"points":[[120.4770877549883,23.673189420047692]]}},{"attributes":{"OBJECTID":1399,"STATION_NA":"群益機車行","COUNTY_NA":"雲林縣","ZIPCODE":"630","ADDRESS":"630雲林縣斗南鎮南昌路86號","TEL":"05-5970156","LICENSE_NO":"P15","OWNER":"徐嘉益","LOCATION_T":"地址對位","LOCATION_X":196121,"LOCATION_Y":2619165},"geometry":{"points":[[120.47988081080412,23.67346977095217]]}},{"attributes":{"OBJECTID":1400,"STATION_NA":"含光行","COUNTY_NA":"雲林縣","ZIPCODE":"652","ADDRESS":"652雲林縣水林鄉水林路276號","TEL":"05-7852729","LICENSE_NO":"P16","OWNER":"蔡昭興","LOCATION_T":"地址對位","LOCATION_X":171601,"LOCATION_Y":2608041},"geometry":{"points":[[120.24007591576736,23.572032037208992]]}}]}