{"displayFieldName":"STATION_NA","fieldAliases":{"OBJECTID":"OBJECTID","STATION_NA":"STATION_NA","COUNTY_NA":"COUNTY_NA","ZIPCODE":"ZIPCODE","ADDRESS":"ADDRESS","TEL":"TEL","LICENSE_NO":"LICENSE_NO","OWNER":"OWNER","LOCATION_T":"LOCATION_T","LOCATION_X":"LOCATION_X","LOCATION_Y":"LOCATION_Y"},"geometryType":"esriGeometryMultipoint","spatialReference":{"wkid":104137},"fields":[{"name":"OBJECTID","type":"esriFieldTypeOID","alias":"OBJECTID"},{"name":"STATION_NA","type":"esriFieldTypeString","alias":"STATION_NA","length":30},{"name":"COUNTY_NA","type":"esriFieldTypeString","alias":"COUNTY_NA","length":6},{"name":"ZIPCODE","type":"esriFieldTypeString","alias":"ZIPCODE","length":4},{"name":"ADDRESS","type":"esriFieldTypeString","alias":"ADDRESS","length":40},{"name":"TEL","type":"esriFieldTypeString","alias":"TEL","length":11},{"name":"LICENSE_NO","type":"esriFieldTypeString","alias":"LICENSE_NO","length":3},{"name":"OWNER","type":"esriFieldTypeString","alias":"OWNER","length":10},{"name":"LOCATION_T","type":"esriFieldTypeString","alias":"LOCATION_T","length":10},{"name":"LOCATION_X","type":"esriFieldTypeDouble","alias":"LOCATION_X"},{"name":"LOCATION_Y","type":"esriFieldTypeDouble","alias":"LOCATION_Y"}],"features":[{"attributes":{"OBJECTID":1401,"STATION_NA":"百豐車行","COUNTY_NA":"雲林縣","ZIPCODE":"651","ADDRESS":"651雲林縣北港鎮中正路82號","TEL":"05-7833585","LICENSE_NO":"P17","OWNER":"楊芳義","LOCATION_T":"地址對位","LOCATION_X":177957,"LOCATION_Y":2607740},"geometry":{"points":[[120.30235262930621,23.569606793130998]]}},{"attributes":{"OBJECTID":1402,"STATION_NA":"佑泉機車行","COUNTY_NA":"雲林縣","ZIPCODE":"651","ADDRESS":"651雲林縣北港鎮民樂路146號","TEL":"05-7820960","LICENSE_NO":"P18","OWNER":"黃森永","LOCATION_T":"地址對位","LOCATION_X":177324,"LOCATION_Y":2608499},"geometry":{"points":[[120.29611543359437,23.576431770052615]]}},{"attributes":{"OBJECTID":1403,"STATION_NA":"國良機車行","COUNTY_NA":"雲林縣","ZIPCODE":"646","ADDRESS":"646雲林縣古坑鄉中山路132號","TEL":"05-5821344","LICENSE_NO":"P19","OWNER":"李和永","LOCATION_T":"地址對位","LOCATION_X":204492,"LOCATION_Y":2616035},"geometry":{"points":[[120.56204407210048,23.645462435417027]]}},{"attributes":{"OBJECTID":1404,"STATION_NA":"明家機車行","COUNTY_NA":"雲林縣","ZIPCODE":"646","ADDRESS":"646雲林縣古坑鄉朝陽村中山路226-2號","TEL":"05-5821727","LICENSE_NO":"P20","OWNER":"吳秋慧","LOCATION_T":"現地調查","LOCATION_X":204385,"LOCATION_Y":2616316},"geometry":{"points":[[120.56098673897415,23.647996770075046]]}},{"attributes":{"OBJECTID":1405,"STATION_NA":"旭全機車行","COUNTY_NA":"雲林縣","ZIPCODE":"654","ADDRESS":"654雲林縣四湖鄉四湖村中正路387號","TEL":"05-7871140","LICENSE_NO":"P21","OWNER":"吳秋堂","LOCATION_T":"地址對位","LOCATION_X":170153,"LOCATION_Y":2615056},"geometry":{"points":[[120.2255191205105,23.635309461120151]]}},{"attributes":{"OBJECTID":1406,"STATION_NA":"安全車行","COUNTY_NA":"雲林縣","ZIPCODE":"648","ADDRESS":"648雲林縣西螺鎮大同路147號","TEL":"05-5862350","LICENSE_NO":"P23","OWNER":"蔡錦德","LOCATION_T":"地址對位","LOCATION_X":194666,"LOCATION_Y":2633165},"geometry":{"points":[[120.46510196076051,23.799837359501304]]}},{"attributes":{"OBJECTID":1407,"STATION_NA":"新舜成機車行","COUNTY_NA":"雲林縣","ZIPCODE":"648","ADDRESS":"648雲林縣西螺鎮大同路24-11號","TEL":"05-5862577","LICENSE_NO":"P24","OWNER":"馬敬釤","LOCATION_T":"地址對位","LOCATION_X":194810,"LOCATION_Y":2632972},"geometry":{"points":[[120.46652227286179,23.798099570078268]]}},{"attributes":{"OBJECTID":1408,"STATION_NA":"雅順車業有限公司","COUNTY_NA":"雲林縣","ZIPCODE":"648","ADDRESS":"648雲林縣西螺鎮大同路50號","TEL":"05-5864321","LICENSE_NO":"P25","OWNER":"蔡水木","LOCATION_T":"地址對位","LOCATION_X":194843,"LOCATION_Y":2632902},"geometry":{"points":[[120.46684871149888,23.797468615322735]]}},{"attributes":{"OBJECTID":1409,"STATION_NA":"金龍機車行","COUNTY_NA":"雲林縣","ZIPCODE":"643","ADDRESS":"643雲林縣林內鄉中正路37號","TEL":"05-5892639","LICENSE_NO":"P26","OWNER":"郭金龍","LOCATION_T":"地址對位","LOCATION_X":210414,"LOCATION_Y":2628835},"geometry":{"points":[[120.61976088865136,23.761199036746667]]}},{"attributes":{"OBJECTID":1410,"STATION_NA":"連正機車行","COUNTY_NA":"雲林縣","ZIPCODE":"643","ADDRESS":"643雲林縣林內鄉重興村重興94號","TEL":"05-5892450","LICENSE_NO":"P27","OWNER":"張鈴榆","LOCATION_T":"地址對位","LOCATION_X":206084,"LOCATION_Y":2629524},"geometry":{"points":[[120.57725945181393,23.767307967217558]]}},{"attributes":{"OBJECTID":1411,"STATION_NA":"長發機車行","COUNTY_NA":"雲林縣","ZIPCODE":"632","ADDRESS":"632雲林縣虎尾鎮中正路348號","TEL":"05-6334978","LICENSE_NO":"P28","OWNER":"陳俊良","LOCATION_T":"地址對位","LOCATION_X":190931,"LOCATION_Y":2622542},"geometry":{"points":[[120.42886622536406,23.703782127787353]]}},{"attributes":{"OBJECTID":1412,"STATION_NA":"大泰機車行","COUNTY_NA":"雲林縣","ZIPCODE":"632","ADDRESS":"632雲林縣虎尾鎮光復路250號","TEL":"05-6322843","LICENSE_NO":"P29","OWNER":"李木火","LOCATION_T":"地址對位","LOCATION_X":192111,"LOCATION_Y":2623228},"geometry":{"points":[[120.44041144330896,23.710019119674676]]}},{"attributes":{"OBJECTID":1413,"STATION_NA":"永發機車行","COUNTY_NA":"雲林縣","ZIPCODE":"632","ADDRESS":"632雲林縣虎尾鎮林森路一段362號","TEL":"05-6327365","LICENSE_NO":"P30","OWNER":"呂朝民","LOCATION_T":"地址對位","LOCATION_X":191673,"LOCATION_Y":2623457},"geometry":{"points":[[120.43610733509186,23.712071261823375]]}},{"attributes":{"OBJECTID":1414,"STATION_NA":"道一機車行","COUNTY_NA":"雲林縣","ZIPCODE":"632","ADDRESS":"632雲林縣虎尾鎮林森路二段94號1樓","TEL":"05-6323735","LICENSE_NO":"P31","OWNER":"翁福安","LOCATION_T":"地址對位","LOCATION_X":190988,"LOCATION_Y":2622774},"geometry":{"points":[[120.42941616342966,23.705879110810926]]}},{"attributes":{"OBJECTID":1415,"STATION_NA":"興隆機車行","COUNTY_NA":"雲林縣","ZIPCODE":"632","ADDRESS":"632雲林縣虎尾鎮博愛路160號","TEL":"05-6325808","LICENSE_NO":"P32","OWNER":"林志宏","LOCATION_T":"地址對位","LOCATION_X":191855,"LOCATION_Y":2623975},"geometry":{"points":[[120.43787236660373,23.716755247678204]]}},{"attributes":{"OBJECTID":1416,"STATION_NA":"新寶興機車行","COUNTY_NA":"雲林縣","ZIPCODE":"637","ADDRESS":"637雲林縣崙背鄉中山路134號","TEL":"05-6962856","LICENSE_NO":"P33","OWNER":"廖木川助","LOCATION_T":"地址對位","LOCATION_X":183723,"LOCATION_Y":2628813},"geometry":{"points":[[120.3579075496134,23.760129155558971]]}},{"attributes":{"OBJECTID":1417,"STATION_NA":"進東機車行","COUNTY_NA":"雲林縣","ZIPCODE":"637","ADDRESS":"637雲林縣崙背鄉中山路143號","TEL":"05-6969186","LICENSE_NO":"P34","OWNER":"廖杉火田","LOCATION_T":"地址對位","LOCATION_X":183700,"LOCATION_Y":2628780},"geometry":{"points":[[120.3576833541191,23.759830232931943]]}},{"attributes":{"OBJECTID":1418,"STATION_NA":"億山機車行","COUNTY_NA":"雲林縣","ZIPCODE":"637","ADDRESS":"637雲林縣崙背鄉正義路151號","TEL":"05-6963930","LICENSE_NO":"P35","OWNER":"廖貴山","LOCATION_T":"地址對位","LOCATION_X":183724,"LOCATION_Y":2628916},"geometry":{"points":[[120.35791283614348,23.761059251224079]]}},{"attributes":{"OBJECTID":1419,"STATION_NA":"良井機車行","COUNTY_NA":"雲林縣","ZIPCODE":"638","ADDRESS":"638雲林縣麥寮鄉中山路168號","TEL":"05-6932669","LICENSE_NO":"P36","OWNER":"楊良井","LOCATION_T":"地址對位","LOCATION_X":173423,"LOCATION_Y":2627605},"geometry":{"points":[[120.25692393054111,23.748769043601499]]}},{"attributes":{"OBJECTID":1420,"STATION_NA":"龍鵬車行","COUNTY_NA":"雲林縣","ZIPCODE":"632","ADDRESS":"632雲林縣虎尾鎮安慶里中山路3-24號1樓","TEL":"05-6932360","LICENSE_NO":"P37","OWNER":"陳秀鸞","LOCATION_T":"地址對位","LOCATION_X":191610,"LOCATION_Y":2622694},"geometry":{"points":[[120.43551882189881,23.705179253215533]]}},{"attributes":{"OBJECTID":1421,"STATION_NA":"世明車業行","COUNTY_NA":"雲林縣","ZIPCODE":"638","ADDRESS":"638雲林縣麥寮鄉表福路61號","TEL":"05-6932472","LICENSE_NO":"P38","OWNER":"陳金枝","LOCATION_T":"地址對位","LOCATION_X":173165,"LOCATION_Y":2627491},"geometry":{"points":[[120.25439919034828,23.747727561224199]]}},{"attributes":{"OBJECTID":1422,"STATION_NA":"盈利輪業行","COUNTY_NA":"雲林縣","ZIPCODE":"647","ADDRESS":"647雲林縣莿桐鄉中山路99號","TEL":"05-5842151","LICENSE_NO":"P39","OWNER":"程盈利","LOCATION_T":"地址對位","LOCATION_X":198183,"LOCATION_Y":2628403},"geometry":{"points":[[120.49978038735752,23.756952557374177]]}},{"attributes":{"OBJECTID":1423,"STATION_NA":"鈴哲機車行","COUNTY_NA":"雲林縣","ZIPCODE":"649","ADDRESS":"649雲林縣二崙鄉油車村文化路97號","TEL":"05-5983315","LICENSE_NO":"P44","OWNER":"廖學哲","LOCATION_T":"中華電信","LOCATION_X":186815,"LOCATION_Y":2632685},"geometry":{"points":[[120.38807805937495,23.795215639488614]]}},{"attributes":{"OBJECTID":1424,"STATION_NA":"豐連機車行","COUNTY_NA":"雲林縣","ZIPCODE":"649","ADDRESS":"649雲林縣二崙鄉油車村文化路226號","TEL":"05-5982639","LICENSE_NO":"P45","OWNER":"曹萄","LOCATION_T":"中華電信","LOCATION_X":186526,"LOCATION_Y":2632699},"geometry":{"points":[[120.38524149415622,23.795330711658742]]}},{"attributes":{"OBJECTID":1425,"STATION_NA":"金標機車行","COUNTY_NA":"雲林縣","ZIPCODE":"653","ADDRESS":"653雲林縣口湖鄉光明路3-16路","TEL":"05-7906076","LICENSE_NO":"P46","OWNER":"湯金標","LOCATION_T":"中華電信","LOCATION_X":166806,"LOCATION_Y":2605332},"geometry":{"points":[[120.19325579259051,23.547334483298673]]}},{"attributes":{"OBJECTID":1426,"STATION_NA":"和發機車行","COUNTY_NA":"雲林縣","ZIPCODE":"633","ADDRESS":"633雲林縣土庫鎮西平里馬光路176號","TEL":"05-6653418","LICENSE_NO":"P47","OWNER":"許國和","LOCATION_T":"中華電信","LOCATION_X":182918,"LOCATION_Y":2622677},"geometry":{"points":[[120.35028318522851,23.70469088298502]]}},{"attributes":{"OBJECTID":1427,"STATION_NA":"輝祥機車行","COUNTY_NA":"雲林縣","ZIPCODE":"631","ADDRESS":"631雲林縣大埤鄉南和村中正路68號","TEL":"05-5917025","LICENSE_NO":"P48","OWNER":"張輝祥","LOCATION_T":"中華電信","LOCATION_X":190846,"LOCATION_Y":2616073},"geometry":{"points":[[120.42828648764272,23.645367600819345]]}},{"attributes":{"OBJECTID":1428,"STATION_NA":"聯進機車行","COUNTY_NA":"雲林縣","ZIPCODE":"631","ADDRESS":"631雲林縣大埤鄉南和村中正路8號","TEL":"05-5912366","LICENSE_NO":"P49","OWNER":"林育辰","LOCATION_T":"中華電信","LOCATION_X":190822,"LOCATION_Y":2616020},"geometry":{"points":[[120.4280533316913,23.644888169444361]]}},{"attributes":{"OBJECTID":1429,"STATION_NA":"正寅機車行","COUNTY_NA":"雲林縣","ZIPCODE":"640","ADDRESS":"640雲林縣斗六市中山路389號","TEL":"05-5325942","LICENSE_NO":"P50","OWNER":"黃張英蘭","LOCATION_T":"地址對位","LOCATION_X":202092,"LOCATION_Y":2622017},"geometry":{"points":[[120.53833007161097,23.699408536333046]]}},{"attributes":{"OBJECTID":1430,"STATION_NA":"玉山機車行","COUNTY_NA":"雲林縣","ZIPCODE":"640","ADDRESS":"640雲林縣斗六市仁義路5-4號","TEL":"05-5330418","LICENSE_NO":"P51","OWNER":"李秋美","LOCATION_T":"地址對位","LOCATION_X":202117,"LOCATION_Y":2621050},"geometry":{"points":[[120.53860570282464,23.690677695521302]]}},{"attributes":{"OBJECTID":1431,"STATION_NA":"宏茂機車行","COUNTY_NA":"雲林縣","ZIPCODE":"640","ADDRESS":"640雲林縣斗六市仁義路20號","TEL":"05-5222109","LICENSE_NO":"P52","OWNER":"黃天助","LOCATION_T":"地址對位","LOCATION_X":202162,"LOCATION_Y":2621332},"geometry":{"points":[[120.53903806492117,23.693225350054252]]}},{"attributes":{"OBJECTID":1432,"STATION_NA":"全翔機車行","COUNTY_NA":"雲林縣","ZIPCODE":"640","ADDRESS":"640雲林縣斗六市成功路194號","TEL":"05-5338956","LICENSE_NO":"P53","OWNER":"鄭當德","LOCATION_T":"地址對位","LOCATION_X":203195,"LOCATION_Y":2622774},"geometry":{"points":[[120.54912278223182,23.706275957453439]]}},{"attributes":{"OBJECTID":1433,"STATION_NA":"全裕機車行","COUNTY_NA":"雲林縣","ZIPCODE":"640","ADDRESS":"640雲林縣斗六市鎮北路213號1樓","TEL":"05-5326273","LICENSE_NO":"P54","OWNER":"高偉誠","LOCATION_T":"地址對位","LOCATION_X":202525,"LOCATION_Y":2624023},"geometry":{"points":[[120.54251340757111,23.717534565765323]]}},{"attributes":{"OBJECTID":1434,"STATION_NA":"快馬機車行","COUNTY_NA":"雲林縣","ZIPCODE":"630","ADDRESS":"630雲林縣斗南鎮西歧里大同路1號","TEL":"05-5974055","LICENSE_NO":"P55","OWNER":"鐘瑞芳","LOCATION_T":"地址對位","LOCATION_X":194525,"LOCATION_Y":2621418},"geometry":{"points":[[120.46415099456271,23.693759664267297]]}},{"attributes":{"OBJECTID":1435,"STATION_NA":"裕益機車行","COUNTY_NA":"雲林縣","ZIPCODE":"630","ADDRESS":"630雲林縣斗南鎮南昌里延平路2段389號","TEL":"05-5972477","LICENSE_NO":"P56","OWNER":"林嘉三","LOCATION_T":"地址對位","LOCATION_X":195781,"LOCATION_Y":2619265},"geometry":{"points":[[120.47654387393479,23.674361424953684]]}},{"attributes":{"OBJECTID":1436,"STATION_NA":"鴻吉機車行","COUNTY_NA":"雲林縣","ZIPCODE":"652","ADDRESS":"652雲林縣水林鄉水林路353號","TEL":"05-7853232","LICENSE_NO":"P57","OWNER":"黃火香","LOCATION_T":"地址對位","LOCATION_X":171782,"LOCATION_Y":2608009},"geometry":{"points":[[120.24185057736595,23.571751740509473]]}},{"attributes":{"OBJECTID":1437,"STATION_NA":"新弘車業有限公司","COUNTY_NA":"雲林縣","ZIPCODE":"651","ADDRESS":"651雲林縣北港鎮光復里永生街7號1樓","TEL":"05-7833054","LICENSE_NO":"P58","OWNER":"蔡混銘","LOCATION_T":"地址對位","LOCATION_X":177457,"LOCATION_Y":2608068},"geometry":{"points":[[120.29743898687281,23.57254607988062]]}},{"attributes":{"OBJECTID":1438,"STATION_NA":"順陽機車行","COUNTY_NA":"雲林縣","ZIPCODE":"651","ADDRESS":"651雲林縣北港鎮西勢里義民路51號1樓","TEL":"05-7833365","LICENSE_NO":"P59","OWNER":"楊敏雄","LOCATION_T":"地址對位","LOCATION_X":177942,"LOCATION_Y":2607567},"geometry":{"points":[[120.30221393944809,23.568044052922787]]}},{"attributes":{"OBJECTID":1439,"STATION_NA":"振光機車行","COUNTY_NA":"雲林縣","ZIPCODE":"651","ADDRESS":"651雲林縣北港鎮華勝里公園路173號1樓","TEL":"05-7838511","LICENSE_NO":"P60","OWNER":"王煙樹","LOCATION_T":"地址對位","LOCATION_X":177832,"LOCATION_Y":2608665},"geometry":{"points":[[120.30108403787484,23.577953426497999]]}},{"attributes":{"OBJECTID":1440,"STATION_NA":"達陽機車行","COUNTY_NA":"雲林縣","ZIPCODE":"651","ADDRESS":"651雲林縣北港鎮華勝路83-2號","TEL":"05-7839511","LICENSE_NO":"P61","OWNER":"蘇西榮","LOCATION_T":"地址對位","LOCATION_X":177604,"LOCATION_Y":2608322},"geometry":{"points":[[120.29886685742861,23.574846134332457]]}},{"attributes":{"OBJECTID":1441,"STATION_NA":"明生機車行","COUNTY_NA":"雲林縣","ZIPCODE":"646","ADDRESS":"646雲林縣古坑鄉水碓村水碓路59號","TEL":"05-5822437","LICENSE_NO":"P62","OWNER":"郭明生","LOCATION_T":"現地調查","LOCATION_X":204208,"LOCATION_Y":2617693},"geometry":{"points":[[120.55920992338355,23.660425584129097]]}},{"attributes":{"OBJECTID":1442,"STATION_NA":"銘洋機車行","COUNTY_NA":"雲林縣","ZIPCODE":"646","ADDRESS":"646雲林縣古坑鄉東和村文化路69號1樓","TEL":"05-5263737","LICENSE_NO":"P63","OWNER":"陳建誌","LOCATION_T":"現地調查","LOCATION_X":205315,"LOCATION_Y":2620157},"geometry":{"points":[[120.56998945058268,23.682705109520793]]}},{"attributes":{"OBJECTID":1443,"STATION_NA":"九成機車行","COUNTY_NA":"雲林縣","ZIPCODE":"646","ADDRESS":"646雲林縣古坑鄉新庄村85-1號","TEL":"05-5260169","LICENSE_NO":"P64","OWNER":"張一麟","LOCATION_T":"中華電信","LOCATION_X":206738,"LOCATION_Y":2621011},"geometry":{"points":[[120.58391760655169,23.690454667091696]]}},{"attributes":{"OBJECTID":1444,"STATION_NA":"鴻興機車行","COUNTY_NA":"雲林縣","ZIPCODE":"654","ADDRESS":"654雲林縣四湖鄉施湖村中山西路197巷17號","TEL":"05-7872820","LICENSE_NO":"P65","OWNER":"陳政鴻","LOCATION_T":"現地調查","LOCATION_X":169703,"LOCATION_Y":2615283},"geometry":{"points":[[120.22109649225945,23.637335958790562]]}},{"attributes":{"OBJECTID":1445,"STATION_NA":"明瑞機車行","COUNTY_NA":"雲林縣","ZIPCODE":"648","ADDRESS":"648雲林縣西螺鎮西興南路118號1樓","TEL":"05-5863013","LICENSE_NO":"P66","OWNER":"林明瑞","LOCATION_T":"地址對位","LOCATION_X":193742,"LOCATION_Y":2632815},"geometry":{"points":[[120.45604777747486,23.79664521508117]]}},{"attributes":{"OBJECTID":1446,"STATION_NA":"新永發機車行","COUNTY_NA":"雲林縣","ZIPCODE":"648","ADDRESS":"648雲林縣西螺鎮延平路529號","TEL":"05-5862850","LICENSE_NO":"P67","OWNER":"程永","LOCATION_T":"地址對位","LOCATION_X":192966,"LOCATION_Y":2633122},"geometry":{"points":[[120.44842098205852,23.799390162305691]]}},{"attributes":{"OBJECTID":1447,"STATION_NA":"吉馬機車行","COUNTY_NA":"雲林縣","ZIPCODE":"648","ADDRESS":"648雲林縣西螺鎮漢光里新興路177號1樓","TEL":"05-5863773","LICENSE_NO":"P68","OWNER":"劉月華","LOCATION_T":"地址對位","LOCATION_X":193382,"LOCATION_Y":2632641},"geometry":{"points":[[120.45252175602607,23.795061541432997]]}},{"attributes":{"OBJECTID":1448,"STATION_NA":"安輪機車行","COUNTY_NA":"雲林縣","ZIPCODE":"635","ADDRESS":"635雲林縣東勢鄉東北村康安路113號","TEL":"05-6991337","LICENSE_NO":"P69","OWNER":"林全居","LOCATION_T":"地址對位","LOCATION_X":173275,"LOCATION_Y":2619910},"geometry":{"points":[[120.25586589784714,23.679288229362406]]}},{"attributes":{"OBJECTID":1449,"STATION_NA":"煌光機車行","COUNTY_NA":"雲林縣","ZIPCODE":"635","ADDRESS":"635雲林縣東勢鄉嘉隆村東榮路53號","TEL":"05-6991449","LICENSE_NO":"P70","OWNER":"吳山煌","LOCATION_T":"中華電信","LOCATION_X":173232,"LOCATION_Y":2619266},"geometry":{"points":[[120.25547842457485,23.673473242771802]]}},{"attributes":{"OBJECTID":1450,"STATION_NA":"安栓機車行","COUNTY_NA":"雲林縣","ZIPCODE":"643","ADDRESS":"643雲林縣林內鄉林北村中正東路128號","TEL":"05-5893603","LICENSE_NO":"P71","OWNER":"陳成章","LOCATION_T":"地址對位","LOCATION_X":210576,"LOCATION_Y":2629116},"geometry":{"points":[[120.62134296578515,23.763740455110295]]}},{"attributes":{"OBJECTID":1451,"STATION_NA":"旺來機車行","COUNTY_NA":"雲林縣","ZIPCODE":"632","ADDRESS":"632雲林縣虎尾鎮立仁里復興路176號1樓","TEL":"05-6339099","LICENSE_NO":"P72","OWNER":"劉智遠","LOCATION_T":"地址對位","LOCATION_X":190655,"LOCATION_Y":2622841},"geometry":{"points":[[120.42614801223101,23.706471953749858]]}},{"attributes":{"OBJECTID":1452,"STATION_NA":"三田機車行","COUNTY_NA":"雲林縣","ZIPCODE":"632","ADDRESS":"632雲林縣虎尾鎮安慶里中山路3-16號1樓","TEL":"05-6339781","LICENSE_NO":"P73","OWNER":"沈裕創","LOCATION_T":"地址對位","LOCATION_X":191625,"LOCATION_Y":2622660},"geometry":{"points":[[120.43566721848801,23.704872778088056]]}},{"attributes":{"OBJECTID":1453,"STATION_NA":"鴻輝機車行","COUNTY_NA":"雲林縣","ZIPCODE":"632","ADDRESS":"632雲林縣虎尾鎮西安里林森路2段193號","TEL":"05-6322658","LICENSE_NO":"P74","OWNER":"翁福來","LOCATION_T":"地址對位","LOCATION_X":190925,"LOCATION_Y":2622593},"geometry":{"points":[[120.42880540250265,23.704242424756458]]}},{"attributes":{"OBJECTID":1454,"STATION_NA":"詠豐機車行","COUNTY_NA":"雲林縣","ZIPCODE":"632","ADDRESS":"632雲林縣虎尾鎮新吉里工專一街122號","TEL":"05-6321068","LICENSE_NO":"P75","OWNER":"陳真","LOCATION_T":"地址對位","LOCATION_X":190244,"LOCATION_Y":2622295},"geometry":{"points":[[120.42213904558012,23.701526610269795]]}},{"attributes":{"OBJECTID":1455,"STATION_NA":"進盛機車行","COUNTY_NA":"雲林縣","ZIPCODE":"638","ADDRESS":"638雲林縣麥寮鄉麥津村中山路426號1樓","TEL":"05-6932193","LICENSE_NO":"P76","OWNER":"楊金創","LOCATION_T":"地址對位","LOCATION_X":172773,"LOCATION_Y":2627807},"geometry":{"points":[[120.25053785536122,23.750562391806529]]}},{"attributes":{"OBJECTID":1456,"STATION_NA":"連全機車行","COUNTY_NA":"雲林縣","ZIPCODE":"647","ADDRESS":"647雲林縣莿桐鄉中正路92號","TEL":"05-5841663","LICENSE_NO":"P77","OWNER":"湯美蓮","LOCATION_T":"地址對位","LOCATION_X":198323,"LOCATION_Y":2628451},"geometry":{"points":[[120.50115215304723,23.757390410834816]]}},{"attributes":{"OBJECTID":1457,"STATION_NA":"崑輪機車行","COUNTY_NA":"雲林縣","ZIPCODE":"634","ADDRESS":"634雲林縣褒忠鄉中民村中正路185號","TEL":"05-6972132","LICENSE_NO":"P78","OWNER":"楊東興","LOCATION_T":"中華電信","LOCATION_X":178922,"LOCATION_Y":2621565},"geometry":{"points":[[120.31115011400962,23.694483379011565]]}},{"attributes":{"OBJECTID":1458,"STATION_NA":"鴻陽機車行","COUNTY_NA":"雲林縣","ZIPCODE":"634","ADDRESS":"634雲林縣褒忠鄉中民村中正路327巷9號","TEL":"05-6974676","LICENSE_NO":"P79","OWNER":"練麗鴻","LOCATION_T":"中華電信","LOCATION_X":178622,"LOCATION_Y":2621412},"geometry":{"points":[[120.3082156739637,23.693089209261416]]}},{"attributes":{"OBJECTID":1459,"STATION_NA":"詠裕機車行","COUNTY_NA":"雲林縣","ZIPCODE":"634","ADDRESS":"634雲林縣褒忠鄉中勝村新湖路19號1樓","TEL":"05-6975846","LICENSE_NO":"P80","OWNER":"張泳文","LOCATION_T":"中華電信","LOCATION_X":178653,"LOCATION_Y":2621818},"geometry":{"points":[[120.30849990782856,23.696755818815088]]}},{"attributes":{"OBJECTID":1460,"STATION_NA":"成邑有限公司","COUNTY_NA":"嘉義縣","ZIPCODE":"613","ADDRESS":"613嘉義縣朴子市北通路67號","TEL":"05-3700626","LICENSE_NO":"Q01","OWNER":"李雪美","LOCATION_T":"地址對位","LOCATION_X":172001,"LOCATION_Y":2596793},"geometry":{"points":[[120.24457242199321,23.470488791619012]]}},{"attributes":{"OBJECTID":1461,"STATION_NA":"勝岡車業有限公司","COUNTY_NA":"嘉義縣","ZIPCODE":"613","ADDRESS":"613嘉義縣朴子市山通路99號","TEL":"05-3792503","LICENSE_NO":"Q02","OWNER":"沈文邦","LOCATION_T":"地址對位","LOCATION_X":171849,"LOCATION_Y":2596145},"geometry":{"points":[[120.2431179409035,23.464630375947046]]}},{"attributes":{"OBJECTID":1462,"STATION_NA":"瑞億機車行","COUNTY_NA":"嘉義縣","ZIPCODE":"613","ADDRESS":"613嘉義縣朴子市開元路266號","TEL":"05-3792736","LICENSE_NO":"Q03","OWNER":"李四峰","LOCATION_T":"地址對位","LOCATION_X":171803,"LOCATION_Y":2596269},"geometry":{"points":[[120.24266132287404,23.46574786258968]]}},{"attributes":{"OBJECTID":1463,"STATION_NA":"嘉明車業有限公司","COUNTY_NA":"嘉義縣","ZIPCODE":"611","ADDRESS":"611嘉義縣鹿草鄉西井村西井548號","TEL":"05-3752329","LICENSE_NO":"Q04","OWNER":"戴義松","LOCATION_T":"中華電信","LOCATION_X":178543,"LOCATION_Y":2590043},"geometry":{"points":[[120.30892419594572,23.409836152703129]]}},{"attributes":{"OBJECTID":1464,"STATION_NA":"永光機車行","COUNTY_NA":"嘉義縣","ZIPCODE":"616","ADDRESS":"616嘉義縣新港鄉中山路125號","TEL":"05-3742273","LICENSE_NO":"Q05","OWNER":"江順德","LOCATION_T":"中華電信","LOCATION_X":182555,"LOCATION_Y":2605876},"geometry":{"points":[[120.34747730761558,23.552973439017659]]}},{"attributes":{"OBJECTID":1465,"STATION_NA":"增堅車業有限公司","COUNTY_NA":"嘉義縣","ZIPCODE":"624","ADDRESS":"624嘉義縣義竹鄉義竹村90之9號","TEL":"05-3412567","LICENSE_NO":"Q06","OWNER":"方俊欽","LOCATION_T":"中華電信","LOCATION_X":172057,"LOCATION_Y":2582026},"geometry":{"points":[[120.24587770809909,23.337152061708856]]}},{"attributes":{"OBJECTID":1466,"STATION_NA":"原和機車行","COUNTY_NA":"嘉義縣","ZIPCODE":"622","ADDRESS":"622嘉義縣大林鎮甘蔗崙38號","TEL":"05-2651453","LICENSE_NO":"Q07","OWNER":"陳清文","LOCATION_T":"地址對位","LOCATION_X":192711,"LOCATION_Y":2611934},"geometry":{"points":[[120.44672448378148,23.608058692143288]]}},{"attributes":{"OBJECTID":1467,"STATION_NA":"隆乙機車行","COUNTY_NA":"嘉義縣","ZIPCODE":"615","ADDRESS":"615嘉義縣六腳鄉蒜東村蒜頭294-6號","TEL":"05-3803222","LICENSE_NO":"Q08","OWNER":"黃甲乙","LOCATION_T":"現地調查","LOCATION_X":176917,"LOCATION_Y":2599037},"geometry":{"points":[[120.2925857472077,23.490976979811379]]}},{"attributes":{"OBJECTID":1468,"STATION_NA":"昶旭車業有限公司","COUNTY_NA":"嘉義縣","ZIPCODE":"612","ADDRESS":"612嘉義縣太保市後潭439之9號","TEL":"05-3711321","LICENSE_NO":"Q09","OWNER":"羅玉花","LOCATION_T":"地址對位","LOCATION_X":181788,"LOCATION_Y":2594785},"geometry":{"points":[[120.34046232004172,23.452791529771456]]}},{"attributes":{"OBJECTID":1469,"STATION_NA":"昇興機車行","COUNTY_NA":"嘉義縣","ZIPCODE":"608","ADDRESS":"608嘉義縣水上鄉柳林村柳子林49-10號","TEL":"05-2684688","LICENSE_NO":"Q10","OWNER":"黃守忠","LOCATION_T":"中華電信","LOCATION_X":189524,"LOCATION_Y":2592432},"geometry":{"points":[[120.41626929864292,23.431847000679461]]}},{"attributes":{"OBJECTID":1470,"STATION_NA":"阿財車業行","COUNTY_NA":"嘉義縣","ZIPCODE":"606","ADDRESS":"606嘉義縣中埔鄉和睦村中山路五段723號","TEL":"05-2391215","LICENSE_NO":"Q11","OWNER":"賴松財","LOCATION_T":"中華電信","LOCATION_X":194401,"LOCATION_Y":2594573},"geometry":{"points":[[120.46391786026959,23.451351763066263]]}},{"attributes":{"OBJECTID":1471,"STATION_NA":"鴻吉車業有限公司","COUNTY_NA":"嘉義縣","ZIPCODE":"606","ADDRESS":"606嘉義縣中埔鄉富收村頂中下街5之24號","TEL":"05-2395712","LICENSE_NO":"Q12","OWNER":"陳致圓","LOCATION_T":"中華電信","LOCATION_X":197283,"LOCATION_Y":2594121},"geometry":{"points":[[120.49214100120844,23.447364752904214]]}},{"attributes":{"OBJECTID":1472,"STATION_NA":"新興車業有限公司","COUNTY_NA":"嘉義縣","ZIPCODE":"606","ADDRESS":"606嘉義縣中埔鄉隆興村十字路118號","TEL":"05-2534092","LICENSE_NO":"Q13","OWNER":"涂新田","LOCATION_T":"地址對位","LOCATION_X":200675,"LOCATION_Y":2593522},"geometry":{"points":[[120.52535860262213,23.442059515881112]]}},{"attributes":{"OBJECTID":1473,"STATION_NA":"鴻興車業行","COUNTY_NA":"嘉義縣","ZIPCODE":"606","ADDRESS":"606嘉義縣中埔鄉和興村中山路五段957號","TEL":"05-2396169","LICENSE_NO":"Q14","OWNER":"余新吉","LOCATION_T":"地址對位","LOCATION_X":193975,"LOCATION_Y":2594830},"geometry":{"points":[[120.45973901974554,23.453658031237381]]}},{"attributes":{"OBJECTID":1474,"STATION_NA":"秦晟企業有限公司","COUNTY_NA":"嘉義縣","ZIPCODE":"622","ADDRESS":"622嘉義縣大林鎮平林里中興路258號","TEL":"05-2653045","LICENSE_NO":"Q18","OWNER":"陳幸枝","LOCATION_T":"地址對位","LOCATION_X":194182,"LOCATION_Y":2611336},"geometry":{"points":[[120.46116072698365,23.602710700008988]]}},{"attributes":{"OBJECTID":1475,"STATION_NA":"泰峰車業有限公司","COUNTY_NA":"嘉義縣","ZIPCODE":"622","ADDRESS":"622嘉義縣大林鎮西林里中正路428號","TEL":"05-2652408","LICENSE_NO":"Q19","OWNER":"江勉觀","LOCATION_T":"地址對位","LOCATION_X":193334,"LOCATION_Y":2611189},"geometry":{"points":[[120.4528571143279,23.601353596723001]]}},{"attributes":{"OBJECTID":1476,"STATION_NA":"偉盛機車行","COUNTY_NA":"嘉義縣","ZIPCODE":"606","ADDRESS":"606嘉義縣中埔鄉中華路685號","TEL":"05-2391658","LICENSE_NO":"Q20","OWNER":"賴茂旺","LOCATION_T":"地址對位","LOCATION_X":193788,"LOCATION_Y":2594009},"geometry":{"points":[[120.45793885598833,23.446238078793623]]}},{"attributes":{"OBJECTID":1477,"STATION_NA":"國利機車行","COUNTY_NA":"嘉義縣","ZIPCODE":"606","ADDRESS":"606嘉義縣中埔鄉同仁村同仁161-2號","TEL":"05-2531404","LICENSE_NO":"Q21","OWNER":"謝清泉","LOCATION_T":"現地調查","LOCATION_X":199429,"LOCATION_Y":2589686},"geometry":{"points":[[120.51329057261599,23.40738306490649]]}},{"attributes":{"OBJECTID":1478,"STATION_NA":"正大機車行","COUNTY_NA":"嘉義縣","ZIPCODE":"606","ADDRESS":"606嘉義縣中埔鄉和睦村中山路5段403號","TEL":"05-2390120","LICENSE_NO":"Q22","OWNER":"鍾春滿","LOCATION_T":"中華電信","LOCATION_X":195228,"LOCATION_Y":2594582},"geometry":{"points":[[120.47201175443192,23.451460712175749]]}},{"attributes":{"OBJECTID":1479,"STATION_NA":"協發車業行","COUNTY_NA":"嘉義縣","ZIPCODE":"615","ADDRESS":"615嘉義縣六腳鄉蒜頭村113-5號","TEL":"05-3802218","LICENSE_NO":"Q23","OWNER":"林瑞敏","LOCATION_T":"中華電信","LOCATION_X":176808,"LOCATION_Y":2599125},"geometry":{"points":[[120.29151434934724,23.491766753142887]]}},{"attributes":{"OBJECTID":1480,"STATION_NA":"新偉車業有限公司","COUNTY_NA":"嘉義縣","ZIPCODE":"612","ADDRESS":"612嘉義縣太保市銘泰新村1號","TEL":"05-3712898","LICENSE_NO":"Q24","OWNER":"余新丁","LOCATION_T":"地址對位","LOCATION_X":182566,"LOCATION_Y":2594603},"geometry":{"points":[[120.34808477672911,23.451180134665844]]}},{"attributes":{"OBJECTID":1481,"STATION_NA":"富發機車行","COUNTY_NA":"嘉義縣","ZIPCODE":"612","ADDRESS":"612嘉義縣太保市中山路二段151號","TEL":"05-2373207","LICENSE_NO":"Q25","OWNER":"吳國智","LOCATION_T":"地址對位","LOCATION_X":184914,"LOCATION_Y":2599934},"geometry":{"points":[[120.37083794769423,23.499413888873427]]}},{"attributes":{"OBJECTID":1482,"STATION_NA":"明賜機車行","COUNTY_NA":"嘉義縣","ZIPCODE":"608","ADDRESS":"608嘉義縣水上鄉民生村忠孝街75號","TEL":"05-2364176","LICENSE_NO":"Q27","OWNER":"黃明山","LOCATION_T":"地址對位","LOCATION_X":191363,"LOCATION_Y":2594121},"geometry":{"points":[[120.43420111471288,23.447164882319218]]}},{"attributes":{"OBJECTID":1483,"STATION_NA":"車又車機車行","COUNTY_NA":"嘉義縣","ZIPCODE":"608","ADDRESS":"608嘉義縣水上鄉水上村中正路155巷12號","TEL":"05-2689432","LICENSE_NO":"Q28","OWNER":"張碧華","LOCATION_T":"地址對位","LOCATION_X":187748,"LOCATION_Y":2591963},"geometry":{"points":[[120.39890886805772,23.427545785221277]]}},{"attributes":{"OBJECTID":1484,"STATION_NA":"正發機車行","COUNTY_NA":"嘉義縣","ZIPCODE":"608","ADDRESS":"608嘉義縣水上鄉龍德村三鎮路131號","TEL":"05-2682856","LICENSE_NO":"Q29","OWNER":"張武雄","LOCATION_T":"地址對位","LOCATION_X":186825,"LOCATION_Y":2591192},"geometry":{"points":[[120.38990886385091,23.420548680964401]]}},{"attributes":{"OBJECTID":1485,"STATION_NA":"新順榮機車行","COUNTY_NA":"嘉義縣","ZIPCODE":"625","ADDRESS":"625嘉義縣布袋鎮東港里埔仔厝27號","TEL":"05-3472623","LICENSE_NO":"Q30","OWNER":"吳順理","LOCATION_T":"現地調查","LOCATION_X":166006,"LOCATION_Y":2586092},"geometry":{"points":[[120.18648632441378,23.373565717955348]]}},{"attributes":{"OBJECTID":1486,"STATION_NA":"明益機車行","COUNTY_NA":"嘉義縣","ZIPCODE":"621","ADDRESS":"621嘉義縣民雄鄉中樂路1-3號","TEL":"05-2262475","LICENSE_NO":"Q31","OWNER":"郭有德","LOCATION_T":"地址對位","LOCATION_X":190855,"LOCATION_Y":2606221},"geometry":{"points":[[120.42876049114331,23.556407213389178]]}},{"attributes":{"OBJECTID":1487,"STATION_NA":"東新車業有限公司","COUNTY_NA":"嘉義縣","ZIPCODE":"621","ADDRESS":"621嘉義縣民雄鄉建國路二段340號","TEL":"05-2262575","LICENSE_NO":"Q32","OWNER":"許清宏","LOCATION_T":"地址對位","LOCATION_X":191344,"LOCATION_Y":2604938},"geometry":{"points":[[120.43359967167116,23.544840466367212]]}},{"attributes":{"OBJECTID":1488,"STATION_NA":"金達車業有限公司","COUNTY_NA":"嘉義縣","ZIPCODE":"621","ADDRESS":"621嘉義縣民雄鄉建國路三段57-13號","TEL":"05-2216873","LICENSE_NO":"Q33","OWNER":"詹月娥","LOCATION_T":"地址對位","LOCATION_X":191999,"LOCATION_Y":2602156},"geometry":{"points":[[120.44012069918406,23.519743549221893]]}},{"attributes":{"OBJECTID":1489,"STATION_NA":"正豐機車行","COUNTY_NA":"嘉義縣","ZIPCODE":"621","ADDRESS":"621嘉義縣民雄鄉豐收村山子腳102號","TEL":"05-2721876","LICENSE_NO":"Q34","OWNER":"謝文程","LOCATION_T":"地址對位","LOCATION_X":192971,"LOCATION_Y":2606811},"geometry":{"points":[[120.4494646805055,23.561810113849717]]}},{"attributes":{"OBJECTID":1490,"STATION_NA":"吉豐機車行","COUNTY_NA":"嘉義縣","ZIPCODE":"621","ADDRESS":"621嘉義縣民雄鄉福樂村埤角336號","TEL":"05-2213607","LICENSE_NO":"Q35","OWNER":"江文卿","LOCATION_T":"地址對位","LOCATION_X":192108,"LOCATION_Y":2602797},"geometry":{"points":[[120.44116372244791,23.525535484300725]]}},{"attributes":{"OBJECTID":1491,"STATION_NA":"宗泰機車行","COUNTY_NA":"嘉義縣","ZIPCODE":"613","ADDRESS":"613嘉義縣朴子市向榮路46號","TEL":"05-3793262","LICENSE_NO":"Q36","OWNER":"陳振興","LOCATION_T":"地址對位","LOCATION_X":171880,"LOCATION_Y":2596538},"geometry":{"points":[[120.24340115815816,23.468180494868623]]}},{"attributes":{"OBJECTID":1492,"STATION_NA":"崑發機車行","COUNTY_NA":"嘉義縣","ZIPCODE":"613","ADDRESS":"613嘉義縣朴子市南通路三段575號","TEL":"05-3797777","LICENSE_NO":"Q37","OWNER":"李能田","LOCATION_T":"地址對位","LOCATION_X":171796,"LOCATION_Y":2595590},"geometry":{"points":[[120.24262771755946,23.459616439057228]]}},{"attributes":{"OBJECTID":1493,"STATION_NA":"億泰行","COUNTY_NA":"嘉義縣","ZIPCODE":"613","ADDRESS":"613嘉義縣朴子市海通路43-4號","TEL":"05-3793370","LICENSE_NO":"Q38","OWNER":"林清德","LOCATION_T":"地址對位","LOCATION_X":171622,"LOCATION_Y":2596043},"geometry":{"points":[[120.24090139388758,23.463698546241016]]}},{"attributes":{"OBJECTID":1494,"STATION_NA":"順達機車行","COUNTY_NA":"嘉義縣","ZIPCODE":"604","ADDRESS":"604嘉義縣竹崎鄉和平村坑仔坪159號","TEL":"05-2612449","LICENSE_NO":"Q39","OWNER":"吳文佑","LOCATION_T":"地址對位","LOCATION_X":203051,"LOCATION_Y":2601730},"geometry":{"points":[[120.54835952258389,23.516249019749978]]}},{"attributes":{"OBJECTID":1495,"STATION_NA":"勝豐機車行","COUNTY_NA":"嘉義縣","ZIPCODE":"603","ADDRESS":"603嘉義縣梅山鄉中山路369號","TEL":"05-2621324","LICENSE_NO":"Q40","OWNER":"吳坤輝","LOCATION_T":"中華電信","LOCATION_X":203773,"LOCATION_Y":2609337},"geometry":{"points":[[120.55520019020997,23.584960743345793]]}},{"attributes":{"OBJECTID":1496,"STATION_NA":"昇振車業有限公司","COUNTY_NA":"嘉義縣","ZIPCODE":"616","ADDRESS":"616嘉義縣新港鄉宮後村新民路121號","TEL":"05-3742320","LICENSE_NO":"Q41","OWNER":"郭漢榮","LOCATION_T":"中華電信","LOCATION_X":182757,"LOCATION_Y":2606251},"geometry":{"points":[[120.34943906292396,23.556367901338358]]}},{"attributes":{"OBJECTID":1497,"STATION_NA":"輝龍車業有限公司","COUNTY_NA":"嘉義縣","ZIPCODE":"624","ADDRESS":"624嘉義縣義竹鄉六桂村170-1號","TEL":"05-3412625","LICENSE_NO":"Q42","OWNER":"翁瑞祥","LOCATION_T":"中華電信","LOCATION_X":171898,"LOCATION_Y":2582041},"geometry":{"points":[[120.24432217110963,23.33727994271722]]}},{"attributes":{"OBJECTID":1498,"STATION_NA":"一安機車行","COUNTY_NA":"嘉義縣","ZIPCODE":"615","ADDRESS":"615嘉義縣六腳鄉六腳村六腳26號","TEL":"05-3781357","LICENSE_NO":"Q43","OWNER":"呂榮安","LOCATION_T":"地址對位","LOCATION_X":172910,"LOCATION_Y":2600636},"geometry":{"points":[[120.25327463374408,23.505232570570772]]}},{"attributes":{"OBJECTID":1499,"STATION_NA":"豐盛機車行","COUNTY_NA":"嘉義縣","ZIPCODE":"621","ADDRESS":"621嘉義縣民雄鄉北斗村北勢子73之47號","TEL":"05-2211294","LICENSE_NO":"Q44","OWNER":"陳燕銘","LOCATION_T":"地址對位","LOCATION_X":193308,"LOCATION_Y":2603483},"geometry":{"points":[[120.4528894953267,23.531771903100832]]}},{"attributes":{"OBJECTID":1500,"STATION_NA":"嘉大機車行","COUNTY_NA":"嘉義縣","ZIPCODE":"621","ADDRESS":"621嘉義縣民雄鄉西安村西安路35之3號","TEL":"05-2262252","LICENSE_NO":"Q45","OWNER":"吳清榮","LOCATION_T":"地址對位","LOCATION_X":190528,"LOCATION_Y":2606312},"geometry":{"points":[[120.42555395378051,23.557216991240427]]}},{"attributes":{"OBJECTID":1501,"STATION_NA":"金興機車行","COUNTY_NA":"嘉義縣","ZIPCODE":"604","ADDRESS":"604嘉義縣竹崎鄉竹崎村中山路237號","TEL":"05-2611088","LICENSE_NO":"Q46","OWNER":"阮金榜","LOCATION_T":"地址對位","LOCATION_X":203151,"LOCATION_Y":2601996},"geometry":{"points":[[120.54933058060932,23.518653892097038]]}},{"attributes":{"OBJECTID":1502,"STATION_NA":"統一機車行","COUNTY_NA":"嘉義縣","ZIPCODE":"604","ADDRESS":"604嘉義縣竹崎鄉灣橋村灣橋340巷4號","TEL":"05-2790618","LICENSE_NO":"Q47","OWNER":"李蓮法","LOCATION_T":"中華電信","LOCATION_X":198427,"LOCATION_Y":2599096},"geometry":{"points":[[120.50316921108028,23.492325370085801]]}},{"attributes":{"OBJECTID":1503,"STATION_NA":"吉冠機車行","COUNTY_NA":"嘉義縣","ZIPCODE":"614","ADDRESS":"614嘉義縣縣東石鄉東石村11鄰東石5號","TEL":"05-3733066","LICENSE_NO":"Q48","OWNER":"黃忠利","LOCATION_T":"中華電信","LOCATION_X":162574,"LOCATION_Y":2595480},"geometry":{"points":[[120.15238011233112,23.458158787497069]]}},{"attributes":{"OBJECTID":1504,"STATION_NA":"展信機車行","COUNTY_NA":"嘉義縣","ZIPCODE":"614","ADDRESS":"614嘉義縣縣東石鄉猿樹村145號","TEL":"05-3733062","LICENSE_NO":"Q49","OWNER":"黃淑珍","LOCATION_T":"地址對位","LOCATION_X":162516,"LOCATION_Y":2595459},"geometry":{"points":[[120.15181369161331,23.457966077905283]]}},{"attributes":{"OBJECTID":1505,"STATION_NA":"永安機車行","COUNTY_NA":"嘉義縣","ZIPCODE":"616","ADDRESS":"616嘉義縣縣新港鄉中正路433號","TEL":"05-3742736","LICENSE_NO":"Q50","OWNER":"郭廖英桃","LOCATION_T":"中華電信","LOCATION_X":182736,"LOCATION_Y":2607466},"geometry":{"points":[[120.34917911739662,23.567337829145647]]}},{"attributes":{"OBJECTID":1506,"STATION_NA":"萬安機車行","COUNTY_NA":"嘉義縣","ZIPCODE":"616","ADDRESS":"616嘉義縣縣新港鄉月眉村月眉潭49號","TEL":"05-3772068","LICENSE_NO":"Q51","OWNER":"郭崑參","LOCATION_T":"中華電信","LOCATION_X":183044,"LOCATION_Y":2602353},"geometry":{"points":[[120.35242309404525,23.521181738340701]]}},{"attributes":{"OBJECTID":1507,"STATION_NA":"杰陽車業股份有限公司","COUNTY_NA":"台南縣","ZIPCODE":"730","ADDRESS":"730台南縣新營市新進路二段407號","TEL":"06-6566472","LICENSE_NO":"R01","OWNER":"黃庭芳","LOCATION_T":"地址對位","LOCATION_X":177837,"LOCATION_Y":2578163},"geometry":{"points":[[120.30258159119757,23.302534405415731]]}},{"attributes":{"OBJECTID":1508,"STATION_NA":"全芳機車有限公司","COUNTY_NA":"台南縣","ZIPCODE":"730","ADDRESS":"730台南縣新營市中山路175號","TEL":"06-6333076","LICENSE_NO":"R02","OWNER":"黃庭芳","LOCATION_T":"地址對位","LOCATION_X":179158,"LOCATION_Y":2578261},"geometry":{"points":[[120.31549140482154,23.303476374477672]]}},{"attributes":{"OBJECTID":1509,"STATION_NA":"偉成機車行","COUNTY_NA":"台南縣","ZIPCODE":"730","ADDRESS":"730台南縣新營市中山路64號","TEL":"06-6323627","LICENSE_NO":"R03","OWNER":"黃進考","LOCATION_T":"地址對位","LOCATION_X":179615,"LOCATION_Y":2578523},"geometry":{"points":[[120.31994714490955,23.305861706805313]]}},{"attributes":{"OBJECTID":1510,"STATION_NA":"勝三車業行","COUNTY_NA":"台南縣","ZIPCODE":"730","ADDRESS":"730台南縣新營市中山路163號","TEL":"06-6322912","LICENSE_NO":"R04","OWNER":"黃世傑","LOCATION_T":"地址對位","LOCATION_X":179210,"LOCATION_Y":2578299},"geometry":{"points":[[120.31599801566257,23.303821734000753]]}},{"attributes":{"OBJECTID":1511,"STATION_NA":"益豐機車行","COUNTY_NA":"台南縣","ZIPCODE":"710","ADDRESS":"710台南縣永康市大灣路481號","TEL":"06-2721051","LICENSE_NO":"R05","OWNER":"卓楊玉香","LOCATION_T":"地址對位","LOCATION_X":173809,"LOCATION_Y":2544864},"geometry":{"points":[[120.26484130648487,23.001663721517556]]}},{"attributes":{"OBJECTID":1512,"STATION_NA":"健宏車業有限公司","COUNTY_NA":"台南縣","ZIPCODE":"710","ADDRESS":"710台南縣永康市永大路二段913號","TEL":"06-2322276","LICENSE_NO":"R06","OWNER":"劉秀錦","LOCATION_T":"地址對位","LOCATION_X":173404,"LOCATION_Y":2547270},"geometry":{"points":[[120.26077204077832,23.023371597493508]]}},{"attributes":{"OBJECTID":1513,"STATION_NA":"進大車行","COUNTY_NA":"台南縣","ZIPCODE":"710","ADDRESS":"710台南縣永康市中山南路750號","TEL":"06-2321749","LICENSE_NO":"R07","OWNER":"徐隆進","LOCATION_T":"地址對位","LOCATION_X":171869,"LOCATION_Y":2546959},"geometry":{"points":[[120.24581221724408,23.020492716697937]]}},{"attributes":{"OBJECTID":1514,"STATION_NA":"通能車業社","COUNTY_NA":"台南縣","ZIPCODE":"710","ADDRESS":"710台南縣永康市小東路553號","TEL":"06-3127172","LICENSE_NO":"R08","OWNER":"張連發","LOCATION_T":"地址對位","LOCATION_X":170904,"LOCATION_Y":2544557},"geometry":{"points":[[120.23652141533957,22.998758157297697]]}},{"attributes":{"OBJECTID":1515,"STATION_NA":"忠益車業有限公司","COUNTY_NA":"台南縣","ZIPCODE":"711","ADDRESS":"711台南縣歸仁鄉大廟村保大路三段219號","TEL":"06-2711111","LICENSE_NO":"R09","OWNER":"陳正益","LOCATION_T":"中華電信","LOCATION_X":175031,"LOCATION_Y":2544391},"geometry":{"points":[[120.2767837092852,22.997447335822095]]}},{"attributes":{"OBJECTID":1516,"STATION_NA":"信皇車業有限公司","COUNTY_NA":"台南縣","ZIPCODE":"711","ADDRESS":"711台南縣歸仁鄉中山路二段22號","TEL":"06-2301325","LICENSE_NO":"R10","OWNER":"王郭素霞","LOCATION_T":"中華電信","LOCATION_X":176707,"LOCATION_Y":2541007},"geometry":{"points":[[120.29328966451024,22.966963794044968]]}},{"attributes":{"OBJECTID":1517,"STATION_NA":"奇益機車行","COUNTY_NA":"台南縣","ZIPCODE":"711","ADDRESS":"711台南縣歸仁鄉中山路二段169號","TEL":"06-2304127","LICENSE_NO":"R11","OWNER":"王復還","LOCATION_T":"中華電信","LOCATION_X":176418,"LOCATION_Y":2541015},"geometry":{"points":[[120.29047100549842,22.967023407219557]]}},{"attributes":{"OBJECTID":1518,"STATION_NA":"聖展機車行","COUNTY_NA":"台南縣","ZIPCODE":"711","ADDRESS":"711台南縣歸仁鄉大廟村和順路二段370號","TEL":"06-2712436","LICENSE_NO":"R12","OWNER":"陳正忠","LOCATION_T":"中華電信","LOCATION_X":174711,"LOCATION_Y":2543791},"geometry":{"points":[[120.27369138571984,22.992015022315311]]}},{"attributes":{"OBJECTID":1519,"STATION_NA":"大安全機車行","COUNTY_NA":"台南縣","ZIPCODE":"717","ADDRESS":"717台南縣仁德鄉中正路二段455號","TEL":"06-2794360","LICENSE_NO":"R13","OWNER":"侯清祥","LOCATION_T":"地址對位","LOCATION_X":172506,"LOCATION_Y":2539683},"geometry":{"points":[[120.25238890262624,22.954821032636843]]}},{"attributes":{"OBJECTID":1520,"STATION_NA":"升麓機車行","COUNTY_NA":"台南縣","ZIPCODE":"717","ADDRESS":"717台南縣仁德鄉上崙村中正路一段716號","TEL":"06-2660022","LICENSE_NO":"R14","OWNER":"鄭安陸","LOCATION_T":"中華電信","LOCATION_X":172086,"LOCATION_Y":2537912},"geometry":{"points":[[120.2483809876246,22.93881020122415]]}},{"attributes":{"OBJECTID":1521,"STATION_NA":"盛利車業有限公司","COUNTY_NA":"台南縣","ZIPCODE":"726","ADDRESS":"726台南縣學甲鎮華宗路418號","TEL":"06-7835818","LICENSE_NO":"R15","OWNER":"丁盛助","LOCATION_T":"中華電信","LOCATION_X":165520,"LOCATION_Y":2570592},"geometry":{"points":[[120.18259192192028,23.233586586773825]]}},{"attributes":{"OBJECTID":1522,"STATION_NA":"欣欣機車行","COUNTY_NA":"台南縣","ZIPCODE":"722","ADDRESS":"722台南縣佳里鎮延平路300號","TEL":"06-7222654","LICENSE_NO":"R17","OWNER":"陳博照","LOCATION_T":"地址對位","LOCATION_X":165056,"LOCATION_Y":2562559},"geometry":{"points":[[120.17849721839976,23.161030549105519]]}},{"attributes":{"OBJECTID":1523,"STATION_NA":"弘昌車業有限公司","COUNTY_NA":"台南縣","ZIPCODE":"722","ADDRESS":"722台南縣佳里鎮和平街151號","TEL":"06-7222326","LICENSE_NO":"R18","OWNER":"林良彥","LOCATION_T":"地址對位","LOCATION_X":164781,"LOCATION_Y":2562696},"geometry":{"points":[[120.17580407562431,23.162253629274886]]}},{"attributes":{"OBJECTID":1524,"STATION_NA":"孟晉車業有限公司","COUNTY_NA":"台南縣","ZIPCODE":"712","ADDRESS":"712台南縣新化鎮中山路260號","TEL":"06-5907467","LICENSE_NO":"R19","OWNER":"陳天厚","LOCATION_T":"地址對位","LOCATION_X":178206,"LOCATION_Y":2548649},"geometry":{"points":[[120.30755818810619,23.036036591816298]]}},{"attributes":{"OBJECTID":1525,"STATION_NA":"太子機車行","COUNTY_NA":"台南縣","ZIPCODE":"712","ADDRESS":"712台南縣新化鎮中正路635號","TEL":"06-5985521","LICENSE_NO":"R20","OWNER":"黃鳳嬌","LOCATION_T":"地址對位","LOCATION_X":178063,"LOCATION_Y":2549143},"geometry":{"points":[[120.30614021480133,23.040491406765682]]}},{"attributes":{"OBJECTID":1526,"STATION_NA":"上益車業","COUNTY_NA":"台南縣","ZIPCODE":"744","ADDRESS":"744台南縣新市鄉光華街128號","TEL":"06-5991874","LICENSE_NO":"R21","OWNER":"葉明賢","LOCATION_T":"地址對位","LOCATION_X":177103,"LOCATION_Y":2552968},"geometry":{"points":[[120.29659530648119,23.07499099047234]]}},{"attributes":{"OBJECTID":1527,"STATION_NA":"永裕機車行","COUNTY_NA":"台南縣","ZIPCODE":"744","ADDRESS":"744台南縣新市鄉新市村復興路70號","TEL":"06-5993427","LICENSE_NO":"R22","OWNER":"鄭永裕","LOCATION_T":"地址對位","LOCATION_X":176996,"LOCATION_Y":2553872},"geometry":{"points":[[120.29550902283852,23.083149830925858]]}},{"attributes":{"OBJECTID":1528,"STATION_NA":"勝興機車行","COUNTY_NA":"台南縣","ZIPCODE":"735","ADDRESS":"735台南縣下營鄉下營村中山路一段116號","TEL":"06-6893156","LICENSE_NO":"R23","OWNER":"曾進義","LOCATION_T":"中華電信","LOCATION_X":173802,"LOCATION_Y":2570742},"geometry":{"points":[[120.26350580846628,23.235343561744418]]}},{"attributes":{"OBJECTID":1529,"STATION_NA":"輝隆機車行","COUNTY_NA":"台南縣","ZIPCODE":"735","ADDRESS":"735台南縣下營鄉新興村中山路一段147號","TEL":"06-6893204","LICENSE_NO":"R24","OWNER":"丁聰輝","LOCATION_T":"中華電信","LOCATION_X":173925,"LOCATION_Y":2570810},"geometry":{"points":[[120.26470424784362,23.235963212276481]]}},{"attributes":{"OBJECTID":1530,"STATION_NA":"成南企業有限公司","COUNTY_NA":"台南縣","ZIPCODE":"741","ADDRESS":"741台南縣善化鎮中正路440-1號","TEL":"06-5837322","LICENSE_NO":"R25","OWNER":"陳金川","LOCATION_T":"地址對位","LOCATION_X":176882,"LOCATION_Y":2559112},"geometry":{"points":[[120.29415171283401,23.130463679951827]]}},{"attributes":{"OBJECTID":1531,"STATION_NA":"慶濠機車行","COUNTY_NA":"台南縣","ZIPCODE":"721","ADDRESS":"721台南縣麻豆鎮中山路32號","TEL":"06-5722005","LICENSE_NO":"R26","OWNER":"李明和","LOCATION_T":"地址對位","LOCATION_X":172145,"LOCATION_Y":2565048},"geometry":{"points":[[120.247603653829,23.183851707238169]]}},{"attributes":{"OBJECTID":1532,"STATION_NA":"建聰機車行","COUNTY_NA":"台南縣","ZIPCODE":"721","ADDRESS":"721台南縣麻豆鎮三民路10號","TEL":"06-5721536","LICENSE_NO":"R27","OWNER":"王文聰","LOCATION_T":"地址對位","LOCATION_X":171940,"LOCATION_Y":2565065},"geometry":{"points":[[120.24560045908669,23.183995624257026]]}},{"attributes":{"OBJECTID":1533,"STATION_NA":"政忠車業有限公司","COUNTY_NA":"台南縣","ZIPCODE":"737","ADDRESS":"737台南縣鹽水鎮中正路101號","TEL":"06-6521506","LICENSE_NO":"R29","OWNER":"徐李金蘭","LOCATION_T":"地址對位","LOCATION_X":174266,"LOCATION_Y":2579931},"geometry":{"points":[[120.26758298746432,23.318338656683103]]}},{"attributes":{"OBJECTID":1534,"STATION_NA":"通發車業行","COUNTY_NA":"台南縣","ZIPCODE":"718","ADDRESS":"718台南縣關廟鄉中山路二段1 號","TEL":"06-5952411","LICENSE_NO":"R30","OWNER":"戴勝良","LOCATION_T":"中華電信","LOCATION_X":180233,"LOCATION_Y":2540197},"geometry":{"points":[[120.32771066754695,22.959799179079333]]}},{"attributes":{"OBJECTID":1535,"STATION_NA":"省南機車行","COUNTY_NA":"台南縣","ZIPCODE":"742","ADDRESS":"742台南縣大內鄉大內村內庄2-7號","TEL":"06-5761324","LICENSE_NO":"R34","OWNER":"葉和田","LOCATION_T":"現地調查","LOCATION_X":183505,"LOCATION_Y":2557891},"geometry":{"points":[[120.35886730565059,23.119712371317313]]}},{"attributes":{"OBJECTID":1536,"STATION_NA":"嘉南機車行","COUNTY_NA":"台南縣","ZIPCODE":"717","ADDRESS":"717台南縣仁德鄉二行一路173號","TEL":"06-2662772","LICENSE_NO":"R35","OWNER":"宋建成","LOCATION_T":"中華電信","LOCATION_X":169687,"LOCATION_Y":2535802},"geometry":{"points":[[120.22509928836712,22.919645675091179]]}},{"attributes":{"OBJECTID":1537,"STATION_NA":"星威機車行","COUNTY_NA":"台南縣","ZIPCODE":"717","ADDRESS":"717台南縣仁德鄉中山路332號","TEL":"06-2700824","LICENSE_NO":"R36","OWNER":"楊明星","LOCATION_T":"地址對位","LOCATION_X":173110,"LOCATION_Y":2541471},"geometry":{"points":[[120.25819067335586,22.970993603998142]]}},{"attributes":{"OBJECTID":1538,"STATION_NA":"新力機車行","COUNTY_NA":"台南縣","ZIPCODE":"717","ADDRESS":"717台南縣仁德鄉中正路二段452號","TEL":"06-2793928","LICENSE_NO":"R37","OWNER":"李亮財","LOCATION_T":"地址對位","LOCATION_X":172484,"LOCATION_Y":2539563},"geometry":{"points":[[120.25218028347433,22.953736466235988]]}},{"attributes":{"OBJECTID":1539,"STATION_NA":"永豐機車行","COUNTY_NA":"台南縣","ZIPCODE":"710","ADDRESS":"710台南縣永康市大灣路720號","TEL":"06-2724745","LICENSE_NO":"R38","OWNER":"蘇榮泰","LOCATION_T":"地址對位","LOCATION_X":173466,"LOCATION_Y":2544780},"geometry":{"points":[[120.261499769398,23.000889589136861]]}},{"attributes":{"OBJECTID":1540,"STATION_NA":"建德機車行","COUNTY_NA":"台南縣","ZIPCODE":"710","ADDRESS":"710台南縣永康市大橋里中山南路87號1F","TEL":"06-2329189","LICENSE_NO":"R39","OWNER":"吳德容","LOCATION_T":"地址對位","LOCATION_X":170050,"LOCATION_Y":2546118},"geometry":{"points":[[120.22811035226435,23.012813503060229]]}},{"attributes":{"OBJECTID":1541,"STATION_NA":"志成機車行","COUNTY_NA":"台南縣","ZIPCODE":"710","ADDRESS":"710台南縣永康市中興街47號","TEL":"06-3132468","LICENSE_NO":"R40","OWNER":"陳志成","LOCATION_T":"地址對位","LOCATION_X":171241,"LOCATION_Y":2545433},"geometry":{"points":[[120.23976367269674,23.006683967652087]]}},{"attributes":{"OBJECTID":1542,"STATION_NA":"宏泰車業","COUNTY_NA":"台南縣","ZIPCODE":"732","ADDRESS":"732台南縣白河鎮三民路487號","TEL":"06-6852166","LICENSE_NO":"R41","OWNER":"包清浩","LOCATION_T":"地址對位","LOCATION_X":188987,"LOCATION_Y":2583666},"geometry":{"points":[[120.41136622507538,23.352671691815562]]}},{"attributes":{"OBJECTID":1543,"STATION_NA":"大德機車行","COUNTY_NA":"台南縣","ZIPCODE":"732","ADDRESS":"732台南縣白河鎮詔安厝24-8號","TEL":"06-6876029","LICENSE_NO":"R42","OWNER":"黃崑亮","LOCATION_T":"地址對位","LOCATION_X":189002,"LOCATION_Y":2588356},"geometry":{"points":[[120.4113235534397,23.395022632767084]]}},{"attributes":{"OBJECTID":1544,"STATION_NA":"慶隆機車行","COUNTY_NA":"台南縣","ZIPCODE":"745","ADDRESS":"745台南縣安定鄉港尾村港子尾54-2號","TEL":"06-5923312","LICENSE_NO":"R43","OWNER":"黃慶章","LOCATION_T":"中華電信","LOCATION_X":170874,"LOCATION_Y":2556072},"geometry":{"points":[[120.23564404752052,23.102738126982615]]}},{"attributes":{"OBJECTID":1545,"STATION_NA":"久煌機車行","COUNTY_NA":"台南縣","ZIPCODE":"745","ADDRESS":"745台南縣安定鄉蘇厝村453-2號1F","TEL":"06-5922218","LICENSE_NO":"R44","OWNER":"梁炎煌","LOCATION_T":"中華電信","LOCATION_X":172431,"LOCATION_Y":2558999},"geometry":{"points":[[120.25069925436816,23.129242779863603]]}},{"attributes":{"OBJECTID":1546,"STATION_NA":"建東機車行","COUNTY_NA":"台南縣","ZIPCODE":"720","ADDRESS":"720台南縣官田鄉隆田村中山路二段7號1F","TEL":"06-5791249","LICENSE_NO":"R45","OWNER":"王煥章","LOCATION_T":"地址對位","LOCATION_X":178278,"LOCATION_Y":2566141},"geometry":{"points":[[120.30745577681665,23.193995931247439]]}},{"attributes":{"OBJECTID":1547,"STATION_NA":"明華機車行","COUNTY_NA":"台南縣","ZIPCODE":"736","ADDRESS":"736台南縣柳營鄉光福村柳營路一段946號","TEL":"06-6223579","LICENSE_NO":"R46","OWNER":"李明華","LOCATION_T":"地址對位","LOCATION_X":178897,"LOCATION_Y":2575157},"geometry":{"points":[[120.31308386804194,23.275436043489542]]}},{"attributes":{"OBJECTID":1548,"STATION_NA":"華隆機車行","COUNTY_NA":"台南縣","ZIPCODE":"741","ADDRESS":"741台南縣善化鎮中山路180號","TEL":"06-5838246","LICENSE_NO":"R48","OWNER":"林慶元","LOCATION_T":"地址對位","LOCATION_X":177551,"LOCATION_Y":2559371},"geometry":{"points":[[120.30067145788574,23.13283148447206]]}},{"attributes":{"OBJECTID":1549,"STATION_NA":"龍益機車行","COUNTY_NA":"台南縣","ZIPCODE":"712","ADDRESS":"712台南縣新化鎮忠孝路141號","TEL":"06-5904817","LICENSE_NO":"R49","OWNER":"王其中","LOCATION_T":"地址對位","LOCATION_X":177857,"LOCATION_Y":2548836},"geometry":{"points":[[120.30414431495542,23.03771026692046]]}},{"attributes":{"OBJECTID":1550,"STATION_NA":"芳茂車業行","COUNTY_NA":"台南縣","ZIPCODE":"737","ADDRESS":"737台南縣鹽水鎮南門路21號","TEL":"06-6521108","LICENSE_NO":"R50","OWNER":"蕭俊龍","LOCATION_T":"地址對位","LOCATION_X":174223,"LOCATION_Y":2579659},"geometry":{"points":[[120.26717612374053,23.315880641040295]]}},{"attributes":{"OBJECTID":1551,"STATION_NA":"慶昇機車行","COUNTY_NA":"台南縣","ZIPCODE":"737","ADDRESS":"737台南縣鹽水鎮朝琴路119號","TEL":"06-6523362","LICENSE_NO":"R51","OWNER":"籃素卿","LOCATION_T":"地址對位","LOCATION_X":174534,"LOCATION_Y":2580331},"geometry":{"points":[[120.27018345011646,23.321962787764335]]}},{"attributes":{"OBJECTID":1552,"STATION_NA":"呈祥機車行","COUNTY_NA":"台南縣","ZIPCODE":"724","ADDRESS":"724台南縣七股鄉大埕村大埕297號1樓","TEL":"06-7872165","LICENSE_NO":"R54","OWNER":"黃焜鑽","LOCATION_T":"中華電信","LOCATION_X":161367,"LOCATION_Y":2560566},"geometry":{"points":[[120.14258553240153,23.142842342735868]]}},{"attributes":{"OBJECTID":1553,"STATION_NA":"良興機車行","COUNTY_NA":"台南縣","ZIPCODE":"735","ADDRESS":"735台南縣下營鄉中營村中營1210號","TEL":"06-6893150","LICENSE_NO":"R55","OWNER":"李楊秋琴","LOCATION_T":"地址對位","LOCATION_X":175098,"LOCATION_Y":2568483},"geometry":{"points":[[120.27627938081865,23.215004223128432]]}},{"attributes":{"OBJECTID":1554,"STATION_NA":"慶大機車行","COUNTY_NA":"台南縣","ZIPCODE":"742","ADDRESS":"742台南縣大內鄉石城村122-19號","TEL":"06-5763588","LICENSE_NO":"R56","OWNER":"楊張秀葺","LOCATION_T":"中華電信","LOCATION_X":183132,"LOCATION_Y":2557992},"geometry":{"points":[[120.35522137302874,23.120609560386356]]}},{"attributes":{"OBJECTID":1555,"STATION_NA":"義成機車行","COUNTY_NA":"台南縣","ZIPCODE":"717","ADDRESS":"717台南縣仁德鄉中山路603號","TEL":"06-2709002","LICENSE_NO":"R57","OWNER":"陳李月女","LOCATION_T":"地址對位","LOCATION_X":172505,"LOCATION_Y":2541517},"geometry":{"points":[[120.25228876435116,22.971381470585307]]}},{"attributes":{"OBJECTID":1556,"STATION_NA":"坤興機車行","COUNTY_NA":"台南縣","ZIPCODE":"734","ADDRESS":"734台南縣六甲鄉水林村中山路238號","TEL":"06-6982647","LICENSE_NO":"R58","OWNER":"蔡坤煌","LOCATION_T":"地址對位","LOCATION_X":182281,"LOCATION_Y":2570338},"geometry":{"points":[[120.34637172457694,23.232060843606714]]}},{"attributes":{"OBJECTID":1557,"STATION_NA":"永隆機車行","COUNTY_NA":"台南縣","ZIPCODE":"727","ADDRESS":"727台南縣北門鄉永隆村北門15號","TEL":"06-7862435","LICENSE_NO":"R59","OWNER":"洪光敏","LOCATION_T":"中華電信","LOCATION_X":159498,"LOCATION_Y":2574551},"geometry":{"points":[[120.12351715982579,23.269019432949509]]}},{"attributes":{"OBJECTID":1558,"STATION_NA":"金日興車業有限公司","COUNTY_NA":"台南縣","ZIPCODE":"710","ADDRESS":"710台南縣永康市中山南路242號","TEL":"06-2327059","LICENSE_NO":"R60","OWNER":"羅仁賢","LOCATION_T":"地址對位","LOCATION_X":170629,"LOCATION_Y":2546271},"geometry":{"points":[[120.23375062291443,23.014222335396273]]}},{"attributes":{"OBJECTID":1559,"STATION_NA":"宏昌車業行","COUNTY_NA":"台南縣","ZIPCODE":"710","ADDRESS":"710台南縣永康市中華西街66號","TEL":"06-2311792","LICENSE_NO":"R61","OWNER":"林迪勳","LOCATION_T":"地址對位","LOCATION_X":169971,"LOCATION_Y":2546255},"geometry":{"points":[[120.22733255884023,23.014046842799875]]}},{"attributes":{"OBJECTID":1560,"STATION_NA":"耀興機車行","COUNTY_NA":"台南縣","ZIPCODE":"710","ADDRESS":"710台南縣永康市中華二路312號1F","TEL":"06-2036007","LICENSE_NO":"R62","OWNER":"張琨萍","LOCATION_T":"地址對位","LOCATION_X":170473,"LOCATION_Y":2545643},"geometry":{"points":[[120.23226132417871,23.008544313155642]]}},{"attributes":{"OBJECTID":1561,"STATION_NA":"上雅機車行","COUNTY_NA":"台南縣","ZIPCODE":"710","ADDRESS":"710台南縣永康市民族路249號","TEL":"06-2712098","LICENSE_NO":"R63","OWNER":"鄭謝孋芳","LOCATION_T":"地址對位","LOCATION_X":174323,"LOCATION_Y":2545206},"geometry":{"points":[[120.26983836006039,23.004775169632445]]}},{"attributes":{"OBJECTID":1562,"STATION_NA":"振富車業有限公司","COUNTY_NA":"台南縣","ZIPCODE":"710","ADDRESS":"710台南縣永康市民族路483號","TEL":"06-2710842","LICENSE_NO":"R64","OWNER":"曾治富","LOCATION_T":"地址對位","LOCATION_X":173747,"LOCATION_Y":2545631},"geometry":{"points":[[120.26419890076582,23.008586951137374]]}},{"attributes":{"OBJECTID":1563,"STATION_NA":"金孟偉車業有限公司","COUNTY_NA":"台南縣","ZIPCODE":"710","ADDRESS":"710台南縣永康市永明街5號","TEL":"06-2326780","LICENSE_NO":"R65","OWNER":"石名足","LOCATION_T":"地址對位","LOCATION_X":173215,"LOCATION_Y":2547586},"geometry":{"points":[[120.25891248210479,23.026216463194597]]}},{"attributes":{"OBJECTID":1564,"STATION_NA":"星宏機車行","COUNTY_NA":"台南縣","ZIPCODE":"710","ADDRESS":"710台南縣永康市永大路二段883號","TEL":"06-2313588","LICENSE_NO":"R66","OWNER":"戴素珍","LOCATION_T":"地址對位","LOCATION_X":173419,"LOCATION_Y":2547186},"geometry":{"points":[[120.26092252781743,23.022613757513717]]}},{"attributes":{"OBJECTID":1565,"STATION_NA":"千益機車行","COUNTY_NA":"台南縣","ZIPCODE":"710","ADDRESS":"710台南縣永康市永華路87號","TEL":"06-2711847","LICENSE_NO":"R67","OWNER":"梁銘杰","LOCATION_T":"地址對位","LOCATION_X":173254,"LOCATION_Y":2545579},"geometry":{"points":[[120.25939235950702,23.008095006530681]]}},{"attributes":{"OBJECTID":1566,"STATION_NA":"益晟車業行","COUNTY_NA":"台南縣","ZIPCODE":"710","ADDRESS":"710台南縣永康市復國一路479號1樓","TEL":"06-2039769","LICENSE_NO":"R68","OWNER":"林榮隆","LOCATION_T":"地址對位","LOCATION_X":171756,"LOCATION_Y":2546362},"geometry":{"points":[[120.24474011408992,23.015096633875665]]}},{"attributes":{"OBJECTID":1567,"STATION_NA":"建發機車行","COUNTY_NA":"台南縣","ZIPCODE":"710","ADDRESS":"710台南縣永康市復興路369號","TEL":"06-2356710","LICENSE_NO":"R69","OWNER":"李金源","LOCATION_T":"地址對位","LOCATION_X":171332,"LOCATION_Y":2544499},"geometry":{"points":[[120.24069901735136,22.998254350891443]]}},{"attributes":{"OBJECTID":1568,"STATION_NA":"好開機車行","COUNTY_NA":"台南縣","ZIPCODE":"714","ADDRESS":"714台南縣玉井鄉三和村三和2-8號","TEL":"06-5742533","LICENSE_NO":"R70","OWNER":"林文來","LOCATION_T":"地址對位","LOCATION_X":193666,"LOCATION_Y":2557380},"geometry":{"points":[[120.45808761317902,23.115468859090143]]}},{"attributes":{"OBJECTID":1569,"STATION_NA":"永和機車行","COUNTY_NA":"台南縣","ZIPCODE":"732","ADDRESS":"732台南縣白河鎮永安里中山路207號","TEL":"06-6852876","LICENSE_NO":"R71","OWNER":"張漢東","LOCATION_T":"地址對位","LOCATION_X":189668,"LOCATION_Y":2583779},"geometry":{"points":[[120.41802131061348,23.353717034089854]]}},{"attributes":{"OBJECTID":1570,"STATION_NA":"啟成機車行","COUNTY_NA":"台南縣","ZIPCODE":"732","ADDRESS":"732台南縣白河鎮康樂路16之1號","TEL":"06-6852938","LICENSE_NO":"R72","OWNER":"張秋田","LOCATION_T":"地址對位","LOCATION_X":189401,"LOCATION_Y":2583143},"geometry":{"points":[[120.41543597495594,23.347963960711372]]}},{"attributes":{"OBJECTID":1571,"STATION_NA":"安乘機車行","COUNTY_NA":"台南縣","ZIPCODE":"745","ADDRESS":"745台南縣安定鄉中沙村中崙43號","TEL":"06-5931501","LICENSE_NO":"R73","OWNER":"蘇嘉明","LOCATION_T":"現地調查","LOCATION_X":168373,"LOCATION_Y":2553474},"geometry":{"points":[[120.21136330150654,23.079157177520067]]}},{"attributes":{"OBJECTID":1572,"STATION_NA":"明益機車行","COUNTY_NA":"台南縣","ZIPCODE":"745","ADDRESS":"745台南縣安定鄉港口村245-4號","TEL":"06-5932958","LICENSE_NO":"R74","OWNER":"王秀卿","LOCATION_T":"地址對位","LOCATION_X":170796,"LOCATION_Y":2554830},"geometry":{"points":[[120.2349447714884,23.091518728546159]]}},{"attributes":{"OBJECTID":1573,"STATION_NA":"萬山機車行","COUNTY_NA":"台南縣","ZIPCODE":"745","ADDRESS":"745台南縣安定鄉蘇庴村289之7號","TEL":"06-5922495","LICENSE_NO":"R75","OWNER":"陳老萬","LOCATION_T":"中華電信","LOCATION_X":172424,"LOCATION_Y":2558781},"geometry":{"points":[[120.25064167981033,23.127273868124412]]}},{"attributes":{"OBJECTID":1574,"STATION_NA":"韋泰機車行","COUNTY_NA":"台南縣","ZIPCODE":"722","ADDRESS":"722台南縣佳里鎮仁愛路245號1樓","TEL":"06-7225003","LICENSE_NO":"R76","OWNER":"林忠穎","LOCATION_T":"地址對位","LOCATION_X":165320,"LOCATION_Y":2561658},"geometry":{"points":[[120.18112463542428,23.152908060980238]]}},{"attributes":{"OBJECTID":1575,"STATION_NA":"昌興機車行","COUNTY_NA":"台南縣","ZIPCODE":"722","ADDRESS":"722台南縣佳里鎮光復路159號","TEL":"06-7223085","LICENSE_NO":"R77","OWNER":"葉清芳","LOCATION_T":"地址對位","LOCATION_X":164670,"LOCATION_Y":2562353},"geometry":{"points":[[120.17473896328944,23.159150746056167]]}},{"attributes":{"OBJECTID":1576,"STATION_NA":"豐益機車行","COUNTY_NA":"台南縣","ZIPCODE":"722","ADDRESS":"722台南縣佳里鎮興化里498之1號","TEL":"06-7260696","LICENSE_NO":"R78","OWNER":"蘇福得","LOCATION_T":"中華電信","LOCATION_X":165973,"LOCATION_Y":2565588},"geometry":{"points":[[120.18728817106775,23.188427542941024]]}},{"attributes":{"OBJECTID":1577,"STATION_NA":"大偉機車行","COUNTY_NA":"台南縣","ZIPCODE":"720","ADDRESS":"720台南縣官田鄉隆本村中山路一段298號","TEL":"06-5792486","LICENSE_NO":"R79","OWNER":"林水泰","LOCATION_T":"中華電信","LOCATION_X":178653,"LOCATION_Y":2566083},"geometry":{"points":[[120.31112147869307,23.193488213972437]]}},{"attributes":{"OBJECTID":1578,"STATION_NA":"大光機車行","COUNTY_NA":"台南縣","ZIPCODE":"720","ADDRESS":"720台南縣官田鄉隆本村中華路二段5號","TEL":"06-5791939","LICENSE_NO":"R80","OWNER":"李益源","LOCATION_T":"中華電信","LOCATION_X":179228,"LOCATION_Y":2566675},"geometry":{"points":[[120.31671082328313,23.198858301952672]]}},{"attributes":{"OBJECTID":1579,"STATION_NA":"華興機車行","COUNTY_NA":"台南縣","ZIPCODE":"733","ADDRESS":"733台南縣東山鄉東中村青葉路一段293號","TEL":"06-6802095","LICENSE_NO":"R81","OWNER":"蘇龍江","LOCATION_T":"地址對位","LOCATION_X":188273,"LOCATION_Y":2580102},"geometry":{"points":[[120.40453025591073,23.320460151579173]]}},{"attributes":{"OBJECTID":1580,"STATION_NA":"亞洲機車行","COUNTY_NA":"台南縣","ZIPCODE":"733","ADDRESS":"733台南縣東山鄉東中村新東路一段20號","TEL":"06-6802712","LICENSE_NO":"R82","OWNER":"陳威仁","LOCATION_T":"地址對位","LOCATION_X":188050,"LOCATION_Y":2580348},"geometry":{"points":[[120.402339848647,23.3226735795736]]}},{"attributes":{"OBJECTID":1581,"STATION_NA":"瑞泰機車行","COUNTY_NA":"台南縣","ZIPCODE":"716","ADDRESS":"716台南縣南化鄉南化207之1號","TEL":"06-5771177","LICENSE_NO":"R83","OWNER":"曾君瑞","LOCATION_T":"地址對位","LOCATION_X":195711,"LOCATION_Y":2549358},"geometry":{"points":[[120.47832688792241,23.043095840408942]]}},{"attributes":{"OBJECTID":1582,"STATION_NA":"宏安機車行","COUNTY_NA":"台南縣","ZIPCODE":"731","ADDRESS":"731台南縣後壁鄉嘉民村143號","TEL":"06-6881458","LICENSE_NO":"R84","OWNER":"黃崑郎","LOCATION_T":"地址對位","LOCATION_X":185726,"LOCATION_Y":2587475},"geometry":{"points":[[120.37931271087122,23.386943346084287]]}},{"attributes":{"OBJECTID":1583,"STATION_NA":"大弘機車行","COUNTY_NA":"台南縣","ZIPCODE":"736","ADDRESS":"736台南縣柳營鄉柳路二段229號","TEL":"06-6220338","LICENSE_NO":"R85","OWNER":"張育群","LOCATION_T":"地址對位","LOCATION_X":178752,"LOCATION_Y":2575853},"geometry":{"points":[[120.31163427211416,23.281714733130894]]}},{"attributes":{"OBJECTID":1584,"STATION_NA":"坤山機車行","COUNTY_NA":"台南縣","ZIPCODE":"736","ADDRESS":"736台南縣柳營鄉重溪村小腳腿21號","TEL":"06-6231942","LICENSE_NO":"R86","OWNER":"陳盈福","LOCATION_T":"地址對位","LOCATION_X":184405,"LOCATION_Y":2576651},"geometry":{"points":[[120.36685582036095,23.289151948290726]]}},{"attributes":{"OBJECTID":1585,"STATION_NA":"明興機車行","COUNTY_NA":"台南縣","ZIPCODE":"725","ADDRESS":"725台南縣將軍鄉西華村西華45號","TEL":"06-7942094","LICENSE_NO":"R87","OWNER":"黃明崇","LOCATION_T":"中華電信","LOCATION_X":162997,"LOCATION_Y":2566580},"geometry":{"points":[[120.15816422230102,23.197232087675598]]}},{"attributes":{"OBJECTID":1586,"STATION_NA":"美美輪業商行","COUNTY_NA":"台南縣","ZIPCODE":"721","ADDRESS":"721台南縣麻豆鎮中山路120號","TEL":"06-5721243","LICENSE_NO":"R88","OWNER":"楊金喚","LOCATION_T":"地址對位","LOCATION_X":171818,"LOCATION_Y":2565048},"geometry":{"points":[[120.24440967327776,23.183836394350518]]}},{"attributes":{"OBJECTID":1587,"STATION_NA":"永盟機車行","COUNTY_NA":"台南縣","ZIPCODE":"721","ADDRESS":"721台南縣麻豆鎮磚井里磚子井1-3號","TEL":"06-5724775","LICENSE_NO":"R89","OWNER":"陳國民","LOCATION_T":"中華電信","LOCATION_X":171995,"LOCATION_Y":2563541},"geometry":{"points":[[120.24621459404692,23.170236796253747]]}},{"attributes":{"OBJECTID":1588,"STATION_NA":"隆泰機車行","COUNTY_NA":"台南縣","ZIPCODE":"741","ADDRESS":"741台南縣善化鎮中正路398號","TEL":"06-5838111","LICENSE_NO":"R90","OWNER":"楊佳瑞","LOCATION_T":"地址對位","LOCATION_X":176879,"LOCATION_Y":2559025},"geometry":{"points":[[120.29412650582374,23.129677929386872]]}},{"attributes":{"OBJECTID":1589,"STATION_NA":"美興機車行","COUNTY_NA":"台南縣","ZIPCODE":"712","ADDRESS":"712台南縣新化鎮大智路8號","TEL":"06-5982798","LICENSE_NO":"R91","OWNER":"許清春","LOCATION_T":"地址對位","LOCATION_X":177487,"LOCATION_Y":2548638},"geometry":{"points":[[120.30054328954814,23.035906321348655]]}},{"attributes":{"OBJECTID":1590,"STATION_NA":"豐榮機車行","COUNTY_NA":"台南縣","ZIPCODE":"744","ADDRESS":"744台南縣新市鄉大營村豐營134號","TEL":"06-5991013","LICENSE_NO":"R92","OWNER":"吳俊瑩","LOCATION_T":"現地調查","LOCATION_X":178050,"LOCATION_Y":2554385},"geometry":{"points":[[120.30577305854268,23.087828040551901]]}},{"attributes":{"OBJECTID":1591,"STATION_NA":"建立機車行","COUNTY_NA":"台南縣","ZIPCODE":"744","ADDRESS":"744台南縣新市鄉復興路31號","TEL":"06-5992981","LICENSE_NO":"R93","OWNER":"蘇碧玉","LOCATION_T":"地址對位","LOCATION_X":176977,"LOCATION_Y":2553626},"geometry":{"points":[[120.29533499949241,23.080927517974938]]}},{"attributes":{"OBJECTID":1592,"STATION_NA":"福泰機車行","COUNTY_NA":"台南縣","ZIPCODE":"730","ADDRESS":"730台南縣新營市三民路103號","TEL":"06-6334277","LICENSE_NO":"R94","OWNER":"洪耀仁","LOCATION_T":"地址對位","LOCATION_X":178751,"LOCATION_Y":2578599},"geometry":{"points":[[120.31149671799737,23.306511039248356]]}},{"attributes":{"OBJECTID":1593,"STATION_NA":"聰榮機車行","COUNTY_NA":"台南縣","ZIPCODE":"730","ADDRESS":"730台南縣新營市新進路236-1號","TEL":"06-6331033","LICENSE_NO":"R95","OWNER":"林聰榮","LOCATION_T":"地址對位","LOCATION_X":179404,"LOCATION_Y":2578088},"geometry":{"points":[[120.31790434675156,23.301924679925285]]}},{"attributes":{"OBJECTID":1594,"STATION_NA":"源力機車行","COUNTY_NA":"台南縣","ZIPCODE":"730","ADDRESS":"730台南縣新營市民治路148之7號","TEL":"06-6560871","LICENSE_NO":"R97","OWNER":"陳金川","LOCATION_T":"地址對位","LOCATION_X":178405,"LOCATION_Y":2578946},"geometry":{"points":[[120.30809779426507,23.309629477606336]]}},{"attributes":{"OBJECTID":1595,"STATION_NA":"冠威機車行","COUNTY_NA":"台南縣","ZIPCODE":"730","ADDRESS":"730台南縣新營市復興路276號","TEL":"06-6564368","LICENSE_NO":"R98","OWNER":"林保宏","LOCATION_T":"地址對位","LOCATION_X":177900,"LOCATION_Y":2578342},"geometry":{"points":[[120.30318904393734,23.304153497368581]]}},{"attributes":{"OBJECTID":1596,"STATION_NA":"升滿輪業商行","COUNTY_NA":"台南縣","ZIPCODE":"726","ADDRESS":"726台南縣學甲鎮華宗路384號","TEL":"06-7832067","LICENSE_NO":"R99","OWNER":"劉神滿","LOCATION_T":"地址對位","LOCATION_X":165501,"LOCATION_Y":2570459},"geometry":{"points":[[120.18241353283693,23.232384725395043]]}},{"attributes":{"OBJECTID":1597,"STATION_NA":"邱吉輝機車行","COUNTY_NA":"台南縣","ZIPCODE":"711","ADDRESS":"711台南縣歸仁鄉大廟村保大路三段193號","TEL":"06-2712768","LICENSE_NO":"RA0","OWNER":"邱吉輝","LOCATION_T":"中華電信","LOCATION_X":175109,"LOCATION_Y":2544336},"geometry":{"points":[[120.27754716344089,22.996954154806417]]}},{"attributes":{"OBJECTID":1598,"STATION_NA":"三勇車業行","COUNTY_NA":"台南縣","ZIPCODE":"718","ADDRESS":"718台南縣關廟鄉香洋村仁愛路2號","TEL":"06-5955950","LICENSE_NO":"RA1","OWNER":"洪清芳","LOCATION_T":"現地調查","LOCATION_X":180451,"LOCATION_Y":2540271},"geometry":{"points":[[120.32983311356377,22.960476354997091]]}},{"attributes":{"OBJECTID":1599,"STATION_NA":"文昌機車行","COUNTY_NA":"台南縣","ZIPCODE":"737","ADDRESS":"737台南縣鹽水鎮中正路125號","TEL":"06-6523221","LICENSE_NO":"RA2","OWNER":"林育鍾","LOCATION_T":"地址對位","LOCATION_X":174240,"LOCATION_Y":2579880},"geometry":{"points":[[120.26733132185423,23.317876953771854]]}},{"attributes":{"OBJECTID":1600,"STATION_NA":"車中車車業股份有限公司","COUNTY_NA":"高雄縣","ZIPCODE":"830","ADDRESS":"830高雄縣鳳山市中山東路99號","TEL":"07-7416888","LICENSE_NO":"S01","OWNER":"王評義","LOCATION_T":"地址對位","LOCATION_X":184128,"LOCATION_Y":2502818},"geometry":{"points":[[120.36724411658349,22.622396350686756]]}}]}