{"displayFieldName":"STATION_NA","fieldAliases":{"OBJECTID":"OBJECTID","STATION_NA":"STATION_NA","COUNTY_NA":"COUNTY_NA","ZIPCODE":"ZIPCODE","ADDRESS":"ADDRESS","TEL":"TEL","LICENSE_NO":"LICENSE_NO","OWNER":"OWNER","LOCATION_T":"LOCATION_T","LOCATION_X":"LOCATION_X","LOCATION_Y":"LOCATION_Y"},"geometryType":"esriGeometryMultipoint","spatialReference":{"wkid":104137},"fields":[{"name":"OBJECTID","type":"esriFieldTypeOID","alias":"OBJECTID"},{"name":"STATION_NA","type":"esriFieldTypeString","alias":"STATION_NA","length":30},{"name":"COUNTY_NA","type":"esriFieldTypeString","alias":"COUNTY_NA","length":6},{"name":"ZIPCODE","type":"esriFieldTypeString","alias":"ZIPCODE","length":4},{"name":"ADDRESS","type":"esriFieldTypeString","alias":"ADDRESS","length":40},{"name":"TEL","type":"esriFieldTypeString","alias":"TEL","length":11},{"name":"LICENSE_NO","type":"esriFieldTypeString","alias":"LICENSE_NO","length":3},{"name":"OWNER","type":"esriFieldTypeString","alias":"OWNER","length":10},{"name":"LOCATION_T","type":"esriFieldTypeString","alias":"LOCATION_T","length":10},{"name":"LOCATION_X","type":"esriFieldTypeDouble","alias":"LOCATION_X"},{"name":"LOCATION_Y","type":"esriFieldTypeDouble","alias":"LOCATION_Y"}],"features":[{"attributes":{"OBJECTID":1601,"STATION_NA":"嘉泰機車行","COUNTY_NA":"高雄縣","ZIPCODE":"830","ADDRESS":"830高雄縣鳳山市瑞竹路70號","TEL":"07-7418046","LICENSE_NO":"S02","OWNER":"姜戴桂香","LOCATION_T":"地址對位","LOCATION_X":184110,"LOCATION_Y":2503182},"geometry":{"points":[[120.36705390588968,22.625682871858992]]}},{"attributes":{"OBJECTID":1602,"STATION_NA":"清龍輪業有限公司","COUNTY_NA":"高雄縣","ZIPCODE":"830","ADDRESS":"830高雄縣鳳山市光復路219號","TEL":"07-7463882","LICENSE_NO":"S03","OWNER":"陳李秀珠","LOCATION_T":"地址對位","LOCATION_X":182884,"LOCATION_Y":2503553},"geometry":{"points":[[120.35511143967121,22.628985306235769]]}},{"attributes":{"OBJECTID":1603,"STATION_NA":"泰慶車業股份有限公司","COUNTY_NA":"高雄縣","ZIPCODE":"830","ADDRESS":"830高雄縣鳳山市建國路二段188號","TEL":"07-7424327","LICENSE_NO":"S05","OWNER":"劉泰安","LOCATION_T":"地址對位","LOCATION_X":183281,"LOCATION_Y":2504355},"geometry":{"points":[[120.35893989540858,22.636243577756428]]}},{"attributes":{"OBJECTID":1604,"STATION_NA":"光喜車業行","COUNTY_NA":"高雄縣","ZIPCODE":"830","ADDRESS":"830高雄縣鳳山市維新路135號","TEL":"07-7426206","LICENSE_NO":"S06","OWNER":"劉木川","LOCATION_T":"地址對位","LOCATION_X":183526,"LOCATION_Y":2503119},"geometry":{"points":[[120.36137527925835,22.625091105005968]]}},{"attributes":{"OBJECTID":1605,"STATION_NA":"十成車業有限公司","COUNTY_NA":"高雄縣","ZIPCODE":"820","ADDRESS":"820高雄縣岡山鎮前峰路31-1號","TEL":"07-6256095","LICENSE_NO":"S07","OWNER":"涂湘湄","LOCATION_T":"地址對位","LOCATION_X":176202,"LOCATION_Y":2521891},"geometry":{"points":[[120.28925645022686,22.794317998064408]]}},{"attributes":{"OBJECTID":1606,"STATION_NA":"益興機車股份有限公司","COUNTY_NA":"高雄縣","ZIPCODE":"820","ADDRESS":"820高雄縣岡山鎮壽天路107之1號","TEL":"07-6230313","LICENSE_NO":"S08","OWNER":"楊峻榮","LOCATION_T":"地址對位","LOCATION_X":176411,"LOCATION_Y":2521957},"geometry":{"points":[[120.29128892552974,22.794923025233455]]}},{"attributes":{"OBJECTID":1607,"STATION_NA":"全盛機車行","COUNTY_NA":"高雄縣","ZIPCODE":"820","ADDRESS":"820高雄縣岡山鎮園西路三段39號","TEL":"07-6261191","LICENSE_NO":"S09","OWNER":"許瑞娥","LOCATION_T":"地址對位","LOCATION_X":175809,"LOCATION_Y":2522041},"geometry":{"points":[[120.28542178531877,22.795655666341698]]}},{"attributes":{"OBJECTID":1608,"STATION_NA":"揚晟車業行","COUNTY_NA":"高雄縣","ZIPCODE":"820","ADDRESS":"820高雄縣岡山鎮柳橋西路一段83號1樓","TEL":"07-6264493","LICENSE_NO":"S10","OWNER":"林佑荏","LOCATION_T":"地址對位","LOCATION_X":175407,"LOCATION_Y":2521387},"geometry":{"points":[[120.28153744834948,22.789731999601035]]}},{"attributes":{"OBJECTID":1609,"STATION_NA":"宏安車業行","COUNTY_NA":"高雄縣","ZIPCODE":"820","ADDRESS":"820高雄縣岡山鎮大仁北路104號","TEL":"07-6214356","LICENSE_NO":"S11","OWNER":"吳瑞山","LOCATION_T":"地址對位","LOCATION_X":177495,"LOCATION_Y":2522597},"geometry":{"points":[[120.30181719101107,22.800748980416294]]}},{"attributes":{"OBJECTID":1610,"STATION_NA":"幼葉有限公司","COUNTY_NA":"高雄縣","ZIPCODE":"815","ADDRESS":"815高雄縣大社鄉三民路203號","TEL":"07-3511788","LICENSE_NO":"S12","OWNER":"林章雄","LOCATION_T":"地址對位","LOCATION_X":182277,"LOCATION_Y":2514135},"geometry":{"points":[[120.34875605670859,22.724524402568125]]}},{"attributes":{"OBJECTID":1611,"STATION_NA":"明成機車行","COUNTY_NA":"高雄縣","ZIPCODE":"821","ADDRESS":"821高雄縣路竹鄉延平路66號","TEL":"07-6971616","LICENSE_NO":"S13","OWNER":"許明欽","LOCATION_T":"地址對位","LOCATION_X":173122,"LOCATION_Y":2528985},"geometry":{"points":[[120.25891299643725,22.858246070704777]]}},{"attributes":{"OBJECTID":1612,"STATION_NA":"明政車業行","COUNTY_NA":"高雄縣","ZIPCODE":"824","ADDRESS":"824高雄縣燕巢鄉西燕村中北路203號1樓","TEL":"07-6164725","LICENSE_NO":"S14","OWNER":"鄭琨璟","LOCATION_T":"地址對位","LOCATION_X":183642,"LOCATION_Y":2521985},"geometry":{"points":[[120.36171613495222,22.795470654388872]]}},{"attributes":{"OBJECTID":1613,"STATION_NA":"新車保機車有限公司","COUNTY_NA":"高雄縣","ZIPCODE":"840","ADDRESS":"840高雄縣大樹鄉中興南路47號","TEL":"07-6510288","LICENSE_NO":"S15","OWNER":"楊國禎","LOCATION_T":"地址對位","LOCATION_X":190964,"LOCATION_Y":2510235},"geometry":{"points":[[120.43346884215735,22.689626815534126]]}},{"attributes":{"OBJECTID":1614,"STATION_NA":"仁美機車行","COUNTY_NA":"高雄縣","ZIPCODE":"833","ADDRESS":"833高雄縣鳥松鄉美山路211號","TEL":"07-7319850","LICENSE_NO":"S16","OWNER":"王耍","LOCATION_T":"地址對位","LOCATION_X":186881,"LOCATION_Y":2506386},"geometry":{"points":[[120.39388297082336,22.65472234986705]]}},{"attributes":{"OBJECTID":1615,"STATION_NA":"明樹車業有限公司","COUNTY_NA":"高雄縣","ZIPCODE":"827","ADDRESS":"827高雄縣彌陀鄉中正路10號","TEL":"07-6175460","LICENSE_NO":"S17","OWNER":"蔡清樹","LOCATION_T":"地址對位","LOCATION_X":172161,"LOCATION_Y":2520268},"geometry":{"points":[[120.24997993507269,22.779481979081286]]}},{"attributes":{"OBJECTID":1616,"STATION_NA":"長連興車業有限公司","COUNTY_NA":"高雄縣","ZIPCODE":"814","ADDRESS":"814高雄縣仁武鄉中正路213號","TEL":"07-3711879","LICENSE_NO":"S18","OWNER":"劉龍楠","LOCATION_T":"地址對位","LOCATION_X":182514,"LOCATION_Y":2511686},"geometry":{"points":[[120.35116669485105,22.702417360664114]]}},{"attributes":{"OBJECTID":1617,"STATION_NA":"順全吉車業有限公司","COUNTY_NA":"高雄縣","ZIPCODE":"822","ADDRESS":"822高雄縣阿蓮鄉中山路250號","TEL":"07-6312124","LICENSE_NO":"S19","OWNER":"許完吉","LOCATION_T":"地址對位","LOCATION_X":180117,"LOCATION_Y":2530905},"geometry":{"points":[[120.32698816316173,22.875884851224992]]}},{"attributes":{"OBJECTID":1618,"STATION_NA":"協和機車行","COUNTY_NA":"高雄縣","ZIPCODE":"822","ADDRESS":"822高雄縣阿蓮鄉中山路66號","TEL":"07-6310616","LICENSE_NO":"S20","OWNER":"陳和財","LOCATION_T":"地址對位","LOCATION_X":180285,"LOCATION_Y":2531297},"geometry":{"points":[[120.32860822051622,22.879431672168646]]}},{"attributes":{"OBJECTID":1619,"STATION_NA":"旗葉機車行","COUNTY_NA":"高雄縣","ZIPCODE":"842","ADDRESS":"842高雄縣旗山鎮瑞吉里延平一路312號1樓","TEL":"07-6622527","LICENSE_NO":"S21","OWNER":"陳豐逸","LOCATION_T":"地址對位","LOCATION_X":196153,"LOCATION_Y":2532776},"geometry":{"points":[[120.48320907274153,22.893363614330937]]}},{"attributes":{"OBJECTID":1620,"STATION_NA":"信宏機車行","COUNTY_NA":"高雄縣","ZIPCODE":"842","ADDRESS":"842高雄縣旗山鎮旗南二路53號","TEL":"07-6663131","LICENSE_NO":"S22","OWNER":"林秀珠","LOCATION_T":"地址對位","LOCATION_X":194329,"LOCATION_Y":2527652},"geometry":{"points":[[120.46560928238367,22.847031522983183]]}},{"attributes":{"OBJECTID":1621,"STATION_NA":"錦龍機業有限公司","COUNTY_NA":"高雄縣","ZIPCODE":"842","ADDRESS":"842高雄縣旗山鎮復新街33號","TEL":"07-6612539","LICENSE_NO":"S23","OWNER":"柯秋龍","LOCATION_T":"地址對位","LOCATION_X":195986,"LOCATION_Y":2531858},"geometry":{"points":[[120.48161260600638,22.885067878001504]]}},{"attributes":{"OBJECTID":1622,"STATION_NA":"富成機車有限公司","COUNTY_NA":"高雄縣","ZIPCODE":"832","ADDRESS":"832高雄縣林園鄉沿海路四段91號","TEL":"07-6419303","LICENSE_NO":"S24","OWNER":"林枝清","LOCATION_T":"地址對位","LOCATION_X":185745,"LOCATION_Y":2489462},"geometry":{"points":[[120.38351210935488,22.501835815426457]]}},{"attributes":{"OBJECTID":1623,"STATION_NA":"金暉車業行","COUNTY_NA":"高雄縣","ZIPCODE":"832","ADDRESS":"832高雄縣林園鄉文賢村東林西路203號","TEL":"07-6412375","LICENSE_NO":"S25","OWNER":"李黃玉珠","LOCATION_T":"地址對位","LOCATION_X":186506,"LOCATION_Y":2489601},"geometry":{"points":[[120.39090349584748,22.50311910750418]]}},{"attributes":{"OBJECTID":1624,"STATION_NA":"和興機車行","COUNTY_NA":"高雄縣","ZIPCODE":"852","ADDRESS":"852高雄縣茄萣鄉茄萣路二段201號","TEL":"07-6900533","LICENSE_NO":"S26","OWNER":"蘇李來治","LOCATION_T":"地址對位","LOCATION_X":165354,"LOCATION_Y":2533779},"geometry":{"points":[[120.18296996218,22.901167631660403]]}},{"attributes":{"OBJECTID":1625,"STATION_NA":"宗柏車業有限公司","COUNTY_NA":"高雄縣","ZIPCODE":"826","ADDRESS":"826高雄縣梓官鄉中崙路313號","TEL":"07-6173335","LICENSE_NO":"S27","OWNER":"黃靜男","LOCATION_T":"地址對位","LOCATION_X":173958,"LOCATION_Y":2518181},"geometry":{"points":[[120.26757999797842,22.760715088645]]}},{"attributes":{"OBJECTID":1626,"STATION_NA":"正祥機車行","COUNTY_NA":"高雄縣","ZIPCODE":"831","ADDRESS":"831高雄縣大寮鄉鳳林三路813號","TEL":"07-7811356","LICENSE_NO":"S28","OWNER":"蔡施速香","LOCATION_T":"地址對位","LOCATION_X":186513,"LOCATION_Y":2501710},"geometry":{"points":[[120.39048938403978,22.612480408267814]]}},{"attributes":{"OBJECTID":1627,"STATION_NA":"達宏機車行","COUNTY_NA":"高雄縣","ZIPCODE":"843","ADDRESS":"843高雄縣美濃鎮永安路201號","TEL":"07-6812306","LICENSE_NO":"S29","OWNER":"林美香","LOCATION_T":"地址對位","LOCATION_X":202324,"LOCATION_Y":2533412},"geometry":{"points":[[120.54333894675342,22.899292267793417]]}},{"attributes":{"OBJECTID":1628,"STATION_NA":"社一車業行","COUNTY_NA":"高雄縣","ZIPCODE":"815","ADDRESS":"815高雄縣大社鄉三民路457號","TEL":"07-3517776","LICENSE_NO":"S30","OWNER":"潘來得","LOCATION_T":"地址對位","LOCATION_X":181895,"LOCATION_Y":2514737},"geometry":{"points":[[120.3450116137597,22.729945841353224]]}},{"attributes":{"OBJECTID":1629,"STATION_NA":"約泰機車行","COUNTY_NA":"高雄縣","ZIPCODE":"814","ADDRESS":"814高雄縣仁武鄉仁信巷153號","TEL":"07-3718455","LICENSE_NO":"S35","OWNER":"黃麗美","LOCATION_T":"地址對位","LOCATION_X":182059,"LOCATION_Y":2511817},"geometry":{"points":[[120.34673245197519,22.703582321005779]]}},{"attributes":{"OBJECTID":1630,"STATION_NA":"隆興機車行","COUNTY_NA":"高雄縣","ZIPCODE":"814","ADDRESS":"814高雄縣仁武鄉鳳仁路264號","TEL":"07-3711043","LICENSE_NO":"S36","OWNER":"蔡碧雲","LOCATION_T":"地址對位","LOCATION_X":181928,"LOCATION_Y":2511573},"geometry":{"points":[[120.34546777168535,22.70137357778794]]}},{"attributes":{"OBJECTID":1631,"STATION_NA":"吉順機車行","COUNTY_NA":"高雄縣","ZIPCODE":"820","ADDRESS":"820高雄縣岡山鎮介壽西路40號","TEL":"07-6251791","LICENSE_NO":"S37","OWNER":"黃文周","LOCATION_T":"地址對位","LOCATION_X":175646,"LOCATION_Y":2520805},"geometry":{"points":[[120.28389253153992,22.784486381261242]]}},{"attributes":{"OBJECTID":1632,"STATION_NA":"發興車業有限公司","COUNTY_NA":"高雄縣","ZIPCODE":"852","ADDRESS":"852高雄縣茄萣鄉中正路三段50號","TEL":"07-6900466","LICENSE_NO":"S38","OWNER":"蘇王美雲","LOCATION_T":"地址對位","LOCATION_X":165629,"LOCATION_Y":2535151},"geometry":{"points":[[120.18557716984037,22.913570464567908]]}},{"attributes":{"OBJECTID":1633,"STATION_NA":"偉昌機車行","COUNTY_NA":"高雄縣","ZIPCODE":"852","ADDRESS":"852高雄縣茄萣鄉金鑾路110號","TEL":"07-6906312","LICENSE_NO":"S39","OWNER":"劉清隆","LOCATION_T":"地址對位","LOCATION_X":165818,"LOCATION_Y":2533374},"geometry":{"points":[[120.18751384311813,22.897533550679849]]}},{"attributes":{"OBJECTID":1634,"STATION_NA":"和清機車行","COUNTY_NA":"高雄縣","ZIPCODE":"852","ADDRESS":"852高雄縣茄萣鄉茄萣路一段78號","TEL":"07-6901826","LICENSE_NO":"S40","OWNER":"薛國清","LOCATION_T":"地址對位","LOCATION_X":165556,"LOCATION_Y":2532614},"geometry":{"points":[[120.18500080865674,22.890657707230197]]}},{"attributes":{"OBJECTID":1635,"STATION_NA":"全通達機車行","COUNTY_NA":"高雄縣","ZIPCODE":"852","ADDRESS":"852高雄縣茄萣鄉海濱路一段614號","TEL":"07-6989575","LICENSE_NO":"S41","OWNER":"史淑君","LOCATION_T":"地址對位","LOCATION_X":166060,"LOCATION_Y":2530976},"geometry":{"points":[[120.1899993241415,22.875891417744938]]}},{"attributes":{"OBJECTID":1636,"STATION_NA":"進安機車行","COUNTY_NA":"高雄縣","ZIPCODE":"826","ADDRESS":"826高雄縣梓官鄉赤崁南路16號","TEL":"07-6176012","LICENSE_NO":"S42","OWNER":"李水立","LOCATION_T":"地址對位","LOCATION_X":171878,"LOCATION_Y":2515630},"geometry":{"points":[[120.24745263653703,22.737583793508062]]}},{"attributes":{"OBJECTID":1637,"STATION_NA":"新義盛車業有限公司","COUNTY_NA":"高雄縣","ZIPCODE":"821","ADDRESS":"821高雄縣路竹鄉中山路617號","TEL":"07-6969289","LICENSE_NO":"S43","OWNER":"塗美容","LOCATION_T":"地址對位","LOCATION_X":172923,"LOCATION_Y":2529827},"geometry":{"points":[[120.25693308900669,22.865840627572169]]}},{"attributes":{"OBJECTID":1638,"STATION_NA":"政興機車行","COUNTY_NA":"高雄縣","ZIPCODE":"821","ADDRESS":"821高雄縣路竹鄉延平路263號","TEL":"07-6963967","LICENSE_NO":"S44","OWNER":"魏建興","LOCATION_T":"地址對位","LOCATION_X":172647,"LOCATION_Y":2528889},"geometry":{"points":[[120.25428936278021,22.85735769760797]]}},{"attributes":{"OBJECTID":1639,"STATION_NA":"鴻益車行","COUNTY_NA":"高雄縣","ZIPCODE":"830","ADDRESS":"830高雄縣鳳山市五甲一路171號","TEL":"07-7466086","LICENSE_NO":"S45","OWNER":"許泉福","LOCATION_T":"地址對位","LOCATION_X":182948,"LOCATION_Y":2502446},"geometry":{"points":[[120.35578080222645,22.618990768008057]]}},{"attributes":{"OBJECTID":1640,"STATION_NA":"慶忠機車行","COUNTY_NA":"高雄縣","ZIPCODE":"830","ADDRESS":"830高雄縣鳳山市自由路96-3號","TEL":"07-7433937","LICENSE_NO":"S46","OWNER":"張漢忠","LOCATION_T":"地址對位","LOCATION_X":182618,"LOCATION_Y":2503226},"geometry":{"points":[[120.35253755058467,22.626021728749965]]}},{"attributes":{"OBJECTID":1641,"STATION_NA":"陸氏機車行","COUNTY_NA":"高雄縣","ZIPCODE":"825","ADDRESS":"825高雄縣橋頭鄉成功路52-5號","TEL":"07-6113825","LICENSE_NO":"S47","OWNER":"陸明玉","LOCATION_T":"地址對位","LOCATION_X":178279,"LOCATION_Y":2518116},"geometry":{"points":[[120.30965679337217,22.760314127208098]]}},{"attributes":{"OBJECTID":1642,"STATION_NA":"大裕機車行","COUNTY_NA":"高雄縣","ZIPCODE":"815","ADDRESS":"815高雄縣大社鄉三民路136號1樓","TEL":"07-3513155","LICENSE_NO":"S49","OWNER":"黃石素貞","LOCATION_T":"地址對位","LOCATION_X":182327,"LOCATION_Y":2514125},"geometry":{"points":[[120.34924322435783,22.724436072642302]]}},{"attributes":{"OBJECTID":1643,"STATION_NA":"旭銘機車行","COUNTY_NA":"高雄縣","ZIPCODE":"815","ADDRESS":"815高雄縣大社鄉中山路447-1號","TEL":"07-3528116","LICENSE_NO":"S50","OWNER":"許方銘","LOCATION_T":"地址對位","LOCATION_X":182772,"LOCATION_Y":2514888},"geometry":{"points":[[120.35354308571054,22.731344133051991]]}},{"attributes":{"OBJECTID":1644,"STATION_NA":"正一車業行","COUNTY_NA":"高雄縣","ZIPCODE":"815","ADDRESS":"815高雄縣大社鄉金龍路367號","TEL":"07-3519269","LICENSE_NO":"S51","OWNER":"徐江賢","LOCATION_T":"地址對位","LOCATION_X":182775,"LOCATION_Y":2514099},"geometry":{"points":[[120.3536055573507,22.724218918317394]]}},{"attributes":{"OBJECTID":1645,"STATION_NA":"新洲車業有限公司","COUNTY_NA":"高雄縣","ZIPCODE":"831","ADDRESS":"831高雄縣大寮鄉中庄村鳳屏一路568號","TEL":"07-7031609","LICENSE_NO":"S53","OWNER":"沈林惠卿","LOCATION_T":"地址對位","LOCATION_X":186955,"LOCATION_Y":2504452},"geometry":{"points":[[120.39467986953697,22.63725960930903]]}},{"attributes":{"OBJECTID":1646,"STATION_NA":"政億機車行","COUNTY_NA":"高雄縣","ZIPCODE":"831","ADDRESS":"831高雄縣大寮鄉永芳村力行路205號1樓","TEL":"07-7813796","LICENSE_NO":"S54","OWNER":"劉峻成","LOCATION_T":"地址對位","LOCATION_X":187153,"LOCATION_Y":2500973},"geometry":{"points":[[120.39674384312593,22.605847961745873]]}},{"attributes":{"OBJECTID":1647,"STATION_NA":"玉瓏機車行","COUNTY_NA":"高雄縣","ZIPCODE":"831","ADDRESS":"831高雄縣大寮鄉翁園路43-5號","TEL":"07-7821040","LICENSE_NO":"S55","OWNER":"劉玉玨","LOCATION_T":"地址對位","LOCATION_X":188423,"LOCATION_Y":2503067},"geometry":{"points":[[120.40901541592036,22.624805080925977]]}},{"attributes":{"OBJECTID":1648,"STATION_NA":"大順機車行","COUNTY_NA":"高雄縣","ZIPCODE":"831","ADDRESS":"831高雄縣大寮鄉鳳林三路629號","TEL":"07-7817712","LICENSE_NO":"S56","OWNER":"廖萬成","LOCATION_T":"地址對位","LOCATION_X":186858,"LOCATION_Y":2501349},"geometry":{"points":[[120.39385957449522,22.609232897934017]]}},{"attributes":{"OBJECTID":1649,"STATION_NA":"速成機車行","COUNTY_NA":"高雄縣","ZIPCODE":"831","ADDRESS":"831高雄縣大寮鄉鳳林四路201號","TEL":"07-7814546","LICENSE_NO":"S57","OWNER":"蔡健忠","LOCATION_T":"地址對位","LOCATION_X":186004,"LOCATION_Y":2502162},"geometry":{"points":[[120.38552008795276,22.616543529840541]]}},{"attributes":{"OBJECTID":1650,"STATION_NA":"正功機車行","COUNTY_NA":"高雄縣","ZIPCODE":"831","ADDRESS":"831高雄縣大寮鄉鳳屏一路287號","TEL":"07-7010707","LICENSE_NO":"S58","OWNER":"施正財","LOCATION_T":"地址對位","LOCATION_X":186825,"LOCATION_Y":2504425},"geometry":{"points":[[120.39341619753276,22.637010972238151]]}},{"attributes":{"OBJECTID":1651,"STATION_NA":"三元機車行","COUNTY_NA":"高雄縣","ZIPCODE":"831","ADDRESS":"831高雄縣大寮鄉鳳屏二路294號","TEL":"07-6518751","LICENSE_NO":"S59","OWNER":"王黃月里","LOCATION_T":"地址對位","LOCATION_X":189350,"LOCATION_Y":2504949},"geometry":{"points":[[120.41796140553026,22.641834387778928]]}},{"attributes":{"OBJECTID":1652,"STATION_NA":"金興機車行","COUNTY_NA":"高雄縣","ZIPCODE":"840","ADDRESS":"840高雄縣大樹鄉九曲村九曲路246號","TEL":"07-6518488","LICENSE_NO":"S60","OWNER":"姚金象","LOCATION_T":"地址對位","LOCATION_X":189797,"LOCATION_Y":2505890},"geometry":{"points":[[120.42227479538339,22.650348150665746]]}},{"attributes":{"OBJECTID":1653,"STATION_NA":"高典機車行","COUNTY_NA":"高雄縣","ZIPCODE":"840","ADDRESS":"840高雄縣大樹鄉中山路155號","TEL":"07-6517585","LICENSE_NO":"S61","OWNER":"黃蔡月霞","LOCATION_T":"地址對位","LOCATION_X":188447,"LOCATION_Y":2507681},"geometry":{"points":[[120.40907018748948,22.666474125583257]]}},{"attributes":{"OBJECTID":1654,"STATION_NA":"欣正豐機車行","COUNTY_NA":"高雄縣","ZIPCODE":"840","ADDRESS":"840高雄縣大樹鄉水安村安和街21號1樓","TEL":"07-6515932","LICENSE_NO":"S62","OWNER":"黃國卿","LOCATION_T":"地址對位","LOCATION_X":188420,"LOCATION_Y":2507593},"geometry":{"points":[[120.40881086061303,22.665678460582132]]}},{"attributes":{"OBJECTID":1655,"STATION_NA":"定億機車行","COUNTY_NA":"高雄縣","ZIPCODE":"840","ADDRESS":"840高雄縣大樹鄉檨腳村中興南路58號","TEL":"07-6525078","LICENSE_NO":"S63","OWNER":"蔣坤隆","LOCATION_T":"地址對位","LOCATION_X":190952,"LOCATION_Y":2510274},"geometry":{"points":[[120.43335060214859,22.689978591863476]]}},{"attributes":{"OBJECTID":1656,"STATION_NA":"大興車業有限公司","COUNTY_NA":"高雄縣","ZIPCODE":"814","ADDRESS":"814高雄縣仁武鄉大灣村仁雄路128-1號","TEL":"07-3749957","LICENSE_NO":"S64","OWNER":"田江文","LOCATION_T":"地址對位","LOCATION_X":181407,"LOCATION_Y":2508848},"geometry":{"points":[[120.34051373475893,22.67674358084264]]}},{"attributes":{"OBJECTID":1657,"STATION_NA":"永晟機車行","COUNTY_NA":"高雄縣","ZIPCODE":"814","ADDRESS":"814高雄縣仁武鄉仁武村仁信巷227號1樓","TEL":"07-3719580","LICENSE_NO":"S65","OWNER":"楊正福","LOCATION_T":"地址對位","LOCATION_X":181832,"LOCATION_Y":2511768},"geometry":{"points":[[120.34452506122634,22.70313075452291]]}},{"attributes":{"OBJECTID":1658,"STATION_NA":"滿宜機車行","COUNTY_NA":"高雄縣","ZIPCODE":"814","ADDRESS":"814高雄縣仁武鄉水管路211號","TEL":"07-3716515","LICENSE_NO":"S66","OWNER":"邱雨標","LOCATION_T":"地址對位","LOCATION_X":180948,"LOCATION_Y":2512141},"geometry":{"points":[[120.33590465588966,22.706463725951433]]}},{"attributes":{"OBJECTID":1659,"STATION_NA":"大易機車行","COUNTY_NA":"高雄縣","ZIPCODE":"847","ADDRESS":"847高雄縣甲仙鄉中正路59號","TEL":"07-6751223","LICENSE_NO":"S67","OWNER":"范世印","LOCATION_T":"地址對位","LOCATION_X":206979,"LOCATION_Y":2553765},"geometry":{"points":[[120.58815994249889,23.083220313886063]]}},{"attributes":{"OBJECTID":1660,"STATION_NA":"興隆機車輪胎行","COUNTY_NA":"高雄縣","ZIPCODE":"820","ADDRESS":"820高雄縣岡山鎮成功路225號","TEL":"07-6211580","LICENSE_NO":"S68","OWNER":"張振賓","LOCATION_T":"地址對位","LOCATION_X":177102,"LOCATION_Y":2523255},"geometry":{"points":[[120.29795892797343,22.806674638125131]]}},{"attributes":{"OBJECTID":1661,"STATION_NA":"巨展車業行","COUNTY_NA":"高雄縣","ZIPCODE":"832","ADDRESS":"832高雄縣林園鄉王公村王公路495號1樓","TEL":"07-6432986","LICENSE_NO":"S69","OWNER":"黃隆祺","LOCATION_T":"地址對位","LOCATION_X":185881,"LOCATION_Y":2489864},"geometry":{"points":[[120.38481758582884,22.505471454926347]]}},{"attributes":{"OBJECTID":1662,"STATION_NA":"進泰車業有限公司","COUNTY_NA":"高雄縣","ZIPCODE":"832","ADDRESS":"832高雄縣林園鄉東林西路128號","TEL":"07-6412384","LICENSE_NO":"S70","OWNER":"林啟泰","LOCATION_T":"地址對位","LOCATION_X":186657,"LOCATION_Y":2489682},"geometry":{"points":[[120.39236797602723,22.503856150699999]]}},{"attributes":{"OBJECTID":1663,"STATION_NA":"盈商企業行","COUNTY_NA":"高雄縣","ZIPCODE":"832","ADDRESS":"832高雄縣林園鄉東林村東林西路37號1樓","TEL":"07-6419888","LICENSE_NO":"S71","OWNER":"簡耀瑞","LOCATION_T":"地址對位","LOCATION_X":186882,"LOCATION_Y":2489690},"geometry":{"points":[[120.39455472381889,22.503936567942922]]}},{"attributes":{"OBJECTID":1664,"STATION_NA":"家旭機車行","COUNTY_NA":"高雄縣","ZIPCODE":"832","ADDRESS":"832高雄縣林園鄉林園北路334號","TEL":"07-6411869","LICENSE_NO":"S72","OWNER":"林張秀萌","LOCATION_T":"地址對位","LOCATION_X":186928,"LOCATION_Y":2490503},"geometry":{"points":[[120.39496909373634,22.511280757058906]]}},{"attributes":{"OBJECTID":1665,"STATION_NA":"宏祥機車行","COUNTY_NA":"高雄縣","ZIPCODE":"832","ADDRESS":"832高雄縣林園鄉港埔村頂厝路182號","TEL":"07-6415606","LICENSE_NO":"S73","OWNER":"黃隆祺","LOCATION_T":"地址對位","LOCATION_X":185502,"LOCATION_Y":2489129},"geometry":{"points":[[120.38116382825892,22.498819364362451]]}},{"attributes":{"OBJECTID":1666,"STATION_NA":"欣邑機車行","COUNTY_NA":"高雄縣","ZIPCODE":"822","ADDRESS":"822高雄縣阿蓮鄉中正路452號1樓","TEL":"07-6312235","LICENSE_NO":"S74","OWNER":"許唐豪","LOCATION_T":"地址對位","LOCATION_X":180645,"LOCATION_Y":2531443},"geometry":{"points":[[120.33211029654974,22.88076475977963]]}},{"attributes":{"OBJECTID":1667,"STATION_NA":"方明機車行","COUNTY_NA":"高雄縣","ZIPCODE":"843","ADDRESS":"843高雄縣美濃鎮民族路9號","TEL":"07-6812582","LICENSE_NO":"S75","OWNER":"宋德祥","LOCATION_T":"中華電信","LOCATION_X":202912,"LOCATION_Y":2533192},"geometry":{"points":[[120.54907738966764,22.89732190632046]]}},{"attributes":{"OBJECTID":1668,"STATION_NA":"佑昌機車行","COUNTY_NA":"高雄縣","ZIPCODE":"826","ADDRESS":"826高雄縣梓官鄉赤嵌村赤嵌東路39號","TEL":"07-6177603","LICENSE_NO":"S76","OWNER":"劉益泗","LOCATION_T":"地址對位","LOCATION_X":171954,"LOCATION_Y":2515754},"geometry":{"points":[[120.24818643816238,22.738707085378746]]}},{"attributes":{"OBJECTID":1669,"STATION_NA":"新永豐機車行","COUNTY_NA":"高雄縣","ZIPCODE":"826","ADDRESS":"826高雄縣梓官鄉典寶村嘉展路278號","TEL":"07-6171498","LICENSE_NO":"S77","OWNER":"林文輝","LOCATION_T":"地址對位","LOCATION_X":172947,"LOCATION_Y":2515548},"geometry":{"points":[[120.25786366812818,22.73689158534755]]}},{"attributes":{"OBJECTID":1670,"STATION_NA":"明祥機車行","COUNTY_NA":"高雄縣","ZIPCODE":"826","ADDRESS":"826高雄縣梓官鄉梓官路333號","TEL":"07-6174849","LICENSE_NO":"S79","OWNER":"柯竹林","LOCATION_T":"地址對位","LOCATION_X":173877,"LOCATION_Y":2518302},"geometry":{"points":[[120.26678548824634,22.761804237760174]]}},{"attributes":{"OBJECTID":1671,"STATION_NA":"立大機車行","COUNTY_NA":"高雄縣","ZIPCODE":"829","ADDRESS":"829高雄縣湖內鄉中山路二段67號","TEL":"07-6993278","LICENSE_NO":"S80","OWNER":"李蘇碧鳳","LOCATION_T":"地址對位","LOCATION_X":169916,"LOCATION_Y":2534554},"geometry":{"points":[[120.22739449442315,22.908387121594611]]}},{"attributes":{"OBJECTID":1672,"STATION_NA":"統耀機車行","COUNTY_NA":"高雄縣","ZIPCODE":"829","ADDRESS":"829高雄縣湖內鄉中正路二段85號","TEL":"07-6994368","LICENSE_NO":"S81","OWNER":"吳俊松","LOCATION_T":"地址對位","LOCATION_X":168266,"LOCATION_Y":2534560},"geometry":{"points":[[120.21131156029364,22.908362714298992]]}},{"attributes":{"OBJECTID":1673,"STATION_NA":"偉成車業行","COUNTY_NA":"高雄縣","ZIPCODE":"821","ADDRESS":"821高雄縣路竹鄉大社路107號","TEL":"07-6971065","LICENSE_NO":"S82","OWNER":"許明銀","LOCATION_T":"地址對位","LOCATION_X":173531,"LOCATION_Y":2529634},"geometry":{"points":[[120.26286699948034,22.864125110943657]]}},{"attributes":{"OBJECTID":1674,"STATION_NA":"仁昌機車行","COUNTY_NA":"高雄縣","ZIPCODE":"821","ADDRESS":"821高雄縣路竹鄉中山路861號","TEL":"07-6961855","LICENSE_NO":"S83","OWNER":"陸明仁","LOCATION_T":"地址對位","LOCATION_X":173106,"LOCATION_Y":2529354},"geometry":{"points":[[120.25873922538497,22.861577540114947]]}},{"attributes":{"OBJECTID":1675,"STATION_NA":"志明機車行","COUNTY_NA":"高雄縣","ZIPCODE":"821","ADDRESS":"821高雄縣路竹鄉延平路111號","TEL":"07-6963181","LICENSE_NO":"S84","OWNER":"許明嘉","LOCATION_T":"地址對位","LOCATION_X":172963,"LOCATION_Y":2528944},"geometry":{"points":[[120.25736571784762,22.857868660137306]]}},{"attributes":{"OBJECTID":1676,"STATION_NA":"旗山三陽機車行","COUNTY_NA":"高雄縣","ZIPCODE":"842","ADDRESS":"842高雄縣旗山鎮延平一路265號","TEL":"07-6614535","LICENSE_NO":"S85","OWNER":"劉梅招","LOCATION_T":"地址對位","LOCATION_X":196202,"LOCATION_Y":2532831},"geometry":{"points":[[120.48368478893056,22.893861884743565]]}},{"attributes":{"OBJECTID":1677,"STATION_NA":"汶泉車業行","COUNTY_NA":"高雄縣","ZIPCODE":"842","ADDRESS":"842高雄縣旗山鎮延平一路692號1樓","TEL":"07-6617861","LICENSE_NO":"S86","OWNER":"王明全","LOCATION_T":"地址對位","LOCATION_X":196119,"LOCATION_Y":2531732},"geometry":{"points":[[120.4829131110436,22.883934248428051]]}},{"attributes":{"OBJECTID":1678,"STATION_NA":"大明機車行","COUNTY_NA":"高雄縣","ZIPCODE":"830","ADDRESS":"830高雄縣鳳山市大明路75號","TEL":"07-7215703","LICENSE_NO":"S87","OWNER":"鄭福財","LOCATION_T":"地址對位","LOCATION_X":181486,"LOCATION_Y":2501281},"geometry":{"points":[[120.34160894038205,22.608411691133096]]}},{"attributes":{"OBJECTID":1679,"STATION_NA":"萬龍機車行","COUNTY_NA":"高雄縣","ZIPCODE":"830","ADDRESS":"830高雄縣鳳山市中山東路131號","TEL":"07-7466392","LICENSE_NO":"S88","OWNER":"鮑武龍","LOCATION_T":"地址對位","LOCATION_X":184186,"LOCATION_Y":2502878},"geometry":{"points":[[120.36780585075168,22.622940445884733]]}},{"attributes":{"OBJECTID":1680,"STATION_NA":"重榮機車行","COUNTY_NA":"高雄縣","ZIPCODE":"830","ADDRESS":"830高雄縣鳳山市中山東路179號","TEL":"07-7460828","LICENSE_NO":"S89","OWNER":"陳黃敏春","LOCATION_T":"地址對位","LOCATION_X":184275,"LOCATION_Y":2502939},"geometry":{"points":[[120.36866911611062,22.623494769424866]]}},{"attributes":{"OBJECTID":1681,"STATION_NA":"良興車業有限公司","COUNTY_NA":"高雄縣","ZIPCODE":"830","ADDRESS":"830高雄縣鳳山市中崙四路18號1樓","TEL":"07-7533182","LICENSE_NO":"S90","OWNER":"張良安","LOCATION_T":"地址對位","LOCATION_X":182530,"LOCATION_Y":2500301},"geometry":{"points":[[120.3518053969826,22.599602963241569]]}},{"attributes":{"OBJECTID":1682,"STATION_NA":"聯大機車行","COUNTY_NA":"高雄縣","ZIPCODE":"830","ADDRESS":"830高雄縣鳳山市中崙路582號1樓","TEL":"07-7533175","LICENSE_NO":"S91","OWNER":"黃俊欽","LOCATION_T":"地址對位","LOCATION_X":182514,"LOCATION_Y":2500566},"geometry":{"points":[[120.3516385777794,22.601995547179619]]}},{"attributes":{"OBJECTID":1683,"STATION_NA":"統友機車行","COUNTY_NA":"高雄縣","ZIPCODE":"830","ADDRESS":"830高雄縣鳳山市五甲一路332巷2號1樓","TEL":"07-7639030","LICENSE_NO":"S92","OWNER":"李嘉文","LOCATION_T":"地址對位","LOCATION_X":182595,"LOCATION_Y":2502013},"geometry":{"points":[[120.3523652566965,22.615066491383768]]}},{"attributes":{"OBJECTID":1684,"STATION_NA":"瑞泰機車行","COUNTY_NA":"高雄縣","ZIPCODE":"830","ADDRESS":"830高雄縣鳳山市五甲一路700號","TEL":"07-7636333","LICENSE_NO":"S93","OWNER":"柯張瑞章","LOCATION_T":"地址對位","LOCATION_X":182116,"LOCATION_Y":2501294},"geometry":{"points":[[120.34773642822569,22.608554280420925]]}},{"attributes":{"OBJECTID":1685,"STATION_NA":"益利機車行","COUNTY_NA":"高雄縣","ZIPCODE":"830","ADDRESS":"830高雄縣鳳山市五甲一路87號","TEL":"07-7469606","LICENSE_NO":"S94","OWNER":"劉子祥","LOCATION_T":"地址對位","LOCATION_X":183065,"LOCATION_Y":2502624},"geometry":{"points":[[120.35691144916184,22.620602860672079]]}},{"attributes":{"OBJECTID":1686,"STATION_NA":"信韋車業有限公司","COUNTY_NA":"高雄縣","ZIPCODE":"830","ADDRESS":"830高雄縣鳳山市五甲二路428號","TEL":"07-7233288","LICENSE_NO":"S95","OWNER":"洪陳秀鳳","LOCATION_T":"地址對位","LOCATION_X":180884,"LOCATION_Y":2500156},"geometry":{"points":[[120.33580199163271,22.598227712878039]]}},{"attributes":{"OBJECTID":1687,"STATION_NA":"振通機車行","COUNTY_NA":"高雄縣","ZIPCODE":"830","ADDRESS":"830高雄縣鳳山市五甲二路513號1樓","TEL":"07-8413655","LICENSE_NO":"S96","OWNER":"蘇文通","LOCATION_T":"地址對位","LOCATION_X":180573,"LOCATION_Y":2499924},"geometry":{"points":[[120.33278719355357,22.596119935574354]]}},{"attributes":{"OBJECTID":1688,"STATION_NA":"和昇機車行","COUNTY_NA":"高雄縣","ZIPCODE":"830","ADDRESS":"830高雄縣鳳山市五甲二路674號","TEL":"07-8211042","LICENSE_NO":"S97","OWNER":"鄭忠榮","LOCATION_T":"地址對位","LOCATION_X":180334,"LOCATION_Y":2499818},"geometry":{"points":[[120.33046726245864,22.595152932881234]]}},{"attributes":{"OBJECTID":1689,"STATION_NA":"群和車業行","COUNTY_NA":"高雄縣","ZIPCODE":"830","ADDRESS":"830高雄縣鳳山市五甲三路183號1樓","TEL":"07-8124882","LICENSE_NO":"S98","OWNER":"柯淵文","LOCATION_T":"地址對位","LOCATION_X":179767,"LOCATION_Y":2499304},"geometry":{"points":[[120.32497517352544,22.590487852730742]]}},{"attributes":{"OBJECTID":1690,"STATION_NA":"正輪機車行","COUNTY_NA":"高雄縣","ZIPCODE":"830","ADDRESS":"830高雄縣鳳山市五福一路53號","TEL":"07-8415100","LICENSE_NO":"S99","OWNER":"江長南","LOCATION_T":"地址對位","LOCATION_X":180106,"LOCATION_Y":2499252},"geometry":{"points":[[120.32827446777809,22.590032134011039]]}},{"attributes":{"OBJECTID":1691,"STATION_NA":"隆升機車行","COUNTY_NA":"高雄縣","ZIPCODE":"830","ADDRESS":"830高雄縣鳳山市文化西路162號1樓","TEL":"07-7411165","LICENSE_NO":"SA0","OWNER":"卜文旺","LOCATION_T":"地址對位","LOCATION_X":181977,"LOCATION_Y":2504252},"geometry":{"points":[[120.34625776417587,22.635261662762517]]}},{"attributes":{"OBJECTID":1692,"STATION_NA":"利泰車業","COUNTY_NA":"高雄縣","ZIPCODE":"830","ADDRESS":"830高雄縣鳳山市武營路241號","TEL":"07-7115620","LICENSE_NO":"SA1","OWNER":"胡銘顯","LOCATION_T":"地址對位","LOCATION_X":181043,"LOCATION_Y":2501588},"geometry":{"points":[[120.33728656406582,22.611166291934861]]}},{"attributes":{"OBJECTID":1693,"STATION_NA":"皇冠機車行","COUNTY_NA":"高雄縣","ZIPCODE":"830","ADDRESS":"830高雄縣鳳山市青年路二段514號","TEL":"07-7904997","LICENSE_NO":"SA2","OWNER":"陳美雲","LOCATION_T":"地址對位","LOCATION_X":182374,"LOCATION_Y":2505363},"geometry":{"points":[[120.35007273995683,22.645310558719579]]}},{"attributes":{"OBJECTID":1694,"STATION_NA":"上發機車行","COUNTY_NA":"高雄縣","ZIPCODE":"830","ADDRESS":"830高雄縣鳳山市凱旋路365之7號1樓","TEL":"07-7636883","LICENSE_NO":"SA3","OWNER":"陳美娟","LOCATION_T":"地址對位","LOCATION_X":181934,"LOCATION_Y":2502068},"geometry":{"points":[[120.34593303108721,22.615536888565845]]}},{"attributes":{"OBJECTID":1695,"STATION_NA":"宏大車業行","COUNTY_NA":"高雄縣","ZIPCODE":"830","ADDRESS":"830高雄縣鳳山市新強路141號","TEL":"07-7223179","LICENSE_NO":"SA4","OWNER":"黃老煌","LOCATION_T":"地址對位","LOCATION_X":181362,"LOCATION_Y":2501519},"geometry":{"points":[[120.34039252704329,22.610556036655449]]}},{"attributes":{"OBJECTID":1696,"STATION_NA":"鴻旭機車行","COUNTY_NA":"高雄縣","ZIPCODE":"830","ADDRESS":"830高雄縣鳳山市新樂街145號","TEL":"07-7153217","LICENSE_NO":"SA5","OWNER":"周建雄","LOCATION_T":"地址對位","LOCATION_X":181450,"LOCATION_Y":2501291},"geometry":{"points":[[120.34125833491878,22.608500554833562]]}},{"attributes":{"OBJECTID":1697,"STATION_NA":"隆德機車行","COUNTY_NA":"高雄縣","ZIPCODE":"830","ADDRESS":"830高雄縣鳳山市誠德街67號","TEL":"07-7020786","LICENSE_NO":"SA6","OWNER":"陳隆德","LOCATION_T":"地址對位","LOCATION_X":184946,"LOCATION_Y":2502986},"geometry":{"points":[[120.37519468105435,22.623945013423359]]}},{"attributes":{"OBJECTID":1698,"STATION_NA":"坤輪機車行","COUNTY_NA":"高雄縣","ZIPCODE":"830","ADDRESS":"830高雄縣鳳山市維新路99號","TEL":"07-7461313","LICENSE_NO":"SA7","OWNER":"簡玉雲","LOCATION_T":"地址對位","LOCATION_X":183474,"LOCATION_Y":2503068},"geometry":{"points":[[120.36087155207575,22.624628591449401]]}},{"attributes":{"OBJECTID":1699,"STATION_NA":"京城機車行","COUNTY_NA":"高雄縣","ZIPCODE":"830","ADDRESS":"830高雄縣鳳山市鳳林路228號","TEL":"07-7813679","LICENSE_NO":"SA8","OWNER":"梁順賢","LOCATION_T":"地址對位","LOCATION_X":185039,"LOCATION_Y":2502790},"geometry":{"points":[[120.3761074013276,22.622178506433791]]}},{"attributes":{"OBJECTID":1700,"STATION_NA":"全隆機車行","COUNTY_NA":"高雄縣","ZIPCODE":"825","ADDRESS":"825高雄縣橋頭鄉橋頭村橋燕路13號","TEL":"07-6117648","LICENSE_NO":"SA9","OWNER":"戴美珠","LOCATION_T":"地址對位","LOCATION_X":178505,"LOCATION_Y":2517794},"geometry":{"points":[[120.31187191910661,22.757415565596631]]}},{"attributes":{"OBJECTID":1701,"STATION_NA":"清友機車行","COUNTY_NA":"高雄縣","ZIPCODE":"824","ADDRESS":"824高雄縣燕巢鄉南燕村中興路51號1樓","TEL":"07-6161873","LICENSE_NO":"SB0","OWNER":"劉清雲","LOCATION_T":"地址對位","LOCATION_X":183702,"LOCATION_Y":2521613},"geometry":{"points":[[120.36231611433297,22.792113455799075]]}},{"attributes":{"OBJECTID":1702,"STATION_NA":"新聯豐機車行","COUNTY_NA":"高雄縣","ZIPCODE":"827","ADDRESS":"827高雄縣彌陀鄉中正路227號","TEL":"07-6191558","LICENSE_NO":"SB1","OWNER":"莊耀聰","LOCATION_T":"地址對位","LOCATION_X":171909,"LOCATION_Y":2520854},"geometry":{"points":[[120.24749685076158,22.784762631567222]]}},{"attributes":{"OBJECTID":1703,"STATION_NA":"勝發車行","COUNTY_NA":"屏東縣","ZIPCODE":"912","ADDRESS":"912屏東縣內埔鄉自強路7號","TEL":"08-7790384","LICENSE_NO":"T01","OWNER":"林文得","LOCATION_T":"地址對位","LOCATION_X":204516,"LOCATION_Y":2502054},"geometry":{"points":[[120.56559562936859,22.61616373894719]]}},{"attributes":{"OBJECTID":1704,"STATION_NA":"日欣車業有限公司","COUNTY_NA":"屏東縣","ZIPCODE":"912","ADDRESS":"912屏東縣內埔鄉南寧路102號","TEL":"08-7792329","LICENSE_NO":"T02","OWNER":"吳黃玉梅","LOCATION_T":"地址對位","LOCATION_X":204352,"LOCATION_Y":2502320},"geometry":{"points":[[120.56399282246713,22.618561641437324]]}},{"attributes":{"OBJECTID":1705,"STATION_NA":"福元車業有限公司","COUNTY_NA":"屏東縣","ZIPCODE":"905","ADDRESS":"905屏東縣里港鄉永春村中山路72號","TEL":"08-7757795","LICENSE_NO":"T03","OWNER":"陳政雄","LOCATION_T":"地址對位","LOCATION_X":197260,"LOCATION_Y":2519986},"geometry":{"points":[[120.49442343158285,22.777890176449187]]}},{"attributes":{"OBJECTID":1706,"STATION_NA":"成隆機車行","COUNTY_NA":"屏東縣","ZIPCODE":"940","ADDRESS":"940屏東縣枋寮鄉中山路11號","TEL":"08-8781006","LICENSE_NO":"T04","OWNER":"謝來成","LOCATION_T":"地址對位","LOCATION_X":207395,"LOCATION_Y":2474553},"geometry":{"points":[[120.59433036835955,22.367857606839568]]}},{"attributes":{"OBJECTID":1707,"STATION_NA":"三泰輪業行","COUNTY_NA":"屏東縣","ZIPCODE":"940","ADDRESS":"940屏東縣枋寮鄉臨海路25號","TEL":"08-8712555","LICENSE_NO":"T05","OWNER":"陳春寶","LOCATION_T":"現地調查","LOCATION_X":207311,"LOCATION_Y":2476749},"geometry":{"points":[[120.59345691091426,22.387688914043693]]}},{"attributes":{"OBJECTID":1708,"STATION_NA":"永興機車行","COUNTY_NA":"屏東縣","ZIPCODE":"928","ADDRESS":"928屏東縣東港鎮中山路4-1號","TEL":"08-8323319","LICENSE_NO":"T06","OWNER":"陳水用","LOCATION_T":"地址對位","LOCATION_X":192705,"LOCATION_Y":2485427},"geometry":{"points":[[120.45131124103865,22.465637830111216]]}},{"attributes":{"OBJECTID":1709,"STATION_NA":"龍昇機車行","COUNTY_NA":"屏東縣","ZIPCODE":"928","ADDRESS":"928屏東縣東港鎮中正路一段57號","TEL":"08-8322410","LICENSE_NO":"T07","OWNER":"柯基河","LOCATION_T":"中華電信","LOCATION_X":193021,"LOCATION_Y":2486033},"geometry":{"points":[[120.45435944873631,22.471121566051497]]}},{"attributes":{"OBJECTID":1710,"STATION_NA":"新慶祥機車行","COUNTY_NA":"屏東縣","ZIPCODE":"927","ADDRESS":"927屏東縣林邊鄉美華路160號1F","TEL":"08-8752327","LICENSE_NO":"T08","OWNER":"鄭梅花","LOCATION_T":"中華電信","LOCATION_X":199492,"LOCATION_Y":2482308},"geometry":{"points":[[120.51734487819859,22.4376830098354]]}},{"attributes":{"OBJECTID":1711,"STATION_NA":"昭興車業有限公司","COUNTY_NA":"屏東縣","ZIPCODE":"908","ADDRESS":"908屏東縣長治鄉潭頭路4號","TEL":"08-7368846","LICENSE_NO":"T09","OWNER":"曾勤全","LOCATION_T":"中華電信","LOCATION_X":200635,"LOCATION_Y":2508811},"geometry":{"points":[[120.52763963605848,22.677074471150824]]}},{"attributes":{"OBJECTID":1712,"STATION_NA":"中山機車行","COUNTY_NA":"屏東縣","ZIPCODE":"900","ADDRESS":"900屏東縣屏東市中山路153號1F","TEL":"08-7652088","LICENSE_NO":"T10","OWNER":"謝榮洲","LOCATION_T":"地址對位","LOCATION_X":196369,"LOCATION_Y":2508080},"geometry":{"points":[[120.48614696525098,22.670344215327521]]}},{"attributes":{"OBJECTID":1713,"STATION_NA":"和成車業行","COUNTY_NA":"屏東縣","ZIPCODE":"900","ADDRESS":"900屏東縣屏東市中正路166號","TEL":"08-7373506","LICENSE_NO":"T11","OWNER":"洪文平","LOCATION_T":"地址對位","LOCATION_X":196843,"LOCATION_Y":2508882},"geometry":{"points":[[120.4907334428722,22.677601232304621]]}},{"attributes":{"OBJECTID":1714,"STATION_NA":"永祥機車行","COUNTY_NA":"屏東縣","ZIPCODE":"900","ADDRESS":"900屏東縣屏東市中正路215號","TEL":"08-7331496","LICENSE_NO":"T12","OWNER":"吳黃玉梅","LOCATION_T":"地址對位","LOCATION_X":196924,"LOCATION_Y":2509288},"geometry":{"points":[[120.49150842865721,22.681270017262861]]}},{"attributes":{"OBJECTID":1715,"STATION_NA":"慶欣有限公司","COUNTY_NA":"屏東縣","ZIPCODE":"900","ADDRESS":"900屏東縣屏東市中正路58號","TEL":"08-7323490","LICENSE_NO":"T13","OWNER":"翁美琴","LOCATION_T":"地址對位","LOCATION_X":196692,"LOCATION_Y":2508394},"geometry":{"points":[[120.48927993261353,22.673189802718813]]}},{"attributes":{"OBJECTID":1716,"STATION_NA":"振輪車業行","COUNTY_NA":"屏東縣","ZIPCODE":"900","ADDRESS":"900屏東縣屏東市中正路654-1號","TEL":"08-7365728","LICENSE_NO":"T14","OWNER":"趙文良","LOCATION_T":"地址對位","LOCATION_X":197601,"LOCATION_Y":2510061},"geometry":{"points":[[120.49807222449517,22.688271344514167]]}},{"attributes":{"OBJECTID":1717,"STATION_NA":"陽輪車業有限公司","COUNTY_NA":"屏東縣","ZIPCODE":"900","ADDRESS":"900屏東縣屏東市公園西路48號","TEL":"08-7324409","LICENSE_NO":"T15","OWNER":"曾世陽","LOCATION_T":"地址對位","LOCATION_X":195927,"LOCATION_Y":2508668},"geometry":{"points":[[120.48182598950766,22.67564002829193]]}},{"attributes":{"OBJECTID":1718,"STATION_NA":"盟昌機車有限公司","COUNTY_NA":"屏東縣","ZIPCODE":"900","ADDRESS":"900屏東縣屏東市民生路178號1F","TEL":"08-7322373","LICENSE_NO":"T16","OWNER":"康安南","LOCATION_T":"地址對位","LOCATION_X":197168,"LOCATION_Y":2507995},"geometry":{"points":[[120.49392521952828,22.669601579890301]]}},{"attributes":{"OBJECTID":1719,"STATION_NA":"明展車業行","COUNTY_NA":"屏東縣","ZIPCODE":"900","ADDRESS":"900屏東縣屏東市民生路32號1F","TEL":"08-7234586","LICENSE_NO":"T18","OWNER":"洪德明","LOCATION_T":"地址對位","LOCATION_X":197587,"LOCATION_Y":2507772},"geometry":{"points":[[120.49800986010872,22.667600836484496]]}},{"attributes":{"OBJECTID":1720,"STATION_NA":"行福車業有限公司","COUNTY_NA":"屏東縣","ZIPCODE":"900","ADDRESS":"900屏東縣屏東市自由路381-3號","TEL":"08-7373355","LICENSE_NO":"T19","OWNER":"李  幸","LOCATION_T":"地址對位","LOCATION_X":197306,"LOCATION_Y":2509218},"geometry":{"points":[[120.49522847915244,22.680649756606115]]}},{"attributes":{"OBJECTID":1721,"STATION_NA":"屏宏機車行","COUNTY_NA":"屏東縣","ZIPCODE":"900","ADDRESS":"900屏東縣屏東市自由路462號","TEL":"08-7365203","LICENSE_NO":"T20","OWNER":"王燦元","LOCATION_T":"地址對位","LOCATION_X":196905,"LOCATION_Y":2509505},"geometry":{"points":[[120.49131638531112,22.68322898871612]]}},{"attributes":{"OBJECTID":1722,"STATION_NA":"屏翔車業股份有限公司","COUNTY_NA":"屏東縣","ZIPCODE":"900","ADDRESS":"900屏東縣屏東市忠孝路229-34號","TEL":"08-7668833","LICENSE_NO":"T21","OWNER":"洪開湖","LOCATION_T":"地址對位","LOCATION_X":196671,"LOCATION_Y":2509744},"geometry":{"points":[[120.48903108535232,22.685379934518579]]}},{"attributes":{"OBJECTID":1723,"STATION_NA":"泰昌機車行","COUNTY_NA":"屏東縣","ZIPCODE":"900","ADDRESS":"900屏東縣屏東市復興路110號 (復興陸橋下)","TEL":"08-7529860","LICENSE_NO":"T22","OWNER":"周榮泰","LOCATION_T":"地址對位","LOCATION_X":196646,"LOCATION_Y":2507729},"geometry":{"points":[[120.48885412037284,22.667183304173662]]}},{"attributes":{"OBJECTID":1724,"STATION_NA":"東億機車行","COUNTY_NA":"屏東縣","ZIPCODE":"946","ADDRESS":"946屏東縣恆春鎮西門路115號1F","TEL":"08-8892051","LICENSE_NO":"T23","OWNER":"許添枝","LOCATION_T":"中華電信","LOCATION_X":222682,"LOCATION_Y":2434693},"geometry":{"points":[[120.74342135360443,22.008158195487589]]}},{"attributes":{"OBJECTID":1725,"STATION_NA":"金益機車行","COUNTY_NA":"屏東縣","ZIPCODE":"946","ADDRESS":"946屏東縣恆春鎮西門路58號","TEL":"08-8892393","LICENSE_NO":"T24","OWNER":"葉魏反","LOCATION_T":"中華電信","LOCATION_X":222678,"LOCATION_Y":2434566},"geometry":{"points":[[120.74338459472563,22.007011058138868]]}},{"attributes":{"OBJECTID":1726,"STATION_NA":"振興機車行","COUNTY_NA":"屏東縣","ZIPCODE":"946","ADDRESS":"946屏東縣恆春鎮恆南路44號","TEL":"08-8891528","LICENSE_NO":"T25","OWNER":"宋振興","LOCATION_T":"中華電信","LOCATION_X":223021,"LOCATION_Y":2433044},"geometry":{"points":[[120.74673030767438,21.993269401405101]]}},{"attributes":{"OBJECTID":1727,"STATION_NA":"順寶車業有限公司","COUNTY_NA":"屏東縣","ZIPCODE":"946","ADDRESS":"946屏東縣恆春鎮省北路109號1F","TEL":"08-8892308","LICENSE_NO":"T26","OWNER":"林文隆","LOCATION_T":"中華電信","LOCATION_X":222764,"LOCATION_Y":2435058},"geometry":{"points":[[120.74420989301166,22.011456163169214]]}},{"attributes":{"OBJECTID":1728,"STATION_NA":"振東車業行","COUNTY_NA":"屏東縣","ZIPCODE":"906","ADDRESS":"906屏東縣高樹鄉南興路2-7號","TEL":"08-7962818","LICENSE_NO":"T27","OWNER":"蔡素民","LOCATION_T":"中華電信","LOCATION_X":208503,"LOCATION_Y":2524184},"geometry":{"points":[[120.60381059443232,22.816115749518559]]}},{"attributes":{"OBJECTID":1729,"STATION_NA":"永發機車行","COUNTY_NA":"屏東縣","ZIPCODE":"906","ADDRESS":"906屏東縣高樹鄉興中路178號","TEL":"08-7962232","LICENSE_NO":"T28","OWNER":"謝清住","LOCATION_T":"中華電信","LOCATION_X":208038,"LOCATION_Y":2524969},"geometry":{"points":[[120.59926000759441,22.823193877827599]]}},{"attributes":{"OBJECTID":1730,"STATION_NA":"雄偉車業有限公司","COUNTY_NA":"屏東縣","ZIPCODE":"932","ADDRESS":"932屏東縣新園鄉仙吉路41號","TEL":"08-8682298","LICENSE_NO":"T29","OWNER":"陳崑玉","LOCATION_T":"地址對位","LOCATION_X":193634,"LOCATION_Y":2493835},"geometry":{"points":[[120.46003413096152,22.541605382893817]]}},{"attributes":{"OBJECTID":1731,"STATION_NA":"盈發車業行","COUNTY_NA":"屏東縣","ZIPCODE":"906","ADDRESS":"932屏東縣新園鄉南興路187號","TEL":"08-8325639","LICENSE_NO":"T30","OWNER":"林清坤","LOCATION_T":"地址對位","LOCATION_X":208187,"LOCATION_Y":2525193},"geometry":{"points":[[120.60070580947468,22.82522050915874]]}},{"attributes":{"OBJECTID":1732,"STATION_NA":"豪輪企業有限公司","COUNTY_NA":"屏東縣","ZIPCODE":"913","ADDRESS":"913屏東縣萬丹鄉中興路二段441號","TEL":"08-7775641","LICENSE_NO":"T31","OWNER":"陳文慧","LOCATION_T":"地址對位","LOCATION_X":196267,"LOCATION_Y":2498126},"geometry":{"points":[[120.48548609828728,22.580447602327276]]}},{"attributes":{"OBJECTID":1733,"STATION_NA":"幸福車業行","COUNTY_NA":"屏東縣","ZIPCODE":"913","ADDRESS":"913屏東縣萬丹鄉萬新路329號","TEL":"08-7771607","LICENSE_NO":"T32","OWNER":"洪開化","LOCATION_T":"中華電信","LOCATION_X":196349,"LOCATION_Y":2495963},"geometry":{"points":[[120.4863566577509,22.560914698346668]]}},{"attributes":{"OBJECTID":1734,"STATION_NA":"三龍機車行","COUNTY_NA":"屏東縣","ZIPCODE":"923","ADDRESS":"923屏東縣萬巒鄉新隆路2號","TEL":"08-7850116","LICENSE_NO":"T33","OWNER":"陳三龍","LOCATION_T":"地址對位","LOCATION_X":210752,"LOCATION_Y":2492037},"geometry":{"points":[[120.62650583190377,22.525844579640253]]}},{"attributes":{"OBJECTID":1735,"STATION_NA":"協原車業行","COUNTY_NA":"屏東縣","ZIPCODE":"920","ADDRESS":"920屏東縣潮州鎮介壽路133號1F","TEL":"08-7884279","LICENSE_NO":"T34","OWNER":"方建棟","LOCATION_T":"地址對位","LOCATION_X":201465,"LOCATION_Y":2493977},"geometry":{"points":[[120.5361627301446,22.543133213570744]]}},{"attributes":{"OBJECTID":1736,"STATION_NA":"全成機車行","COUNTY_NA":"屏東縣","ZIPCODE":"920","ADDRESS":"920屏東縣潮州鎮延平路174號","TEL":"08-7885318","LICENSE_NO":"T35","OWNER":"陳瑞月","LOCATION_T":"地址對位","LOCATION_X":201925,"LOCATION_Y":2495372},"geometry":{"points":[[120.54059239420427,22.555745671223669]]}},{"attributes":{"OBJECTID":1737,"STATION_NA":"新玄車業有限公司","COUNTY_NA":"屏東縣","ZIPCODE":"920","ADDRESS":"920屏東縣潮州鎮新生路60號","TEL":"08-7888321","LICENSE_NO":"T36","OWNER":"吳傅美惠","LOCATION_T":"地址對位","LOCATION_X":201717,"LOCATION_Y":2494594},"geometry":{"points":[[120.53859385336139,22.548712991268189]]}},{"attributes":{"OBJECTID":1738,"STATION_NA":"大幸福車行","COUNTY_NA":"屏東縣","ZIPCODE":"909","ADDRESS":"909屏東縣麟洛鄉中山路443號","TEL":"08-7222733","LICENSE_NO":"T37","OWNER":"洪福龍","LOCATION_T":"地址對位","LOCATION_X":200349,"LOCATION_Y":2506029},"geometry":{"points":[[120.52494005577535,22.651944640649479]]}},{"attributes":{"OBJECTID":1739,"STATION_NA":"昭明興企業有限公司","COUNTY_NA":"屏東縣","ZIPCODE":"907","ADDRESS":"907屏東縣鹽埔鄉勝利路66-2號","TEL":"08-7932470","LICENSE_NO":"T38","OWNER":"蕭昭明","LOCATION_T":"地址對位","LOCATION_X":205556,"LOCATION_Y":2517524},"geometry":{"points":[[120.57528801980574,22.755894234292246]]}},{"attributes":{"OBJECTID":1740,"STATION_NA":"生揚車業有限公司","COUNTY_NA":"屏東縣","ZIPCODE":"907","ADDRESS":"907屏東縣鹽埔鄉維新路177號1F","TEL":"08-7933213","LICENSE_NO":"T39","OWNER":"許王月霞","LOCATION_T":"地址對位","LOCATION_X":203736,"LOCATION_Y":2516088},"geometry":{"points":[[120.55760811770418,22.742876774275761]]}},{"attributes":{"OBJECTID":1741,"STATION_NA":"宏偉機車行","COUNTY_NA":"屏東縣","ZIPCODE":"907","ADDRESS":"907屏東縣鹽埔鄉維新路81-7號","TEL":"08-7936369","LICENSE_NO":"T40","OWNER":"詹榮華","LOCATION_T":"地址對位","LOCATION_X":203493,"LOCATION_Y":2515679},"geometry":{"points":[[120.55525423037248,22.73917649838501]]}},{"attributes":{"OBJECTID":1742,"STATION_NA":"志誠機車行","COUNTY_NA":"屏東縣","ZIPCODE":"904","ADDRESS":"904屏東縣九如鄉九如路二段75號","TEL":"08-7391825","LICENSE_NO":"T47","OWNER":"陳文峰","LOCATION_T":"地址對位","LOCATION_X":196656,"LOCATION_Y":2514752},"geometry":{"points":[[120.48871772510303,22.730604431916927]]}},{"attributes":{"OBJECTID":1743,"STATION_NA":"昭慶車業行","COUNTY_NA":"屏東縣","ZIPCODE":"912","ADDRESS":"912屏東縣內埔鄉內田村學人路737號","TEL":"08-7791274","LICENSE_NO":"T48","OWNER":"朱俊源","LOCATION_T":"地址對位","LOCATION_X":204381,"LOCATION_Y":2501163},"geometry":{"points":[[120.56430699333016,22.608114105903915]]}},{"attributes":{"OBJECTID":1744,"STATION_NA":"進吉機車行","COUNTY_NA":"屏東縣","ZIPCODE":"912","ADDRESS":"912屏東縣內埔鄉老埤村通安路98號","TEL":"08-7791876","LICENSE_NO":"T49","OWNER":"佘文財","LOCATION_T":"地址對位","LOCATION_X":207990,"LOCATION_Y":2503953},"geometry":{"points":[[120.59934437862599,22.633396401437132]]}},{"attributes":{"OBJECTID":1745,"STATION_NA":"安興機車行","COUNTY_NA":"屏東縣","ZIPCODE":"912","ADDRESS":"912屏東縣內埔鄉老埤村壽比路229號","TEL":"08-7791613","LICENSE_NO":"T50","OWNER":"廖平安","LOCATION_T":"地址對位","LOCATION_X":207644,"LOCATION_Y":2503841},"geometry":{"points":[[120.59598074167496,22.632376996108931]]}},{"attributes":{"OBJECTID":1746,"STATION_NA":"松順企業有限公司","COUNTY_NA":"屏東縣","ZIPCODE":"912","ADDRESS":"912屏東縣內埔鄉東寧村南寧路97號","TEL":"08-7792072","LICENSE_NO":"T51","OWNER":"邱俊榮","LOCATION_T":"地址對位","LOCATION_X":204338,"LOCATION_Y":2502302},"geometry":{"points":[[120.56385712240333,22.618398734831718]]}},{"attributes":{"OBJECTID":1747,"STATION_NA":"建興機車行","COUNTY_NA":"屏東縣","ZIPCODE":"912","ADDRESS":"912屏東縣內埔鄉壽比路289號","TEL":"08-7783808","LICENSE_NO":"T52","OWNER":"古松勝","LOCATION_T":"地址對位","LOCATION_X":207740,"LOCATION_Y":2503839},"geometry":{"points":[[120.59691487472125,22.632361129133361]]}},{"attributes":{"OBJECTID":1748,"STATION_NA":"萬里順機車行","COUNTY_NA":"屏東縣","ZIPCODE":"912","ADDRESS":"912屏東縣內埔鄉龍泉村中勝路298號","TEL":"08-7701540","LICENSE_NO":"T53","OWNER":"鍾兆欽","LOCATION_T":"地址對位","LOCATION_X":208130,"LOCATION_Y":2507949},"geometry":{"points":[[120.60060113980697,22.669489743451408]]}},{"attributes":{"OBJECTID":1749,"STATION_NA":"萬興機車行","COUNTY_NA":"屏東縣","ZIPCODE":"912","ADDRESS":"912屏東縣內埔鄉龍泉村昭勝路196號","TEL":"08-7701805","LICENSE_NO":"T54","OWNER":"林禎晉","LOCATION_T":"地址對位","LOCATION_X":208132,"LOCATION_Y":2508315},"geometry":{"points":[[120.60061094258387,22.672795310307631]]}},{"attributes":{"OBJECTID":1750,"STATION_NA":"奇祥機車行","COUNTY_NA":"屏東縣","ZIPCODE":"912","ADDRESS":"912屏東縣內埔鄉龍泉村原勝路9號","TEL":"08-7701603","LICENSE_NO":"T55","OWNER":"曾玉祥","LOCATION_T":"現地調查","LOCATION_X":207997,"LOCATION_Y":2507352},"geometry":{"points":[[120.59932265633812,22.664094756105715]]}},{"attributes":{"OBJECTID":1751,"STATION_NA":"盛興機車行","COUNTY_NA":"屏東縣","ZIPCODE":"912","ADDRESS":"912屏東縣內埔鄉龍潭村昭勝路230號","TEL":"08-7701616","LICENSE_NO":"T56","OWNER":"涂世杰","LOCATION_T":"地址對位","LOCATION_X":208144,"LOCATION_Y":2508372},"geometry":{"points":[[120.6007262155413,22.673310394500326]]}},{"attributes":{"OBJECTID":1752,"STATION_NA":"金興機車行","COUNTY_NA":"屏東縣","ZIPCODE":"911","ADDRESS":"911屏東縣竹田鄉竹田村中正路133號","TEL":"08-7712281","LICENSE_NO":"T57","OWNER":"廖金水","LOCATION_T":"中華電信","LOCATION_X":202310,"LOCATION_Y":2498622},"geometry":{"points":[[120.54423738084643,22.585110051031645]]}},{"attributes":{"OBJECTID":1753,"STATION_NA":"龍昇車行","COUNTY_NA":"屏東縣","ZIPCODE":"940","ADDRESS":"940屏東縣枋寮鄉隆山村中山路132號","TEL":"08-8781266","LICENSE_NO":"T58","OWNER":"李宜靜","LOCATION_T":"地址對位","LOCATION_X":207833,"LOCATION_Y":2474029},"geometry":{"points":[[120.59859735297037,22.363135607696645]]}},{"attributes":{"OBJECTID":1754,"STATION_NA":"盈利昇輪業有限公司","COUNTY_NA":"屏東縣","ZIPCODE":"928","ADDRESS":"928屏東縣東港鎮中正路219號","TEL":"08-8322366","LICENSE_NO":"T59","OWNER":"林宗山","LOCATION_T":"地址對位","LOCATION_X":192724,"LOCATION_Y":2485883},"geometry":{"points":[[120.45147899188667,22.469756926509444]]}},{"attributes":{"OBJECTID":1755,"STATION_NA":"慶益機車行","COUNTY_NA":"屏東縣","ZIPCODE":"928","ADDRESS":"928屏東縣東港鎮中正路243號","TEL":"08-8322001","LICENSE_NO":"T60","OWNER":"許鳳英","LOCATION_T":"地址對位","LOCATION_X":192766,"LOCATION_Y":2485916},"geometry":{"points":[[120.45188589581255,22.470056375665255]]}},{"attributes":{"OBJECTID":1756,"STATION_NA":"永和輪業行","COUNTY_NA":"屏東縣","ZIPCODE":"927","ADDRESS":"927屏東縣林邊鄉中山路104號","TEL":"08-8756665","LICENSE_NO":"T61","OWNER":"莊英吉","LOCATION_T":"中華電信","LOCATION_X":199458,"LOCATION_Y":2481801},"geometry":{"points":[[120.51703104272302,22.433103065892197]]}},{"attributes":{"OBJECTID":1757,"STATION_NA":"高連憶機車行","COUNTY_NA":"屏東縣","ZIPCODE":"927","ADDRESS":"927屏東縣林邊鄉忠孝路8號","TEL":"08-8752688","LICENSE_NO":"T62","OWNER":"高順國","LOCATION_T":"現地調查","LOCATION_X":199573,"LOCATION_Y":2481826},"geometry":{"points":[[120.5181469995499,22.433332329710279]]}},{"attributes":{"OBJECTID":1758,"STATION_NA":"錦輝機車行","COUNTY_NA":"屏東縣","ZIPCODE":"908","ADDRESS":"908屏東縣長治鄉崙上村中興路427號","TEL":"08-7622150","LICENSE_NO":"T63","OWNER":"邱錦輝","LOCATION_T":"地址對位","LOCATION_X":201358,"LOCATION_Y":2510387},"geometry":{"points":[[120.5346290210078,22.691326780954785]]}},{"attributes":{"OBJECTID":1759,"STATION_NA":"城友機車行","COUNTY_NA":"屏東縣","ZIPCODE":"908","ADDRESS":"908屏東縣長治鄉復興路19-9號","TEL":"08-7360169","LICENSE_NO":"T64","OWNER":"張東城","LOCATION_T":"中華電信","LOCATION_X":200907,"LOCATION_Y":2508804},"geometry":{"points":[[120.530286951938,22.677019142816238]]}},{"attributes":{"OBJECTID":1760,"STATION_NA":"欣益機車行","COUNTY_NA":"屏東縣","ZIPCODE":"900","ADDRESS":"900屏東縣屏東市中山路61-7號","TEL":"08-7321663","LICENSE_NO":"T65","OWNER":"翁偉僥","LOCATION_T":"地址對位","LOCATION_X":196235,"LOCATION_Y":2508631},"geometry":{"points":[[120.48482465721263,22.675315633557098]]}},{"attributes":{"OBJECTID":1761,"STATION_NA":"愛車一生企業股份有限金司","COUNTY_NA":"屏東縣","ZIPCODE":"900","ADDRESS":"900屏東縣屏東市中正路533號","TEL":"08-7384438","LICENSE_NO":"T66","OWNER":"翁美琴","LOCATION_T":"地址對位","LOCATION_X":197881,"LOCATION_Y":2510386},"geometry":{"points":[[120.50078693599626,22.691214780778022]]}},{"attributes":{"OBJECTID":1762,"STATION_NA":"永宏機車行","COUNTY_NA":"屏東縣","ZIPCODE":"900","ADDRESS":"900屏東縣屏東市仁愛路156號","TEL":"08-7361698","LICENSE_NO":"T67","OWNER":"郭博仁","LOCATION_T":"地址對位","LOCATION_X":197314,"LOCATION_Y":2509108},"geometry":{"points":[[120.49530991875746,22.679656677442043]]}},{"attributes":{"OBJECTID":1763,"STATION_NA":"峰裕機車行","COUNTY_NA":"屏東縣","ZIPCODE":"900","ADDRESS":"900屏東縣屏東市仁愛路77-15號","TEL":"08-7364642","LICENSE_NO":"T68","OWNER":"陳進明","LOCATION_T":"地址對位","LOCATION_X":197280,"LOCATION_Y":2509101},"geometry":{"points":[[120.49497924794979,22.679592415314549]]}},{"attributes":{"OBJECTID":1764,"STATION_NA":"阿侯機車行","COUNTY_NA":"屏東縣","ZIPCODE":"900","ADDRESS":"900屏東縣屏東市公園西路19-2號","TEL":"08-7336577","LICENSE_NO":"T69","OWNER":"黃世明","LOCATION_T":"地址對位","LOCATION_X":196103,"LOCATION_Y":2508659},"geometry":{"points":[[120.48353911155718,22.675564316967289]]}},{"attributes":{"OBJECTID":1765,"STATION_NA":"財發機車行和生分店","COUNTY_NA":"屏東縣","ZIPCODE":"900","ADDRESS":"900屏東縣屏東市和生路一段751號","TEL":"08-7521325","LICENSE_NO":"T70","OWNER":"陳財得","LOCATION_T":"地址對位","LOCATION_X":196543,"LOCATION_Y":2506019},"geometry":{"points":[[120.48790799422621,22.651738440315189]]}},{"attributes":{"OBJECTID":1766,"STATION_NA":"勝興機車行","COUNTY_NA":"屏東縣","ZIPCODE":"900","ADDRESS":"900屏東縣屏東市建民路62號","TEL":"08-7524164","LICENSE_NO":"T71","OWNER":"康永鎮","LOCATION_T":"地址對位","LOCATION_X":195865,"LOCATION_Y":2507728},"geometry":{"points":[[120.48125403895692,22.667149676856493]]}},{"attributes":{"OBJECTID":1767,"STATION_NA":"聖發機車行","COUNTY_NA":"屏東縣","ZIPCODE":"900","ADDRESS":"900屏東縣屏東市勝利路208號","TEL":"08-7654319","LICENSE_NO":"T72","OWNER":"韓雪卿","LOCATION_T":"地址對位","LOCATION_X":195644,"LOCATION_Y":2509071},"geometry":{"points":[[120.47905830472615,22.679270229749289]]}},{"attributes":{"OBJECTID":1768,"STATION_NA":"鑫鈴車業行","COUNTY_NA":"屏東縣","ZIPCODE":"900","ADDRESS":"900屏東縣屏東市復興南路1段5號","TEL":"08-7510159","LICENSE_NO":"T73","OWNER":"江美鈴","LOCATION_T":"地址對位","LOCATION_X":196394,"LOCATION_Y":2505870},"geometry":{"points":[[120.48646313861076,22.650388235180266]]}},{"attributes":{"OBJECTID":1769,"STATION_NA":"茂達車業行","COUNTY_NA":"屏東縣","ZIPCODE":"900","ADDRESS":"900屏東縣屏東市瑞光路二段450號","TEL":"08-7368896","LICENSE_NO":"T74","OWNER":"林文福","LOCATION_T":"地址對位","LOCATION_X":198339,"LOCATION_Y":2509430},"geometry":{"points":[[120.50527523445487,22.682595823261455]]}},{"attributes":{"OBJECTID":1770,"STATION_NA":"平安車業有限公司","COUNTY_NA":"屏東縣","ZIPCODE":"900","ADDRESS":"900屏東縣屏東市廣東路434號","TEL":"08-7370852","LICENSE_NO":"T75","OWNER":"于克仁","LOCATION_T":"地址對位","LOCATION_X":197978,"LOCATION_Y":2509077},"geometry":{"points":[[120.50177313443307,22.679397156269864]]}},{"attributes":{"OBJECTID":1771,"STATION_NA":"光得輪業有限公司","COUNTY_NA":"屏東縣","ZIPCODE":"932","ADDRESS":"932屏東縣新園鄉仙吉村仙吉路200號","TEL":"08-8681345","LICENSE_NO":"T76","OWNER":"余先利","LOCATION_T":"地址對位","LOCATION_X":193877,"LOCATION_Y":2494246},"geometry":{"points":[[120.46238191916204,22.545325407486047]]}},{"attributes":{"OBJECTID":1772,"STATION_NA":"振吉車業行","COUNTY_NA":"屏東縣","ZIPCODE":"932","ADDRESS":"932屏東縣新園鄉平和路295號","TEL":"08-8683123","LICENSE_NO":"T77","OWNER":"余柯痛","LOCATION_T":"地址對位","LOCATION_X":192903,"LOCATION_Y":2492214},"geometry":{"points":[[120.45298625920046,22.526941334935454]]}},{"attributes":{"OBJECTID":1773,"STATION_NA":"龍吉機車行","COUNTY_NA":"屏東縣","ZIPCODE":"932","ADDRESS":"932屏東縣新園鄉烏龍村南興路374之1號","TEL":"08-8328631","LICENSE_NO":"T78","OWNER":"李忠慶","LOCATION_T":"中華電信","LOCATION_X":193578,"LOCATION_Y":2488523},"geometry":{"points":[[120.45968108802734,22.493629182168501]]}},{"attributes":{"OBJECTID":1774,"STATION_NA":"裕豐機車行","COUNTY_NA":"屏東縣","ZIPCODE":"913","ADDRESS":"913屏東縣萬丹鄉萬全村丹榮路727號1F","TEL":"08-7772559","LICENSE_NO":"T79","OWNER":"孫順裕","LOCATION_T":"現地調查","LOCATION_X":196976,"LOCATION_Y":2499333},"geometry":{"points":[[120.49234075456425,22.591371354918248]]}},{"attributes":{"OBJECTID":1775,"STATION_NA":"慶隆機車行","COUNTY_NA":"屏東縣","ZIPCODE":"913","ADDRESS":"913屏東縣萬丹鄉萬全村萬丹路一段408號1F","TEL":"08-7773300","LICENSE_NO":"T80","OWNER":"黃慶龍","LOCATION_T":"地址對位","LOCATION_X":196648,"LOCATION_Y":2499306},"geometry":{"points":[[120.48915170637255,22.59111709561919]]}},{"attributes":{"OBJECTID":1776,"STATION_NA":"金霖車業行","COUNTY_NA":"屏東縣","ZIPCODE":"923","ADDRESS":"923屏東縣萬巒鄉南進路23-7號","TEL":"08-7810222","LICENSE_NO":"T81","OWNER":"林鳳金","LOCATION_T":"地址對位","LOCATION_X":205147,"LOCATION_Y":2497130},"geometry":{"points":[[120.57187102062096,22.571710196582959]]}},{"attributes":{"OBJECTID":1777,"STATION_NA":"丘吉珥騎士之家商行","COUNTY_NA":"屏東縣","ZIPCODE":"920","ADDRESS":"920屏東縣潮州鎮光華路64號","TEL":"08-7894011","LICENSE_NO":"T82","OWNER":"蔡信淵","LOCATION_T":"地址對位","LOCATION_X":202381,"LOCATION_Y":2494005},"geometry":{"points":[[120.54506769373268,22.54341167064187]]}},{"attributes":{"OBJECTID":1778,"STATION_NA":"永詰機車行","COUNTY_NA":"屏東縣","ZIPCODE":"920","ADDRESS":"920屏東縣潮州鎮新榮里新生路22號","TEL":"08-7888912","LICENSE_NO":"T83","OWNER":"簡壁輝","LOCATION_T":"地址對位","LOCATION_X":201643,"LOCATION_Y":2494456},"geometry":{"points":[[120.53787860780002,22.547464508298102]]}},{"attributes":{"OBJECTID":1779,"STATION_NA":"義和車業有限公司","COUNTY_NA":"屏東縣","ZIPCODE":"909","ADDRESS":"909屏東縣麟洛鄉麟蹄村中山路274號","TEL":"08-7221066","LICENSE_NO":"T84","OWNER":"李錦泉","LOCATION_T":"中華電信","LOCATION_X":200260,"LOCATION_Y":2506125},"geometry":{"points":[[120.5240711933659,22.65280891482217]]}},{"attributes":{"OBJECTID":1780,"STATION_NA":"國聯車業行","COUNTY_NA":"花蓮縣","ZIPCODE":"981","ADDRESS":"981花蓮縣玉里鎮光復路180號","TEL":"03-8882523","LICENSE_NO":"U01","OWNER":"葉日瑞","LOCATION_T":"地址對位","LOCATION_X":281141,"LOCATION_Y":2581234},"geometry":{"points":[[121.31262356490241,23.331507618489596]]}},{"attributes":{"OBJECTID":1781,"STATION_NA":"連發車業行","COUNTY_NA":"花蓮縣","ZIPCODE":"973","ADDRESS":"973花蓮縣吉安鄉中山路二段96號","TEL":"03-8522278","LICENSE_NO":"U02","OWNER":"曾漢璋","LOCATION_T":"地址對位","LOCATION_X":308266,"LOCATION_Y":2652307},"geometry":{"points":[[121.58070993207157,23.972514735508735]]}},{"attributes":{"OBJECTID":1782,"STATION_NA":"榮泰機車行","COUNTY_NA":"花蓮縣","ZIPCODE":"973","ADDRESS":"973花蓮縣吉安鄉中山路三段380號","TEL":"03-8533008","LICENSE_NO":"U03","OWNER":"謝銀珍","LOCATION_T":"地址對位","LOCATION_X":307087,"LOCATION_Y":2653009},"geometry":{"points":[[121.56915152935379,23.978897443359465]]}},{"attributes":{"OBJECTID":1783,"STATION_NA":"慶泰機車行","COUNTY_NA":"花蓮縣","ZIPCODE":"973","ADDRESS":"973花蓮縣吉安鄉中正路一段156之1號","TEL":"03-8535191","LICENSE_NO":"U04","OWNER":"李慧貞","LOCATION_T":"地址對位","LOCATION_X":309273,"LOCATION_Y":2651468},"geometry":{"points":[[121.59057132405701,23.964900712653151]]}},{"attributes":{"OBJECTID":1784,"STATION_NA":"正鴻車業行","COUNTY_NA":"花蓮縣","ZIPCODE":"973","ADDRESS":"973花蓮縣吉安鄉仁里五街32號","TEL":"03-8529326","LICENSE_NO":"U05","OWNER":"陳阿輝","LOCATION_T":"地址對位","LOCATION_X":309360,"LOCATION_Y":2651909},"geometry":{"points":[[121.5914442956818,23.968879498921005]]}},{"attributes":{"OBJECTID":1785,"STATION_NA":"好朋友機車行","COUNTY_NA":"花蓮縣","ZIPCODE":"973","ADDRESS":"973花蓮縣吉安鄉自強路43號1樓","TEL":"03-8528778","LICENSE_NO":"U06","OWNER":"吳金垣","LOCATION_T":"地址對位","LOCATION_X":308721,"LOCATION_Y":2652829},"geometry":{"points":[[121.58520231442887,23.977211212681357]]}},{"attributes":{"OBJECTID":1786,"STATION_NA":"新輪機車行","COUNTY_NA":"花蓮縣","ZIPCODE":"970","ADDRESS":"970花蓮縣花蓮市建國路316號","TEL":"03-8354961","LICENSE_NO":"U07","OWNER":"游金來","LOCATION_T":"地址對位","LOCATION_X":310062,"LOCATION_Y":2653651},"geometry":{"points":[[121.59841474727025,23.984582646093987]]}},{"attributes":{"OBJECTID":1787,"STATION_NA":"新長興機車行","COUNTY_NA":"花蓮縣","ZIPCODE":"973","ADDRESS":"973花蓮縣吉安鄉海岸路655號","TEL":"03-8421728","LICENSE_NO":"U08","OWNER":"方玉英","LOCATION_T":"地址對位","LOCATION_X":308877,"LOCATION_Y":2648722},"geometry":{"points":[[121.58656887939007,23.940120633003076]]}},{"attributes":{"OBJECTID":1788,"STATION_NA":"川陽車業股份有限公司","COUNTY_NA":"花蓮縣","ZIPCODE":"973","ADDRESS":"973花蓮縣吉安鄉慈惠一街43號","TEL":"03-8533121","LICENSE_NO":"U09","OWNER":"李相再","LOCATION_T":"地址對位","LOCATION_X":308784,"LOCATION_Y":2652680},"geometry":{"points":[[121.58581540091267,23.97586338295384]]}},{"attributes":{"OBJECTID":1789,"STATION_NA":"東祥車業有限公司","COUNTY_NA":"花蓮縣","ZIPCODE":"973","ADDRESS":"973花蓮縣吉安鄉吉安路三段59號","TEL":"03-8533858","LICENSE_NO":"U10","OWNER":"林家裕","LOCATION_T":"地址對位","LOCATION_X":305134,"LOCATION_Y":2650056},"geometry":{"points":[[121.54984653681559,23.952302656841415]]}},{"attributes":{"OBJECTID":1790,"STATION_NA":"立大車業行","COUNTY_NA":"花蓮縣","ZIPCODE":"970","ADDRESS":"970花蓮縣花蓮市中山路410-4號","TEL":"03-8328813","LICENSE_NO":"U11","OWNER":"鄭雲蓮","LOCATION_T":"地址對位","LOCATION_X":310542,"LOCATION_Y":2653729},"geometry":{"points":[[121.60313538651994,23.985268390328571]]}},{"attributes":{"OBJECTID":1791,"STATION_NA":"時代機車行","COUNTY_NA":"花蓮縣","ZIPCODE":"970","ADDRESS":"970花蓮縣花蓮市中山路646號","TEL":"03-8561999","LICENSE_NO":"U12","OWNER":"謝漢振","LOCATION_T":"地址對位","LOCATION_X":309880,"LOCATION_Y":2654656},"geometry":{"points":[[121.59666728328754,23.993665003272167]]}},{"attributes":{"OBJECTID":1792,"STATION_NA":"東霸輪業有限公司","COUNTY_NA":"花蓮縣","ZIPCODE":"970","ADDRESS":"970花蓮縣花蓮市中正路120號","TEL":"03-8333969","LICENSE_NO":"U13","OWNER":"林陳來春","LOCATION_T":"地址對位","LOCATION_X":309932,"LOCATION_Y":2652071},"geometry":{"points":[[121.59707182106534,23.970320415720995]]}},{"attributes":{"OBJECTID":1793,"STATION_NA":"宏偉機車行","COUNTY_NA":"花蓮縣","ZIPCODE":"970","ADDRESS":"970花蓮縣花蓮市富國路82號","TEL":"03-8335703","LICENSE_NO":"U14","OWNER":"鄧啟良","LOCATION_T":"地址對位","LOCATION_X":309692,"LOCATION_Y":2654293},"geometry":{"points":[[121.59480469276345,23.990394245309396]]}},{"attributes":{"OBJECTID":1794,"STATION_NA":"晉良企業有限公司","COUNTY_NA":"花蓮縣","ZIPCODE":"970","ADDRESS":"970花蓮縣花蓮市中正路314號","TEL":"03-8322968","LICENSE_NO":"U15","OWNER":"林英一","LOCATION_T":"地址對位","LOCATION_X":310438,"LOCATION_Y":2652437},"geometry":{"points":[[121.60205940153034,23.973605813575009]]}},{"attributes":{"OBJECTID":1795,"STATION_NA":"建宏機車行","COUNTY_NA":"花蓮縣","ZIPCODE":"970","ADDRESS":"970花蓮縣花蓮市中正路353號","TEL":"03-8358942","LICENSE_NO":"U16","OWNER":"簡進來","LOCATION_T":"地址對位","LOCATION_X":310456,"LOCATION_Y":2652484},"geometry":{"points":[[121.60223824903582,23.974029516505215]]}},{"attributes":{"OBJECTID":1796,"STATION_NA":"聯豐機車行","COUNTY_NA":"花蓮縣","ZIPCODE":"970","ADDRESS":"970花蓮縣花蓮市中美11街80號","TEL":"03-8226765","LICENSE_NO":"U17","OWNER":"陳明進","LOCATION_T":"地址對位","LOCATION_X":312676,"LOCATION_Y":2654992},"geometry":{"points":[[121.62416192019836,23.996589460476965]]}},{"attributes":{"OBJECTID":1797,"STATION_NA":"洺奇機車行","COUNTY_NA":"花蓮縣","ZIPCODE":"970","ADDRESS":"970花蓮縣花蓮市中美路287號","TEL":"03-8222838","LICENSE_NO":"U18","OWNER":"傅逢渼","LOCATION_T":"地址對位","LOCATION_X":313374,"LOCATION_Y":2655111},"geometry":{"points":[[121.63102694188804,23.997636322672417]]}},{"attributes":{"OBJECTID":1798,"STATION_NA":"信成機車行","COUNTY_NA":"花蓮縣","ZIPCODE":"970","ADDRESS":"970花蓮縣花蓮市中原路365號","TEL":"03-8326772","LICENSE_NO":"U19","OWNER":"許清煌","LOCATION_T":"地址對位","LOCATION_X":310205,"LOCATION_Y":2651869},"geometry":{"points":[[121.59974609010214,23.968485904004922]]}},{"attributes":{"OBJECTID":1799,"STATION_NA":"慶欣機車行","COUNTY_NA":"花蓮縣","ZIPCODE":"970","ADDRESS":"970花蓮縣花蓮市中華路220號","TEL":"03-8329638","LICENSE_NO":"U20","OWNER":"張椒智","LOCATION_T":"地址對位","LOCATION_X":310380,"LOCATION_Y":2652652},"geometry":{"points":[[121.60149841601783,23.975549465993794]]}},{"attributes":{"OBJECTID":1800,"STATION_NA":"泰多車業行","COUNTY_NA":"花蓮縣","ZIPCODE":"970","ADDRESS":"970花蓮縣花蓮市中華路326號","TEL":"03-8325555","LICENSE_NO":"U21","OWNER":"郭俊宏","LOCATION_T":"地址對位","LOCATION_X":309954,"LOCATION_Y":2652603},"geometry":{"points":[[121.59731003802322,23.975123437432206]]}}]}