{"displayFieldName":"STATION_NA","fieldAliases":{"OBJECTID":"OBJECTID","STATION_NA":"STATION_NA","COUNTY_NA":"COUNTY_NA","ZIPCODE":"ZIPCODE","ADDRESS":"ADDRESS","TEL":"TEL","LICENSE_NO":"LICENSE_NO","OWNER":"OWNER","LOCATION_T":"LOCATION_T","LOCATION_X":"LOCATION_X","LOCATION_Y":"LOCATION_Y"},"geometryType":"esriGeometryMultipoint","spatialReference":{"wkid":104137},"fields":[{"name":"OBJECTID","type":"esriFieldTypeOID","alias":"OBJECTID"},{"name":"STATION_NA","type":"esriFieldTypeString","alias":"STATION_NA","length":30},{"name":"COUNTY_NA","type":"esriFieldTypeString","alias":"COUNTY_NA","length":6},{"name":"ZIPCODE","type":"esriFieldTypeString","alias":"ZIPCODE","length":4},{"name":"ADDRESS","type":"esriFieldTypeString","alias":"ADDRESS","length":40},{"name":"TEL","type":"esriFieldTypeString","alias":"TEL","length":11},{"name":"LICENSE_NO","type":"esriFieldTypeString","alias":"LICENSE_NO","length":3},{"name":"OWNER","type":"esriFieldTypeString","alias":"OWNER","length":10},{"name":"LOCATION_T","type":"esriFieldTypeString","alias":"LOCATION_T","length":10},{"name":"LOCATION_X","type":"esriFieldTypeDouble","alias":"LOCATION_X"},{"name":"LOCATION_Y","type":"esriFieldTypeDouble","alias":"LOCATION_Y"}],"features":[{"attributes":{"OBJECTID":1825,"STATION_NA":"大協興機車行","COUNTY_NA":"花蓮縣","ZIPCODE":"971","ADDRESS":"971花蓮縣新城鄉康樂村康樂5-14號","TEL":"03-8263405","LICENSE_NO":"U48","OWNER":"蔣玉霞","LOCATION_T":"中華電信","LOCATION_X":310687,"LOCATION_Y":2660600},"geometry":{"points":[[121.60484184665324,24.047312429098604]]}},{"attributes":{"OBJECTID":1826,"STATION_NA":"宏昌機車行","COUNTY_NA":"花蓮縣","ZIPCODE":"978","ADDRESS":"978花蓮縣瑞穗鄉中正南路75號","TEL":"03-8872768","LICENSE_NO":"U49","OWNER":"張賢敬","LOCATION_T":"地址對位","LOCATION_X":287734,"LOCATION_Y":2599331},"geometry":{"points":[[121.37756110744436,23.494784607874379]]}},{"attributes":{"OBJECTID":1827,"STATION_NA":"弘興機車行","COUNTY_NA":"花蓮縣","ZIPCODE":"974","ADDRESS":"974花蓮縣壽豐鄉中山路二段226號","TEL":"03-8661288","LICENSE_NO":"U50","OWNER":"楊妙鬧","LOCATION_T":"地址對位","LOCATION_X":303057,"LOCATION_Y":2644861},"geometry":{"points":[[121.52925037165566,23.905465947399616]]}},{"attributes":{"OBJECTID":1828,"STATION_NA":"宏展機車行","COUNTY_NA":"花蓮縣","ZIPCODE":"974","ADDRESS":"974花蓮縣壽豐鄉志學村中山路三段10號","TEL":"03-8661377","LICENSE_NO":"U51","OWNER":"林玉梅","LOCATION_T":"地址對位","LOCATION_X":303092,"LOCATION_Y":2645008},"geometry":{"points":[[121.52959939930047,23.906792093403041]]}},{"attributes":{"OBJECTID":1829,"STATION_NA":"皇冠輪業行","COUNTY_NA":"花蓮縣","ZIPCODE":"975","ADDRESS":"975花蓮縣鳳林鎮中正路二段195號","TEL":"03-8763393","LICENSE_NO":"U52","OWNER":"黃繡瑢","LOCATION_T":"地址對位","LOCATION_X":295005,"LOCATION_Y":2627479},"geometry":{"points":[[121.44962290001648,23.748762372728631]]}},{"attributes":{"OBJECTID":1830,"STATION_NA":"順風機車行","COUNTY_NA":"台東縣","ZIPCODE":"963","ADDRESS":"963台東縣太麻里鄉太麻里街195-24號","TEL":"089-781129","LICENSE_NO":"V01","OWNER":"陳進添","LOCATION_T":"中華電信","LOCATION_X":249497,"LOCATION_Y":2500867},"geometry":{"points":[[121.00316442670375,22.606024573728995]]}},{"attributes":{"OBJECTID":1831,"STATION_NA":"公園機車行","COUNTY_NA":"台東縣","ZIPCODE":"950","ADDRESS":"950台東縣台東市中華路一段794號","TEL":"089-325548","LICENSE_NO":"V02","OWNER":"林秋明","LOCATION_T":"地址對位","LOCATION_X":264021,"LOCATION_Y":2516557},"geometry":{"points":[[121.14458919995587,22.747669262429174]]}},{"attributes":{"OBJECTID":1832,"STATION_NA":"森田車業商行","COUNTY_NA":"台東縣","ZIPCODE":"950","ADDRESS":"950台東縣台東市中興路一段616號","TEL":"089-223702","LICENSE_NO":"V03","OWNER":"洪貴森","LOCATION_T":"中華電信","LOCATION_X":262917,"LOCATION_Y":2518624},"geometry":{"points":[[121.13385753858381,22.7663459023562]]}},{"attributes":{"OBJECTID":1833,"STATION_NA":"東永車業有限公司","COUNTY_NA":"台東縣","ZIPCODE":"950","ADDRESS":"950台東縣台東市正氣路457號","TEL":"089-310771","LICENSE_NO":"V05","OWNER":"王麗姿","LOCATION_T":"地址對位","LOCATION_X":264072,"LOCATION_Y":2517593},"geometry":{"points":[[121.14509537191196,22.757025816449353]]}},{"attributes":{"OBJECTID":1834,"STATION_NA":"特昇機車行","COUNTY_NA":"台東縣","ZIPCODE":"950","ADDRESS":"950台東縣台東市更生北路58號1樓","TEL":"089-222197","LICENSE_NO":"V06","OWNER":"王慶國","LOCATION_T":"地址對位","LOCATION_X":262120,"LOCATION_Y":2519916},"geometry":{"points":[[121.12610682130463,22.778019899269715]]}},{"attributes":{"OBJECTID":1835,"STATION_NA":"金昌機車行","COUNTY_NA":"台東縣","ZIPCODE":"950","ADDRESS":"950台東縣台東市更生路146號1樓","TEL":"089-325450","LICENSE_NO":"V07","OWNER":"林金澤","LOCATION_T":"地址對位","LOCATION_X":264404,"LOCATION_Y":2517785},"geometry":{"points":[[121.14832999041256,22.758757360493057]]}},{"attributes":{"OBJECTID":1836,"STATION_NA":"永大車業行","COUNTY_NA":"台東縣","ZIPCODE":"950","ADDRESS":"950台東縣台東市知本路三段551號","TEL":"089-511777","LICENSE_NO":"V08","OWNER":"張碧霞","LOCATION_T":"地址對位","LOCATION_X":253676,"LOCATION_Y":2512054},"geometry":{"points":[[121.04384878937594,22.707057934418444]]}},{"attributes":{"OBJECTID":1837,"STATION_NA":"全一車業行","COUNTY_NA":"台東縣","ZIPCODE":"950","ADDRESS":"950台東縣台東市新生路213號","TEL":"089-326529","LICENSE_NO":"V09","OWNER":"吳女住","LOCATION_T":"地址對位","LOCATION_X":263972,"LOCATION_Y":2517456},"geometry":{"points":[[121.14412037454159,22.75578921839216]]}},{"attributes":{"OBJECTID":1838,"STATION_NA":"萬煌車業行","COUNTY_NA":"台東縣","ZIPCODE":"950","ADDRESS":"950台東縣台東市新生路263號","TEL":"089-323352","LICENSE_NO":"V10","OWNER":"顏　品","LOCATION_T":"地址對位","LOCATION_X":263877,"LOCATION_Y":2517571},"geometry":{"points":[[121.14319638198918,22.756828602926916]]}},{"attributes":{"OBJECTID":1839,"STATION_NA":"益利車業行","COUNTY_NA":"台東縣","ZIPCODE":"950","ADDRESS":"950台東縣台東市新生路303號","TEL":"089-324769","LICENSE_NO":"V11","OWNER":"林進益","LOCATION_T":"地址對位","LOCATION_X":263784,"LOCATION_Y":2517651},"geometry":{"points":[[121.1422915368789,22.757551844127899]]}},{"attributes":{"OBJECTID":1840,"STATION_NA":"順陽車業有限公司","COUNTY_NA":"台東縣","ZIPCODE":"950","ADDRESS":"950台東縣台東市新生路307號","TEL":"089-323358","LICENSE_NO":"V12","OWNER":"廖中義","LOCATION_T":"地址對位","LOCATION_X":263775,"LOCATION_Y":2517657},"geometry":{"points":[[121.14220395656857,22.757606104477617]]}},{"attributes":{"OBJECTID":1841,"STATION_NA":"陳信宏車業有限公司","COUNTY_NA":"台東縣","ZIPCODE":"950","ADDRESS":"950台東縣台東市新生路626號","TEL":"089-310796","LICENSE_NO":"V13","OWNER":"張碧文","LOCATION_T":"地址對位","LOCATION_X":263279,"LOCATION_Y":2518167},"geometry":{"points":[[121.13737867870815,22.762215909623137]]}},{"attributes":{"OBJECTID":1842,"STATION_NA":"成進車行","COUNTY_NA":"台東縣","ZIPCODE":"961","ADDRESS":"961台東縣成功鎮中山路52號","TEL":"089-851246","LICENSE_NO":"V14","OWNER":"張沐清","LOCATION_T":"中華電信","LOCATION_X":288014,"LOCATION_Y":2555829},"geometry":{"points":[[121.37917955069346,23.101951501528585]]}},{"attributes":{"OBJECTID":1843,"STATION_NA":"輝昌機車行","COUNTY_NA":"台東縣","ZIPCODE":"961","ADDRESS":"961台東縣成功鎮中華路18號","TEL":"089-851012","LICENSE_NO":"V15","OWNER":"莊榮昌","LOCATION_T":"中華電信","LOCATION_X":287802,"LOCATION_Y":2555607},"geometry":{"points":[[121.37710433470204,23.099951759181376]]}},{"attributes":{"OBJECTID":1844,"STATION_NA":"東園機車行","COUNTY_NA":"台東縣","ZIPCODE":"955","ADDRESS":"955台東縣鹿野鄉中華路二段159號","TEL":"089-551240","LICENSE_NO":"V16","OWNER":"許天來","LOCATION_T":"地址對位","LOCATION_X":263193,"LOCATION_Y":2535091},"geometry":{"points":[[121.13668988018387,22.915059352815891]]}},{"attributes":{"OBJECTID":1845,"STATION_NA":"立大機車行","COUNTY_NA":"台東縣","ZIPCODE":"956","ADDRESS":"956台東縣關山鎮和平路152-2號","TEL":"089-811312","LICENSE_NO":"V17","OWNER":"彭慶滿","LOCATION_T":"中華電信","LOCATION_X":266138,"LOCATION_Y":2550201},"geometry":{"points":[[121.16556432694439,23.051492531045138]]}},{"attributes":{"OBJECTID":1846,"STATION_NA":"金發機車行","COUNTY_NA":"台東縣","ZIPCODE":"956","ADDRESS":"956台東縣關山鎮和平路96號","TEL":"089-811770","LICENSE_NO":"V18","OWNER":"陳永寶","LOCATION_T":"中華電信","LOCATION_X":266009,"LOCATION_Y":2549839},"geometry":{"points":[[121.16430136314162,23.048224424706341]]}},{"attributes":{"OBJECTID":1847,"STATION_NA":"東豐車業行","COUNTY_NA":"台東縣","ZIPCODE":"965","ADDRESS":"965台東縣大武鄉大武村大武街18號","TEL":"08-9772089","LICENSE_NO":"V21","OWNER":"楊玉琳","LOCATION_T":"中華電信","LOCATION_X":239503,"LOCATION_Y":2473535},"geometry":{"points":[[120.90611793379648,22.359149348748158]]}},{"attributes":{"OBJECTID":1848,"STATION_NA":"裕豐機車行","COUNTY_NA":"台東縣","ZIPCODE":"963","ADDRESS":"963台東縣太麻里鄉太麻里街58號","TEL":"08-9781236","LICENSE_NO":"V22","OWNER":"王吉春","LOCATION_T":"中華電信","LOCATION_X":249835,"LOCATION_Y":2501592},"geometry":{"points":[[121.00645262264111,22.612572396249284]]}},{"attributes":{"OBJECTID":1849,"STATION_NA":"鎮山機車行","COUNTY_NA":"台東縣","ZIPCODE":"963","ADDRESS":"963台東縣太麻里鄉多良村大溪133號","TEL":"08-9761125","LICENSE_NO":"V23","OWNER":"孔朝福","LOCATION_T":"中華電信","LOCATION_X":242781,"LOCATION_Y":2484868},"geometry":{"points":[[120.93789990947174,22.461518251348824]]}},{"attributes":{"OBJECTID":1850,"STATION_NA":"和興機車行","COUNTY_NA":"台東縣","ZIPCODE":"950","ADDRESS":"950台東縣台東市中正路260號","TEL":"08-9320686","LICENSE_NO":"V24","OWNER":"黃瑞榜","LOCATION_T":"地址對位","LOCATION_X":264941,"LOCATION_Y":2517482},"geometry":{"points":[[121.15355604431092,22.756016390565616]]}},{"attributes":{"OBJECTID":1851,"STATION_NA":"翔泰車業行","COUNTY_NA":"台東縣","ZIPCODE":"950","ADDRESS":"950台東縣台東市中華路一段216號","TEL":"08-9333196","LICENSE_NO":"V25","OWNER":"劉銘承","LOCATION_T":"地址對位","LOCATION_X":265153,"LOCATION_Y":2517592},"geometry":{"points":[[121.15562145345342,22.757008129014622]]}},{"attributes":{"OBJECTID":1852,"STATION_NA":"萬帥車業行","COUNTY_NA":"台東縣","ZIPCODE":"950","ADDRESS":"950台東縣台東市中華路二段286號","TEL":"08-9332533","LICENSE_NO":"V26","OWNER":"呂仁朝","LOCATION_T":"地址對位","LOCATION_X":263126,"LOCATION_Y":2516077},"geometry":{"points":[[121.13587068273721,22.743340853868979]]}},{"attributes":{"OBJECTID":1853,"STATION_NA":"佳金機車行","COUNTY_NA":"台東縣","ZIPCODE":"950","ADDRESS":"950台東縣台東市中華路二段812號","TEL":"08-9328750","LICENSE_NO":"V27","OWNER":"余清泉","LOCATION_T":"中華電信","LOCATION_X":262061,"LOCATION_Y":2515515},"geometry":{"points":[[121.12549680785743,22.7382730425571]]}},{"attributes":{"OBJECTID":1854,"STATION_NA":"主全機車行","COUNTY_NA":"台東縣","ZIPCODE":"950","ADDRESS":"950台東縣台東市中華路三段220號","TEL":"08-9325202","LICENSE_NO":"V28","OWNER":"黃尊醒","LOCATION_T":"地址對位","LOCATION_X":261460,"LOCATION_Y":2515202},"geometry":{"points":[[121.11964295387897,22.735450596796856]]}},{"attributes":{"OBJECTID":1855,"STATION_NA":"東德機車行","COUNTY_NA":"台東縣","ZIPCODE":"950","ADDRESS":"950台東縣台東市中興路六段756號","TEL":"08-9380511","LICENSE_NO":"V29","OWNER":"林秀蘭","LOCATION_T":"地址對位","LOCATION_X":254401,"LOCATION_Y":2518294},"geometry":{"points":[[121.05092764690076,22.76341026226034]]}},{"attributes":{"OBJECTID":1856,"STATION_NA":"浚貿車業有限公司","COUNTY_NA":"台東縣","ZIPCODE":"950","ADDRESS":"950台東縣台東市中興路六段843號","TEL":"08-9380311","LICENSE_NO":"V30","OWNER":"陳輝宗","LOCATION_T":"地址對位","LOCATION_X":254284,"LOCATION_Y":2518191},"geometry":{"points":[[121.04978800228463,22.762480372322788]]}},{"attributes":{"OBJECTID":1857,"STATION_NA":"連豐機車行","COUNTY_NA":"台東縣","ZIPCODE":"950","ADDRESS":"950台東縣台東市更生北路166號","TEL":"08-9223317","LICENSE_NO":"V31","OWNER":"黃青廉","LOCATION_T":"地址對位","LOCATION_X":261909,"LOCATION_Y":2520126},"geometry":{"points":[[121.1240535974991,22.779917927908986]]}},{"attributes":{"OBJECTID":1824,"STATION_NA":"吉輪機車行","COUNTY_NA":"花蓮縣","ZIPCODE":"971","ADDRESS":"971花蓮縣新城鄉北埔村180號","TEL":"03-8267657","LICENSE_NO":"U47","OWNER":"莊秋娥","LOCATION_T":"地址對位","LOCATION_X":310796,"LOCATION_Y":2659964},"geometry":{"points":[[121.60588726148497,24.041564907785599]]}},{"attributes":{"OBJECTID":1823,"STATION_NA":"幸輪機車行","COUNTY_NA":"花蓮縣","ZIPCODE":"983","ADDRESS":"983花蓮縣富里鄉萬寧村鎮寧158號","TEL":"03-8861193","LICENSE_NO":"U46","OWNER":"黃桂娥","LOCATION_T":"中華電信","LOCATION_X":279630,"LOCATION_Y":2572473},"geometry":{"points":[[121.29766719188869,23.252422162404581]]}},{"attributes":{"OBJECTID":1822,"STATION_NA":"順良機車行","COUNTY_NA":"花蓮縣","ZIPCODE":"970","ADDRESS":"970花蓮縣花蓮市節約街31號","TEL":"03-8325085","LICENSE_NO":"U45","OWNER":"陳志誠","LOCATION_T":"地址對位","LOCATION_X":310933,"LOCATION_Y":2652975},"geometry":{"points":[[121.60694641813363,23.978444579634647]]}},{"attributes":{"OBJECTID":1821,"STATION_NA":"建德機車行","COUNTY_NA":"花蓮縣","ZIPCODE":"970","ADDRESS":"970花蓮縣花蓮市府前路370號","TEL":"03-8228606","LICENSE_NO":"U44","OWNER":"吳勳南","LOCATION_T":"地址對位","LOCATION_X":312388,"LOCATION_Y":2655091},"geometry":{"points":[[121.62133560814748,23.997494880261087]]}},{"attributes":{"OBJECTID":1820,"STATION_NA":"永發輪機車行","COUNTY_NA":"花蓮縣","ZIPCODE":"970","ADDRESS":"970花蓮縣花蓮市尚志路55-1號","TEL":"03-8222633","LICENSE_NO":"U43","OWNER":"林明雄","LOCATION_T":"地址對位","LOCATION_X":311594,"LOCATION_Y":2655628},"geometry":{"points":[[121.61355410129757,24.002375751007165]]}},{"attributes":{"OBJECTID":1819,"STATION_NA":"俊達車業行","COUNTY_NA":"花蓮縣","ZIPCODE":"970","ADDRESS":"970花蓮縣花蓮市中正路258-2號","TEL":"03-8347107","LICENSE_NO":"U42","OWNER":"李俊緯","LOCATION_T":"地址對位","LOCATION_X":310330,"LOCATION_Y":2652357},"geometry":{"points":[[121.60099476026217,23.972887608705999]]}},{"attributes":{"OBJECTID":1818,"STATION_NA":"民豐車業行","COUNTY_NA":"花蓮縣","ZIPCODE":"970","ADDRESS":"970花蓮縣花蓮市中山路413-1號","TEL":"03-8337430","LICENSE_NO":"U41","OWNER":"林敬迸","LOCATION_T":"地址對位","LOCATION_X":310727,"LOCATION_Y":2653421},"geometry":{"points":[[121.6049406579067,23.98247996337054]]}},{"attributes":{"OBJECTID":1817,"STATION_NA":"成泰機車行","COUNTY_NA":"花蓮縣","ZIPCODE":"973","ADDRESS":"973花蓮縣吉安鄉建國路二段179號","TEL":"03-8576600","LICENSE_NO":"U40","OWNER":"莊曜澤","LOCATION_T":"地址對位","LOCATION_X":307930,"LOCATION_Y":2654454},"geometry":{"points":[[121.57749345523168,23.991914786604358]]}},{"attributes":{"OBJECTID":1816,"STATION_NA":"金榮機車行","COUNTY_NA":"花蓮縣","ZIPCODE":"973","ADDRESS":"973花蓮縣吉安鄉建國路二段161號","TEL":"03-8577730","LICENSE_NO":"U39","OWNER":"張金榮","LOCATION_T":"地址對位","LOCATION_X":307971,"LOCATION_Y":2654441},"geometry":{"points":[[121.57789590049261,23.99179586842963]]}},{"attributes":{"OBJECTID":1815,"STATION_NA":"升源機車行","COUNTY_NA":"花蓮縣","ZIPCODE":"973","ADDRESS":"973花蓮縣吉安鄉建國路一段150號","TEL":"03-8574546","LICENSE_NO":"U38","OWNER":"許明枝","LOCATION_T":"地址對位","LOCATION_X":309294,"LOCATION_Y":2653832},"geometry":{"points":[[121.59087427405576,23.986246567273948]]}},{"attributes":{"OBJECTID":1814,"STATION_NA":"豪邁輪業行","COUNTY_NA":"花蓮縣","ZIPCODE":"973","ADDRESS":"973花蓮縣吉安鄉北昌村自強路580號","TEL":"03-8463399","LICENSE_NO":"U37","OWNER":"張堂盛","LOCATION_T":"地址對位","LOCATION_X":309490,"LOCATION_Y":2653974},"geometry":{"points":[[121.59280638336317,23.987521339198448]]}},{"attributes":{"OBJECTID":1813,"STATION_NA":"新弘輝車業行","COUNTY_NA":"花蓮縣","ZIPCODE":"973","ADDRESS":"973花蓮縣吉安鄉仁和村海岸路694號","TEL":"03-8421961","LICENSE_NO":"U36","OWNER":"林素珍","LOCATION_T":"地址對位","LOCATION_X":308861,"LOCATION_Y":2648646},"geometry":{"points":[[121.58640863372007,23.939435008509882]]}},{"attributes":{"OBJECTID":1812,"STATION_NA":"永富機車行","COUNTY_NA":"花蓮縣","ZIPCODE":"973","ADDRESS":"973花蓮縣吉安鄉中山路二段161號1樓","TEL":"03-8520845","LICENSE_NO":"U35","OWNER":"許清富","LOCATION_T":"地址對位","LOCATION_X":308342,"LOCATION_Y":2652233},"geometry":{"points":[[121.58145380931914,23.971843673180558]]}},{"attributes":{"OBJECTID":1811,"STATION_NA":"永全機車行","COUNTY_NA":"花蓮縣","ZIPCODE":"976","ADDRESS":"976花蓮縣光復鄉大安村中山路二段155-1號","TEL":"03-8700476","LICENSE_NO":"U34","OWNER":"林美英","LOCATION_T":"地址對位","LOCATION_X":292291,"LOCATION_Y":2618116},"geometry":{"points":[[121.42272205917563,23.664293915805985]]}},{"attributes":{"OBJECTID":1810,"STATION_NA":"皇家車業行","COUNTY_NA":"花蓮縣","ZIPCODE":"981","ADDRESS":"981花蓮縣玉里鎮中華路307號","TEL":"03-8882748","LICENSE_NO":"U33","OWNER":"簡見元","LOCATION_T":"地址對位","LOCATION_X":281512,"LOCATION_Y":2582314},"geometry":{"points":[[121.3162746866109,23.341253087731928]]}},{"attributes":{"OBJECTID":1809,"STATION_NA":"豐源機車行","COUNTY_NA":"花蓮縣","ZIPCODE":"975","ADDRESS":"975花蓮縣鳳林鎮中和路176號","TEL":"03-8762474","LICENSE_NO":"U30","OWNER":"張秀玲","LOCATION_T":"地址對位","LOCATION_X":295117,"LOCATION_Y":2627423},"geometry":{"points":[[121.45071982128442,23.748253511877728]]}},{"attributes":{"OBJECTID":1808,"STATION_NA":"慶大機車行","COUNTY_NA":"花蓮縣","ZIPCODE":"978","ADDRESS":"978花蓮縣瑞穗鄉中正南路174號","TEL":"03-8872258","LICENSE_NO":"U29","OWNER":"王順木","LOCATION_T":"地址對位","LOCATION_X":287553,"LOCATION_Y":2598760},"geometry":{"points":[[121.37577430391313,23.489632703126777]]}},{"attributes":{"OBJECTID":1807,"STATION_NA":"富泰車業行","COUNTY_NA":"花蓮縣","ZIPCODE":"978","ADDRESS":"978花蓮縣瑞穗鄉瑞穗村中華路6號","TEL":"03-8870802","LICENSE_NO":"U28","OWNER":"賴坤旺","LOCATION_T":"地址對位","LOCATION_X":287743,"LOCATION_Y":2599731},"geometry":{"points":[[121.37765956926299,23.4983963945227]]}},{"attributes":{"OBJECTID":1806,"STATION_NA":"安輪機車行","COUNTY_NA":"花蓮縣","ZIPCODE":"971","ADDRESS":"971花蓮縣新城鄉嘉里路26號","TEL":"03-8267692","LICENSE_NO":"U27","OWNER":"張  益","LOCATION_T":"地址對位","LOCATION_X":311223,"LOCATION_Y":2657433},"geometry":{"points":[[121.60998158709339,24.018691159715573]]}},{"attributes":{"OBJECTID":1805,"STATION_NA":"鴻輪機車行","COUNTY_NA":"花蓮縣","ZIPCODE":"971","ADDRESS":"971花蓮縣新城鄉嘉里路12號","TEL":"03-8263812","LICENSE_NO":"U26","OWNER":"劉阿煌","LOCATION_T":"地址對位","LOCATION_X":311234,"LOCATION_Y":2657392},"geometry":{"points":[[121.61008804112723,24.018320455178287]]}},{"attributes":{"OBJECTID":1804,"STATION_NA":"明安機車行","COUNTY_NA":"花蓮縣","ZIPCODE":"971","ADDRESS":"971花蓮縣新城鄉新興路12之1號","TEL":"03-8611608","LICENSE_NO":"U25","OWNER":"鄭明安","LOCATION_T":"地址對位","LOCATION_X":314651,"LOCATION_Y":2669753},"geometry":{"points":[[121.64423232941432,24.129796961446502]]}},{"attributes":{"OBJECTID":1803,"STATION_NA":"詠聖車業行","COUNTY_NA":"花蓮縣","ZIPCODE":"970","ADDRESS":"970花蓮縣花蓮市建國路92號","TEL":"03-8330037","LICENSE_NO":"U24","OWNER":"周振才","LOCATION_T":"地址對位","LOCATION_X":310560,"LOCATION_Y":2653547},"geometry":{"points":[[121.60330469367257,23.98362423687691]]}},{"attributes":{"OBJECTID":1802,"STATION_NA":"慶昌機車行","COUNTY_NA":"花蓮縣","ZIPCODE":"970","ADDRESS":"970花蓮縣花蓮市南京街152號","TEL":"03-8354395","LICENSE_NO":"U23","OWNER":"王玉珠","LOCATION_T":"地址對位","LOCATION_X":310681,"LOCATION_Y":2652394},"geometry":{"points":[[121.60444553686044,23.973208108019481]]}},{"attributes":{"OBJECTID":1801,"STATION_NA":"三統車業行","COUNTY_NA":"花蓮縣","ZIPCODE":"970","ADDRESS":"970花蓮縣花蓮市中華路469之6號1樓","TEL":"03-8530759","LICENSE_NO":"U22","OWNER":"蔡淑麗","LOCATION_T":"地址對位","LOCATION_X":309164,"LOCATION_Y":2652482},"geometry":{"points":[[121.58954166313859,23.974061056951385]]}},{"attributes":{"OBJECTID":1858,"STATION_NA":"泉川車業行","COUNTY_NA":"台東縣","ZIPCODE":"950","ADDRESS":"950台東縣台東市更生路139號","TEL":"08-9325166","LICENSE_NO":"V32","OWNER":"鄭國華","LOCATION_T":"地址對位","LOCATION_X":264305,"LOCATION_Y":2517818},"geometry":{"points":[[121.14736629168166,22.759056181418654]]}},{"attributes":{"OBJECTID":1859,"STATION_NA":"祥發機車行","COUNTY_NA":"台東縣","ZIPCODE":"950","ADDRESS":"950台東縣台東市更生路691號","TEL":"08-9231780","LICENSE_NO":"V33","OWNER":"黃福生","LOCATION_T":"地址對位","LOCATION_X":263256,"LOCATION_Y":2518685},"geometry":{"points":[[121.13715925263493,22.766894492137983]]}},{"attributes":{"OBJECTID":1860,"STATION_NA":"常興機車行","COUNTY_NA":"台東縣","ZIPCODE":"950","ADDRESS":"950台東縣台東市松江路一段110號","TEL":"08-9281492","LICENSE_NO":"V34","OWNER":"徐常興","LOCATION_T":"中華電信","LOCATION_X":268485,"LOCATION_Y":2521673},"geometry":{"points":[[121.18811629936611,22.79383369388799]]}},{"attributes":{"OBJECTID":1861,"STATION_NA":"長興機車行","COUNTY_NA":"台東縣","ZIPCODE":"950","ADDRESS":"950台東縣台東市建興路8號","TEL":"08-9513658","LICENSE_NO":"V35","OWNER":"王長興","LOCATION_T":"中華電信","LOCATION_X":253262,"LOCATION_Y":2511917},"geometry":{"points":[[121.03981846971487,22.705821542308399]]}},{"attributes":{"OBJECTID":1862,"STATION_NA":"樺陽車業行","COUNTY_NA":"台東縣","ZIPCODE":"950","ADDRESS":"950台東縣台東市新生路75號","TEL":"08-9341771","LICENSE_NO":"V36","OWNER":"王晃華","LOCATION_T":"地址對位","LOCATION_X":264478,"LOCATION_Y":2516997},"geometry":{"points":[[121.14904306559789,22.751639656229969]]}},{"attributes":{"OBJECTID":1863,"STATION_NA":"宏泰機車行","COUNTY_NA":"台東縣","ZIPCODE":"950","ADDRESS":"950台東縣台東市廣東路273號","TEL":"08-9325534","LICENSE_NO":"V37","OWNER":"蘇天壽","LOCATION_T":"地址對位","LOCATION_X":264916,"LOCATION_Y":2517009},"geometry":{"points":[[121.15330798039557,22.751744488536296]]}},{"attributes":{"OBJECTID":1864,"STATION_NA":"幸主機車行","COUNTY_NA":"台東縣","ZIPCODE":"961","ADDRESS":"961台東縣成功鎮中山路155號","TEL":"08-9850018","LICENSE_NO":"V38","OWNER":"陳幸主","LOCATION_T":"中華電信","LOCATION_X":288221,"LOCATION_Y":2556354},"geometry":{"points":[[121.38121385339322,23.106687480251832]]}},{"attributes":{"OBJECTID":1865,"STATION_NA":"順億車業行","COUNTY_NA":"台東縣","ZIPCODE":"958","ADDRESS":"958台東縣池上鄉中山路89號","TEL":"08-9864848","LICENSE_NO":"V39","OWNER":"許永良","LOCATION_T":"中華電信","LOCATION_X":271132,"LOCATION_Y":2557988},"geometry":{"points":[[121.21441098810969,23.12175637459892]]}},{"attributes":{"OBJECTID":1866,"STATION_NA":"義興機車行","COUNTY_NA":"台東縣","ZIPCODE":"958","ADDRESS":"958台東縣池上鄉福文村大同路33號","TEL":"08-9862490","LICENSE_NO":"V40","OWNER":"潘興義","LOCATION_T":"中華電信","LOCATION_X":271457,"LOCATION_Y":2558549},"geometry":{"points":[[121.21759239572862,23.126817748599272]]}},{"attributes":{"OBJECTID":1867,"STATION_NA":"萬豐車業行","COUNTY_NA":"台東縣","ZIPCODE":"958","ADDRESS":"958台東縣池上鄉福原村慶福路69號","TEL":"08-9862458","LICENSE_NO":"V41","OWNER":"萬榮烜","LOCATION_T":"中華電信","LOCATION_X":271921,"LOCATION_Y":2558404},"geometry":{"points":[[121.22212049685585,23.125502220776859]]}},{"attributes":{"OBJECTID":1868,"STATION_NA":"天鎰機車行","COUNTY_NA":"台東縣","ZIPCODE":"954","ADDRESS":"954台東縣卑南鄉太平村太平路362號","TEL":"08-9382592","LICENSE_NO":"V42","OWNER":"姚美玲","LOCATION_T":"中華電信","LOCATION_X":257828,"LOCATION_Y":2520600},"geometry":{"points":[[121.0843113690609,22.784223234663312]]}},{"attributes":{"OBJECTID":1869,"STATION_NA":"進宏機車行","COUNTY_NA":"台東縣","ZIPCODE":"959","ADDRESS":"959台東縣東河鄉都蘭村都蘭134號","TEL":"08-9531252","LICENSE_NO":"V43","OWNER":"莊沈靜花","LOCATION_T":"中華電信","LOCATION_X":272494,"LOCATION_Y":2530462},"geometry":{"points":[[121.22729532724357,22.873157036493421]]}},{"attributes":{"OBJECTID":1870,"STATION_NA":"皇泰機車行","COUNTY_NA":"台東縣","ZIPCODE":"962","ADDRESS":"962台東縣長濱鄉長濱村長濱路90號","TEL":"08-9831282","LICENSE_NO":"V44","OWNER":"王崑源","LOCATION_T":"地址對位","LOCATION_X":295760,"LOCATION_Y":2579741},"geometry":{"points":[[121.45553222092691,23.317676792230603]]}},{"attributes":{"OBJECTID":1871,"STATION_NA":"振發機車行","COUNTY_NA":"台東縣","ZIPCODE":"955","ADDRESS":"955台東縣鹿野鄉鹿野村中華路二段119號","TEL":"08-9551060","LICENSE_NO":"V45","OWNER":"林水發","LOCATION_T":"地址對位","LOCATION_X":263128,"LOCATION_Y":2534943},"geometry":{"points":[[121.13605493966747,22.913723268437518]]}},{"attributes":{"OBJECTID":1872,"STATION_NA":"上好車業行","COUNTY_NA":"台東縣","ZIPCODE":"956","ADDRESS":"956台東縣關山鎮和平路136-9號","TEL":"08-9812015","LICENSE_NO":"V46","OWNER":"張正綱","LOCATION_T":"中華電信","LOCATION_X":266125,"LOCATION_Y":2550153},"geometry":{"points":[[121.1654369141398,23.051059156977939]]}}]}