{"displayFieldName":"STATION_NA","fieldAliases":{"OBJECTID":"OBJECTID","STATION_NA":"STATION_NA","COUNTY_NA":"COUNTY_NA","ZIPCODE":"ZIPCODE","ADDRESS":"ADDRESS","TEL":"TEL","LICENSE_NO":"LICENSE_NO","OWNER":"OWNER","LOCATION_T":"LOCATION_T","LOCATION_X":"LOCATION_X","LOCATION_Y":"LOCATION_Y"},"geometryType":"esriGeometryMultipoint","spatialReference":{"wkid":104137},"fields":[{"name":"OBJECTID","type":"esriFieldTypeOID","alias":"OBJECTID"},{"name":"STATION_NA","type":"esriFieldTypeString","alias":"STATION_NA","length":30},{"name":"COUNTY_NA","type":"esriFieldTypeString","alias":"COUNTY_NA","length":6},{"name":"ZIPCODE","type":"esriFieldTypeString","alias":"ZIPCODE","length":4},{"name":"ADDRESS","type":"esriFieldTypeString","alias":"ADDRESS","length":40},{"name":"TEL","type":"esriFieldTypeString","alias":"TEL","length":11},{"name":"LICENSE_NO","type":"esriFieldTypeString","alias":"LICENSE_NO","length":3},{"name":"OWNER","type":"esriFieldTypeString","alias":"OWNER","length":10},{"name":"LOCATION_T","type":"esriFieldTypeString","alias":"LOCATION_T","length":10},{"name":"LOCATION_X","type":"esriFieldTypeDouble","alias":"LOCATION_X"},{"name":"LOCATION_Y","type":"esriFieldTypeDouble","alias":"LOCATION_Y"}],"features":[{"attributes":{"OBJECTID":601,"STATION_NA":"銘曜機車行","COUNTY_NA":"台北縣","ZIPCODE":"247","ADDRESS":"247台北縣蘆洲市中正路185巷40號","TEL":"02-22826838","LICENSE_NO":"FN4","OWNER":"邱仕銘","LOCATION_T":"地址對位","LOCATION_X":296324,"LOCATION_Y":2775480},"geometry":{"points":[[121.46747491274593,25.085018848126918]]}},{"attributes":{"OBJECTID":602,"STATION_NA":"東興機車行","COUNTY_NA":"台北縣","ZIPCODE":"247","ADDRESS":"247台北縣蘆洲市九芎街90巷23號","TEL":"02-22857593","LICENSE_NO":"FN5","OWNER":"柯雪葒","LOCATION_T":"地址對位","LOCATION_X":296037,"LOCATION_Y":2775053},"geometry":{"points":[[121.46461515923946,25.081172836709861]]}},{"attributes":{"OBJECTID":603,"STATION_NA":"偉鼎車業有限公司","COUNTY_NA":"台北縣","ZIPCODE":"238","ADDRESS":"238台北縣樹林鎮中正路660號","TEL":"02-26896687","LICENSE_NO":"FN6","OWNER":"鍾文宗","LOCATION_T":"地址對位","LOCATION_X":290482,"LOCATION_Y":2767863},"geometry":{"points":[[121.40933033620847,25.016421495987618]]}},{"attributes":{"OBJECTID":604,"STATION_NA":"松興機車行","COUNTY_NA":"台北縣","ZIPCODE":"238","ADDRESS":"238台北縣樹林鎮八德街107號","TEL":"02-86845848","LICENSE_NO":"FN7","OWNER":"陳清波","LOCATION_T":"地址對位","LOCATION_X":291597,"LOCATION_Y":2763926},"geometry":{"points":[[121.42025436173256,24.980848823783674]]}},{"attributes":{"OBJECTID":605,"STATION_NA":"益宏機車行","COUNTY_NA":"台北縣","ZIPCODE":"238","ADDRESS":"238台北縣樹林鎮樹新路148號","TEL":"02-26821655","LICENSE_NO":"FN9","OWNER":"陳蕭麗華","LOCATION_T":"地址對位","LOCATION_X":292633,"LOCATION_Y":2765934},"geometry":{"points":[[121.43058071653488,24.998946854357332]]}},{"attributes":{"OBJECTID":606,"STATION_NA":"慶旺車業行","COUNTY_NA":"台北縣","ZIPCODE":"243","ADDRESS":"243台北縣泰山鄉明志路2段304號","TEL":"02-22963892","LICENSE_NO":"FO0","OWNER":"劉美菁","LOCATION_T":"地址對位","LOCATION_X":292189,"LOCATION_Y":2771192},"geometry":{"points":[[121.42634759479915,25.046429040294804]]}},{"attributes":{"OBJECTID":607,"STATION_NA":"榮泰機車行","COUNTY_NA":"台北縣","ZIPCODE":"243","ADDRESS":"243台北縣泰山鄉明志路2段333號","TEL":"02-29032160","LICENSE_NO":"FO1","OWNER":"蔡金土","LOCATION_T":"地址對位","LOCATION_X":292132,"LOCATION_Y":2771012},"geometry":{"points":[[121.42577706011006,25.044805521755912]]}},{"attributes":{"OBJECTID":608,"STATION_NA":"暐達車業行","COUNTY_NA":"台北縣","ZIPCODE":"243","ADDRESS":"243台北縣泰山鄉明志路3段72號","TEL":"02-29065820","LICENSE_NO":"FO2","OWNER":"吳進江","LOCATION_T":"地址對位","LOCATION_X":292032,"LOCATION_Y":2770681},"geometry":{"points":[[121.42477568188836,25.04181995385601]]}},{"attributes":{"OBJECTID":609,"STATION_NA":"大運車輛企業有限公司","COUNTY_NA":"台北縣","ZIPCODE":"243","ADDRESS":"243台北縣泰山鄉泰林路2段178號","TEL":"02-29099223","LICENSE_NO":"FO3","OWNER":"李宗德","LOCATION_T":"地址對位","LOCATION_X":292934,"LOCATION_Y":2772782},"geometry":{"points":[[121.43378168139974,25.060762974087964]]}},{"attributes":{"OBJECTID":610,"STATION_NA":"德隆機車行","COUNTY_NA":"台北縣","ZIPCODE":"243","ADDRESS":"243台北縣泰山鄉泰林路2段418號","TEL":"02-29096082","LICENSE_NO":"FO4","OWNER":"江素慧","LOCATION_T":"地址對位","LOCATION_X":292257,"LOCATION_Y":2773193},"geometry":{"points":[[121.42708454225017,25.064493390557608]]}},{"attributes":{"OBJECTID":611,"STATION_NA":"勝得機車行","COUNTY_NA":"台北縣","ZIPCODE":"243","ADDRESS":"243台北縣泰山鄉泰林路2段568號","TEL":"02-22967566","LICENSE_NO":"FO5","OWNER":"周榮貴","LOCATION_T":"地址對位","LOCATION_X":291801,"LOCATION_Y":2773109},"geometry":{"points":[[121.42256212660591,25.063748070029039]]}},{"attributes":{"OBJECTID":612,"STATION_NA":"林口車業有限公司","COUNTY_NA":"台北縣","ZIPCODE":"244","ADDRESS":"244台北縣林口鄉新寮1-45號","TEL":"02-26018540","LICENSE_NO":"FO6","OWNER":"曾昆","LOCATION_T":"地址對位","LOCATION_X":288753,"LOCATION_Y":2774495},"geometry":{"points":[[121.39239172814359,25.076347291185133]]}},{"attributes":{"OBJECTID":613,"STATION_NA":"成發機車行","COUNTY_NA":"台北縣","ZIPCODE":"248","ADDRESS":"248台北縣五股鄉成泰路3段593號","TEL":"02-22914313","LICENSE_NO":"FO7","OWNER":"黃玲瑩","LOCATION_T":"地址對位","LOCATION_X":294791,"LOCATION_Y":2777464},"geometry":{"points":[[121.45234359994839,25.102978149140458]]}},{"attributes":{"OBJECTID":614,"STATION_NA":"民義機車行","COUNTY_NA":"台北縣","ZIPCODE":"248","ADDRESS":"248台北縣五股鄉民義路1段158號","TEL":"02-22922697","LICENSE_NO":"FO8","OWNER":"陳煌","LOCATION_T":"地址對位","LOCATION_X":292861,"LOCATION_Y":2775754},"geometry":{"points":[[121.43315353839964,25.087598198601754]]}},{"attributes":{"OBJECTID":615,"STATION_NA":"新旺機車行","COUNTY_NA":"台北縣","ZIPCODE":"248","ADDRESS":"248台北縣五股鄉四維路82號","TEL":"02-29812983","LICENSE_NO":"FO9","OWNER":"葉寶治","LOCATION_T":"地址對位","LOCATION_X":296333,"LOCATION_Y":2774137},"geometry":{"points":[[121.46751793187805,25.072893873740924]]}},{"attributes":{"OBJECTID":616,"STATION_NA":"高易福車業有限公司","COUNTY_NA":"台北縣","ZIPCODE":"221","ADDRESS":"221台北縣汐止鎮新台五路2段68號","TEL":"02-26418407","LICENSE_NO":"FP0","OWNER":"高義福","LOCATION_T":"地址對位","LOCATION_X":315920,"LOCATION_Y":2773395},"geometry":{"points":[[121.66163166948424,25.065454689789892]]}},{"attributes":{"OBJECTID":617,"STATION_NA":"文陽車業有限公司","COUNTY_NA":"台北縣","ZIPCODE":"221","ADDRESS":"221台北縣汐止鎮大同路2段483號1F","TEL":"02-26423566","LICENSE_NO":"FP1","OWNER":"吳營","LOCATION_T":"地址對位","LOCATION_X":315815,"LOCATION_Y":2773732},"geometry":{"points":[[121.6606073403739,25.068501791477658]]}},{"attributes":{"OBJECTID":618,"STATION_NA":"周清波車業有限公司","COUNTY_NA":"台北縣","ZIPCODE":"221","ADDRESS":"221台北縣汐止鎮忠孝東路273號","TEL":"02-26412258","LICENSE_NO":"FP2","OWNER":"李麗桂","LOCATION_T":"地址對位","LOCATION_X":316129,"LOCATION_Y":2773720},"geometry":{"points":[[121.66371901258934,25.068379556365674]]}},{"attributes":{"OBJECTID":619,"STATION_NA":"利祥機車行","COUNTY_NA":"台北縣","ZIPCODE":"228","ADDRESS":"228台北縣貢寮鄉仁和路244號","TEL":"02-24901240","LICENSE_NO":"FP3","OWNER":"吳進財","LOCATION_T":"地址對位","LOCATION_X":342431,"LOCATION_Y":2772261},"geometry":{"points":[[121.92432367861123,25.053821755814749]]}},{"attributes":{"OBJECTID":620,"STATION_NA":"日發機車行","COUNTY_NA":"台北縣","ZIPCODE":"226","ADDRESS":"226台北縣平溪鄉石底街76號","TEL":"02-24951462","LICENSE_NO":"FP4","OWNER":"李明宏","LOCATION_T":"中華電信","LOCATION_X":323548,"LOCATION_Y":2768866},"geometry":{"points":[[121.73699713966248,25.024205515271216]]}},{"attributes":{"OBJECTID":621,"STATION_NA":"頂立車業行","COUNTY_NA":"台北縣","ZIPCODE":"249","ADDRESS":"249台北縣八里鄉龍米路二段192號","TEL":"02-26103352","LICENSE_NO":"FP5","OWNER":"周美蓮","LOCATION_T":"中華電信","LOCATION_X":292905,"LOCATION_Y":2783611},"geometry":{"points":[[121.43383980552782,25.158531578505794]]}},{"attributes":{"OBJECTID":622,"STATION_NA":"協勝車業行","COUNTY_NA":"台北縣","ZIPCODE":"249","ADDRESS":"249台北縣八里鄉中山路二段117號","TEL":"02-26102388","LICENSE_NO":"FP6","OWNER":"楊進峰","LOCATION_T":"地址對位","LOCATION_X":289946,"LOCATION_Y":2782634},"geometry":{"points":[[121.40446193180487,25.149798024145625]]}},{"attributes":{"OBJECTID":623,"STATION_NA":"加益車業有限公司","COUNTY_NA":"台北縣","ZIPCODE":"251","ADDRESS":"251台北縣淡水鎮中山北路1段209號","TEL":"02-26231239","LICENSE_NO":"FP7","OWNER":"李火城","LOCATION_T":"地址對位","LOCATION_X":293936,"LOCATION_Y":2785890},"geometry":{"points":[[121.44413925348736,25.179075120131355]]}},{"attributes":{"OBJECTID":624,"STATION_NA":"德欣機車行","COUNTY_NA":"台北縣","ZIPCODE":"251","ADDRESS":"251台北縣淡水鎮北新路74號","TEL":"02-26298562","LICENSE_NO":"FP8","OWNER":"潘錦秀","LOCATION_T":"地址對位","LOCATION_X":294171,"LOCATION_Y":2785797},"geometry":{"points":[[121.44646766382701,25.178228449585905]]}},{"attributes":{"OBJECTID":625,"STATION_NA":"順聯車業有限公司","COUNTY_NA":"台北縣","ZIPCODE":"251","ADDRESS":"251台北縣淡水鎮學府路3號","TEL":"02-26213503","LICENSE_NO":"FP9","OWNER":"王明和","LOCATION_T":"地址對位","LOCATION_X":294283,"LOCATION_Y":2784644},"geometry":{"points":[[121.44754153214598,25.167815831889598]]}},{"attributes":{"OBJECTID":626,"STATION_NA":"偉亨車業有限公司","COUNTY_NA":"台北縣","ZIPCODE":"253","ADDRESS":"253台北縣石門鄉老梅路76號1F","TEL":"02-26381353","LICENSE_NO":"FQ0","OWNER":"潘張秀蘭","LOCATION_T":"地址對位","LOCATION_X":304249,"LOCATION_Y":2798118},"geometry":{"points":[[121.54695218283534,25.289122416245654]]}},{"attributes":{"OBJECTID":627,"STATION_NA":"正新機車材料行","COUNTY_NA":"台北縣","ZIPCODE":"252","ADDRESS":"252台北縣三芝鄉淡金路二段18號","TEL":"02-26362233","LICENSE_NO":"FQ1","OWNER":"王宏仁","LOCATION_T":"地址對位","LOCATION_X":299792,"LOCATION_Y":2794850},"geometry":{"points":[[121.50257078881657,25.259777715503969]]}},{"attributes":{"OBJECTID":628,"STATION_NA":"銓利機車行","COUNTY_NA":"台北縣","ZIPCODE":"222","ADDRESS":"222台北縣深坑鄉北深路一段114號1樓","TEL":" ","LICENSE_NO":"FQ2","OWNER":"羅興強","LOCATION_T":"地址對位","LOCATION_X":313291,"LOCATION_Y":2767346},"geometry":{"points":[[121.63529255705924,25.010959489091114]]}},{"attributes":{"OBJECTID":629,"STATION_NA":"大祥盛車業行","COUNTY_NA":"台北縣","ZIPCODE":"222","ADDRESS":"222台北縣深坑鄉文化街118號","TEL":" ","LICENSE_NO":"FQ3","OWNER":"張美慧","LOCATION_T":"地址對位","LOCATION_X":311383,"LOCATION_Y":2766343},"geometry":{"points":[[121.61634460691246,25.001984574087938]]}},{"attributes":{"OBJECTID":630,"STATION_NA":"燁晉機車行","COUNTY_NA":"宜蘭縣","ZIPCODE":"266","ADDRESS":"266宜蘭縣三星鄉太平路126號","TEL":"03-9894101","LICENSE_NO":"G01","OWNER":"謝錳維","LOCATION_T":"地址對位","LOCATION_X":315263,"LOCATION_Y":2729225},"geometry":{"points":[[121.65302953121017,24.666715349224695]]}},{"attributes":{"OBJECTID":631,"STATION_NA":"飛帝機車行","COUNTY_NA":"宜蘭縣","ZIPCODE":"268","ADDRESS":"268宜蘭縣五結鄉中正路三段51號","TEL":"03-9545488","LICENSE_NO":"G02","OWNER":"呂春茶","LOCATION_T":"地址對位","LOCATION_X":327112,"LOCATION_Y":2733410},"geometry":{"points":[[121.77032467421094,24.703941553606356]]}},{"attributes":{"OBJECTID":632,"STATION_NA":"萬益機車行","COUNTY_NA":"宜蘭縣","ZIPCODE":"268","ADDRESS":"268宜蘭縣五結鄉五結中路25-2號","TEL":"03-9502173","LICENSE_NO":"G03","OWNER":"林金鳳","LOCATION_T":"地址對位","LOCATION_X":329895,"LOCATION_Y":2731381},"geometry":{"points":[[121.79771151967418,24.685478762510915]]}},{"attributes":{"OBJECTID":633,"STATION_NA":"元成車業行","COUNTY_NA":"宜蘭縣","ZIPCODE":"268","ADDRESS":"268宜蘭縣五結鄉五結路1-13號","TEL":"03-9503503","LICENSE_NO":"G04","OWNER":"謝春子","LOCATION_T":"地址對位","LOCATION_X":330052,"LOCATION_Y":2731376},"geometry":{"points":[[121.79926260674921,24.685425347365157]]}},{"attributes":{"OBJECTID":634,"STATION_NA":"和益機車行","COUNTY_NA":"宜蘭縣","ZIPCODE":"268","ADDRESS":"268宜蘭縣五結鄉利澤東路51號","TEL":"03-9503962","LICENSE_NO":"G05","OWNER":"林福琳","LOCATION_T":"地址對位","LOCATION_X":332479,"LOCATION_Y":2729513},"geometry":{"points":[[121.82313414564975,24.668475913480489]]}},{"attributes":{"OBJECTID":635,"STATION_NA":"益大機車行","COUNTY_NA":"宜蘭縣","ZIPCODE":"269","ADDRESS":"269宜蘭縣冬山鄉冬山村冬山路323號","TEL":"03-9591814","LICENSE_NO":"G06","OWNER":"黃秋蕙","LOCATION_T":"地址對位","LOCATION_X":329011,"LOCATION_Y":2725793},"geometry":{"points":[[121.78865906647738,24.635074935536501]]}},{"attributes":{"OBJECTID":636,"STATION_NA":"欣記機車行","COUNTY_NA":"宜蘭縣","ZIPCODE":"269","ADDRESS":"269宜蘭縣冬山鄉義成路二段352號1樓","TEL":"03-9585581","LICENSE_NO":"G07","OWNER":"游本陽","LOCATION_T":"地址對位","LOCATION_X":326821,"LOCATION_Y":2728912},"geometry":{"points":[[121.76720008218084,24.663346919186843]]}},{"attributes":{"OBJECTID":637,"STATION_NA":"東昌機車行","COUNTY_NA":"宜蘭縣","ZIPCODE":"263","ADDRESS":"263宜蘭縣壯圍鄉大福路11-30號","TEL":"03-9303419","LICENSE_NO":"G08","OWNER":"黃秀玲","LOCATION_T":"地址對位","LOCATION_X":330830,"LOCATION_Y":2743572},"geometry":{"points":[[121.80765889336034,24.795491213573765]]}},{"attributes":{"OBJECTID":638,"STATION_NA":"壯六機車行","COUNTY_NA":"宜蘭縣","ZIPCODE":"260","ADDRESS":"263宜蘭縣宜蘭市延平里東港路32-35號1F","TEL":"03-9388160","LICENSE_NO":"G09","OWNER":"黃錫邽","LOCATION_T":"地址對位","LOCATION_X":326585,"LOCATION_Y":2738751},"geometry":{"points":[[121.76541064249915,24.752187636293023]]}},{"attributes":{"OBJECTID":639,"STATION_NA":"國遠機車行","COUNTY_NA":"宜蘭縣","ZIPCODE":"263","ADDRESS":"263宜蘭縣壯圍鄉過嶺路85-8號","TEL":"03-9301521","LICENSE_NO":"G10","OWNER":"李茂生","LOCATION_T":"地址對位","LOCATION_X":331674,"LOCATION_Y":2738784},"geometry":{"points":[[121.81572520379511,24.752219929600269]]}},{"attributes":{"OBJECTID":640,"STATION_NA":"良達機車行","COUNTY_NA":"宜蘭縣","ZIPCODE":"260","ADDRESS":"260宜蘭縣宜蘭市中山路273號","TEL":"03-9325450","LICENSE_NO":"G11","OWNER":"陳碧娥","LOCATION_T":"地址對位","LOCATION_X":325417,"LOCATION_Y":2739900},"geometry":{"points":[[121.75392544922448,24.762619171472977]]}},{"attributes":{"OBJECTID":641,"STATION_NA":"良勝車業有限公司","COUNTY_NA":"宜蘭縣","ZIPCODE":"260","ADDRESS":"260宜蘭縣宜蘭市中山路297號","TEL":"03-9358166","LICENSE_NO":"G12","OWNER":"楊良樹","LOCATION_T":"地址對位","LOCATION_X":325439,"LOCATION_Y":2739955},"geometry":{"points":[[121.75414596962534,24.763114610161882]]}},{"attributes":{"OBJECTID":642,"STATION_NA":"善志企業有限公司","COUNTY_NA":"宜蘭縣","ZIPCODE":"260","ADDRESS":"260宜蘭縣宜蘭市中山路307號","TEL":"03-9322739","LICENSE_NO":"G13","OWNER":"林茂松","LOCATION_T":"地址對位","LOCATION_X":325448,"LOCATION_Y":2739979},"geometry":{"points":[[121.75423626832097,24.763330831317564]]}},{"attributes":{"OBJECTID":643,"STATION_NA":"格致機車行","COUNTY_NA":"宜蘭縣","ZIPCODE":"260","ADDRESS":"260宜蘭縣宜蘭市茭白里吳沙路71號1樓","TEL":"03-9285189","LICENSE_NO":"G14","OWNER":"林月娥","LOCATION_T":"地址對位","LOCATION_X":325509,"LOCATION_Y":2741885},"geometry":{"points":[[121.75494369115724,24.780535449316073]]}},{"attributes":{"OBJECTID":644,"STATION_NA":"雷虎車業行","COUNTY_NA":"宜蘭縣","ZIPCODE":"260","ADDRESS":"260宜蘭縣宜蘭市和睦里宜興路一段9號","TEL":"03-9356565","LICENSE_NO":"G15","OWNER":"陳美櫻","LOCATION_T":"地址對位","LOCATION_X":325523,"LOCATION_Y":2738354},"geometry":{"points":[[121.75488927112389,24.748656713635572]]}},{"attributes":{"OBJECTID":645,"STATION_NA":"信興機車行","COUNTY_NA":"宜蘭縣","ZIPCODE":"260","ADDRESS":"260宜蘭縣宜蘭市泰山路72之1號","TEL":"03-9367479","LICENSE_NO":"G16","OWNER":"吳金鳳","LOCATION_T":"地址對位","LOCATION_X":324560,"LOCATION_Y":2738986},"geometry":{"points":[[121.74540263105864,24.754410091110319]]}},{"attributes":{"OBJECTID":646,"STATION_NA":"和昇機車行","COUNTY_NA":"宜蘭縣","ZIPCODE":"260","ADDRESS":"260宜蘭縣宜蘭市慈安里東港路52-5號","TEL":"03-9382922","LICENSE_NO":"G17","OWNER":"王銅明","LOCATION_T":"地址對位","LOCATION_X":326964,"LOCATION_Y":2738621},"geometry":{"points":[[121.76915052740996,24.750994875484931]]}},{"attributes":{"OBJECTID":647,"STATION_NA":"永成機車行","COUNTY_NA":"宜蘭縣","ZIPCODE":"264","ADDRESS":"264宜蘭縣員山鄉蓁巷村員山路二段368號1樓","TEL":"03-9225862","LICENSE_NO":"G18","OWNER":"林續微","LOCATION_T":"中華電信","LOCATION_X":318513,"LOCATION_Y":2734013},"geometry":{"points":[[121.68537252177735,24.709799748028608]]}},{"attributes":{"OBJECTID":648,"STATION_NA":"中興機車行","COUNTY_NA":"宜蘭縣","ZIPCODE":"264","ADDRESS":"264宜蘭縣員山鄉員山路一段310號","TEL":"03-9223770","LICENSE_NO":"G19","OWNER":"林永嘉","LOCATION_T":"地址對位","LOCATION_X":322370,"LOCATION_Y":2737786},"geometry":{"points":[[121.72368768764196,24.743682948158533]]}},{"attributes":{"OBJECTID":649,"STATION_NA":"協昌機車行","COUNTY_NA":"宜蘭縣","ZIPCODE":"261","ADDRESS":"261宜蘭縣頭城鎮青雲路48號","TEL":"03-9772328","LICENSE_NO":"G20","OWNER":"簡素月","LOCATION_T":"地址對位","LOCATION_X":332530,"LOCATION_Y":2750376},"geometry":{"points":[[121.82487774463394,24.856827195042214]]}},{"attributes":{"OBJECTID":650,"STATION_NA":"新東機車行","COUNTY_NA":"宜蘭縣","ZIPCODE":"261","ADDRESS":"261宜蘭縣頭城鎮新興路230之3號","TEL":"03-9773798","LICENSE_NO":"G21","OWNER":"林秋微","LOCATION_T":"地址對位","LOCATION_X":331975,"LOCATION_Y":2750141},"geometry":{"points":[[121.8193722347152,24.854735686803455]]}},{"attributes":{"OBJECTID":651,"STATION_NA":"福特機車行","COUNTY_NA":"宜蘭縣","ZIPCODE":"262","ADDRESS":"262宜蘭縣礁溪鄉中山路一段140號","TEL":"03-9882134","LICENSE_NO":"G22","OWNER":"藍文博","LOCATION_T":"地址對位","LOCATION_X":327010,"LOCATION_Y":2746143},"geometry":{"points":[[121.77002372706833,24.818902807447781]]}},{"attributes":{"OBJECTID":652,"STATION_NA":"萬達車業有限公司","COUNTY_NA":"宜蘭縣","ZIPCODE":"262","ADDRESS":"262宜蘭縣礁溪鄉德陽村中正路226號1F","TEL":"03-9881808","LICENSE_NO":"G23","OWNER":"林秀珠","LOCATION_T":"地址對位","LOCATION_X":327167,"LOCATION_Y":2746952},"geometry":{"points":[[121.77162173460722,24.826198686009828]]}},{"attributes":{"OBJECTID":653,"STATION_NA":"捷佳企業有限公司","COUNTY_NA":"宜蘭縣","ZIPCODE":"265","ADDRESS":"265宜蘭縣羅東鎮羅東里中山路131號","TEL":"03-9543008","LICENSE_NO":"G24","OWNER":"陳昱志","LOCATION_T":"地址對位","LOCATION_X":327122,"LOCATION_Y":2730185},"geometry":{"points":[[121.77024435279206,24.674824633846917]]}},{"attributes":{"OBJECTID":654,"STATION_NA":"金倫機車行","COUNTY_NA":"宜蘭縣","ZIPCODE":"265","ADDRESS":"265宜蘭縣羅東鎮中正南路38號","TEL":"03-9569966","LICENSE_NO":"G25","OWNER":"廖玉滿","LOCATION_T":"地址對位","LOCATION_X":327315,"LOCATION_Y":2729534},"geometry":{"points":[[121.7721149932858,24.6689373188145]]}},{"attributes":{"OBJECTID":655,"STATION_NA":"連興機車行","COUNTY_NA":"宜蘭縣","ZIPCODE":"265","ADDRESS":"265宜蘭縣羅東鎮和平路37號","TEL":"03-9567760","LICENSE_NO":"G26","OWNER":"陳連水","LOCATION_T":"地址對位","LOCATION_X":327269,"LOCATION_Y":2730215},"geometry":{"points":[[121.77169841809872,24.675087973582198]]}},{"attributes":{"OBJECTID":656,"STATION_NA":"勝耀車行","COUNTY_NA":"宜蘭縣","ZIPCODE":"265","ADDRESS":"265宜蘭縣羅東鎮純精路363號","TEL":"03-9551279","LICENSE_NO":"G27","OWNER":"張美莉","LOCATION_T":"地址對位","LOCATION_X":326474,"LOCATION_Y":2730796},"geometry":{"points":[[121.76387565492385,24.680373893111685]]}},{"attributes":{"OBJECTID":657,"STATION_NA":"宏光機車行","COUNTY_NA":"宜蘭縣","ZIPCODE":"269","ADDRESS":"265宜蘭縣冬山鄉珍珠村東山路二段710號1樓","TEL":"03-9587178","LICENSE_NO":"G28","OWNER":"林立育","LOCATION_T":"地址對位","LOCATION_X":330034,"LOCATION_Y":2725184},"geometry":{"points":[[121.79872858137755,24.629523090542026]]}},{"attributes":{"OBJECTID":658,"STATION_NA":"協志輪業有限公司","COUNTY_NA":"宜蘭縣","ZIPCODE":"270","ADDRESS":"270宜蘭縣蘇澳鎮中山路154號","TEL":"03-9962058","LICENSE_NO":"G29","OWNER":"簡李阿燕","LOCATION_T":"地址對位","LOCATION_X":335089,"LOCATION_Y":2721511},"geometry":{"points":[[121.84843205527991,24.596088027503853]]}},{"attributes":{"OBJECTID":659,"STATION_NA":"安全機車行","COUNTY_NA":"宜蘭縣","ZIPCODE":"270","ADDRESS":"270宜蘭縣蘇澳鎮隘界路51號","TEL":"03-9904546","LICENSE_NO":"G30","OWNER":"林清洲","LOCATION_T":"地址對位","LOCATION_X":333822,"LOCATION_Y":2724110},"geometry":{"points":[[121.83607745127749,24.619622699827694]]}},{"attributes":{"OBJECTID":660,"STATION_NA":"富揚機車行","COUNTY_NA":"宜蘭縣","ZIPCODE":"270","ADDRESS":"270宜蘭縣蘇澳鎮漁港路112號","TEL":"03-9971579","LICENSE_NO":"G31","OWNER":"王旺竹","LOCATION_T":"地址對位","LOCATION_X":336735,"LOCATION_Y":2719979},"geometry":{"points":[[121.86458968746993,24.582164051850043]]}},{"attributes":{"OBJECTID":661,"STATION_NA":"朝順機車行","COUNTY_NA":"宜蘭縣","ZIPCODE":"266","ADDRESS":"266宜蘭縣三星鄉大隱村大埔路7-5號","TEL":"03-9890257","LICENSE_NO":"G33","OWNER":"湯朝松","LOCATION_T":"地址對位","LOCATION_X":322517,"LOCATION_Y":2729580},"geometry":{"points":[[121.72471524666469,24.669590422034279]]}},{"attributes":{"OBJECTID":662,"STATION_NA":"泉興機車行","COUNTY_NA":"宜蘭縣","ZIPCODE":"266","ADDRESS":"266宜蘭縣三星鄉義德村義德街25號","TEL":"03-9892572","LICENSE_NO":"G34","OWNER":"吳文益","LOCATION_T":"地址對位","LOCATION_X":315140,"LOCATION_Y":2729133},"geometry":{"points":[[121.65181002848138,24.665890015997931]]}},{"attributes":{"OBJECTID":663,"STATION_NA":"健全機車行","COUNTY_NA":"宜蘭縣","ZIPCODE":"268","ADDRESS":"268宜蘭縣五結鄉上四村中正路2段118號","TEL":"03-9546739","LICENSE_NO":"G35","OWNER":"簡文學","LOCATION_T":"地址對位","LOCATION_X":326999,"LOCATION_Y":2732878},"geometry":{"points":[[121.76917844831296,24.69914424307985]]}},{"attributes":{"OBJECTID":664,"STATION_NA":"長進機車行","COUNTY_NA":"宜蘭縣","ZIPCODE":"268","ADDRESS":"268宜蘭縣五結鄉上四村中正路2段255號","TEL":"03-9549802","LICENSE_NO":"G36","OWNER":"林晉毅","LOCATION_T":"地址對位","LOCATION_X":327029,"LOCATION_Y":2733140},"geometry":{"points":[[121.76948944152417,24.701508134133228]]}},{"attributes":{"OBJECTID":665,"STATION_NA":"泓虢車業有限公司","COUNTY_NA":"宜蘭縣","ZIPCODE":"268","ADDRESS":"268宜蘭縣五結鄉中正路2段141號","TEL":"03-9571858","LICENSE_NO":"G37","OWNER":"吳皇欽","LOCATION_T":"地址對位","LOCATION_X":326946,"LOCATION_Y":2732833},"geometry":{"points":[[121.76865219469241,24.698740664174291]]}},{"attributes":{"OBJECTID":666,"STATION_NA":"佳昌車業行","COUNTY_NA":"宜蘭縣","ZIPCODE":"268","ADDRESS":"268宜蘭縣五結鄉四結村中正路1段108號","TEL":"03-9541363","LICENSE_NO":"G38","OWNER":"趙茂榮","LOCATION_T":"地址對位","LOCATION_X":327152,"LOCATION_Y":2731793},"geometry":{"points":[[121.7706301510875,24.689340693306818]]}},{"attributes":{"OBJECTID":667,"STATION_NA":"立祥機車行","COUNTY_NA":"宜蘭縣","ZIPCODE":"269","ADDRESS":"269宜蘭縣冬山鄉南興村冬山路122號","TEL":"03-9591347","LICENSE_NO":"G39","OWNER":"林麗芬","LOCATION_T":"地址對位","LOCATION_X":329434,"LOCATION_Y":2725703},"geometry":{"points":[[121.79283201609502,24.63424029672554]]}},{"attributes":{"OBJECTID":668,"STATION_NA":"立發機車行","COUNTY_NA":"宜蘭縣","ZIPCODE":"269","ADDRESS":"269宜蘭縣冬山鄉香和村冬山路1段851號","TEL":"03-9593971","LICENSE_NO":"G40","OWNER":"許桂花","LOCATION_T":"地址對位","LOCATION_X":329719,"LOCATION_Y":2725405},"geometry":{"points":[[121.79563000198307,24.631534923797002]]}},{"attributes":{"OBJECTID":669,"STATION_NA":"弘裕機車行","COUNTY_NA":"宜蘭縣","ZIPCODE":"269","ADDRESS":"269宜蘭縣冬山鄉順安村鹿安路449號","TEL":"03-9583808","LICENSE_NO":"G41","OWNER":"黃士添","LOCATION_T":"地址對位","LOCATION_X":326298,"LOCATION_Y":2728618},"geometry":{"points":[[121.76201719710957,24.660719142246954]]}},{"attributes":{"OBJECTID":670,"STATION_NA":"華盛機車行","COUNTY_NA":"宜蘭縣","ZIPCODE":"269","ADDRESS":"269宜蘭縣冬山鄉群英村義成路3段474號","TEL":"03-9583663","LICENSE_NO":"G42","OWNER":"陳素娥","LOCATION_T":"地址對位","LOCATION_X":326910,"LOCATION_Y":2729305},"geometry":{"points":[[121.76810105663202,24.666890517360464]]}},{"attributes":{"OBJECTID":671,"STATION_NA":"明慧機車行","COUNTY_NA":"宜蘭縣","ZIPCODE":"269","ADDRESS":"269宜蘭縣冬山鄉廣興村廣興路225號","TEL":"03-9513731","LICENSE_NO":"G43","OWNER":"游智慧","LOCATION_T":"地址對位","LOCATION_X":324935,"LOCATION_Y":2729596},"geometry":{"points":[[121.74860488919458,24.669617044516279]]}},{"attributes":{"OBJECTID":672,"STATION_NA":"聯勤機車行","COUNTY_NA":"宜蘭縣","ZIPCODE":"263","ADDRESS":"263宜蘭縣壯圍鄉吉祥村壯五路379號","TEL":"03-9386060","LICENSE_NO":"G44","OWNER":"何秀蘭","LOCATION_T":"地址對位","LOCATION_X":328392,"LOCATION_Y":2738219},"geometry":{"points":[[121.78324601640712,24.747292730778895]]}},{"attributes":{"OBJECTID":673,"STATION_NA":"立昌機車行","COUNTY_NA":"宜蘭縣","ZIPCODE":"260","ADDRESS":"260宜蘭縣宜蘭市大道里舊城西路10號","TEL":"03-9325745","LICENSE_NO":"G45","OWNER":"廖永昌","LOCATION_T":"地址對位","LOCATION_X":324997,"LOCATION_Y":2739351},"geometry":{"points":[[121.74974296944063,24.757683688266493]]}},{"attributes":{"OBJECTID":674,"STATION_NA":"南僑車業有限公司","COUNTY_NA":"宜蘭縣","ZIPCODE":"260","ADDRESS":"260宜蘭縣宜蘭市北門里中山路245號","TEL":"03-9323302","LICENSE_NO":"G46","OWNER":"李煌標","LOCATION_T":"地址對位","LOCATION_X":325389,"LOCATION_Y":2739828},"geometry":{"points":[[121.7536446801855,24.7619705567949]]}},{"attributes":{"OBJECTID":675,"STATION_NA":"怡興機車行","COUNTY_NA":"宜蘭縣","ZIPCODE":"260","ADDRESS":"260宜蘭縣宜蘭市北門里中山路246號","TEL":"03-9324245","LICENSE_NO":"G47","OWNER":"吳碧聰","LOCATION_T":"地址對位","LOCATION_X":325411,"LOCATION_Y":2739775},"geometry":{"points":[[121.75385931919507,24.761490977109158]]}},{"attributes":{"OBJECTID":676,"STATION_NA":"大德機車行","COUNTY_NA":"宜蘭縣","ZIPCODE":"260","ADDRESS":"260宜蘭縣宜蘭市民權里神農路2段38號","TEL":"03-9352913","LICENSE_NO":"G48","OWNER":"陳文國","LOCATION_T":"地址對位","LOCATION_X":325120,"LOCATION_Y":2738571},"geometry":{"points":[[121.75091677857959,24.750635795043483]]}},{"attributes":{"OBJECTID":677,"STATION_NA":"利達機車行","COUNTY_NA":"宜蘭縣","ZIPCODE":"260","ADDRESS":"260宜蘭縣宜蘭市民權里渭水路15-38號","TEL":"03-9327666","LICENSE_NO":"G49","OWNER":"賴秀美","LOCATION_T":"地址對位","LOCATION_X":325566,"LOCATION_Y":2738074},"geometry":{"points":[[121.7552991400014,24.746126750439579]]}},{"attributes":{"OBJECTID":678,"STATION_NA":"義興車行","COUNTY_NA":"宜蘭縣","ZIPCODE":"260","ADDRESS":"260宜蘭縣宜蘭市東村里東港路33號","TEL":"03-9385527","LICENSE_NO":"G50","OWNER":"林文正","LOCATION_T":"地址對位","LOCATION_X":326680,"LOCATION_Y":2738839},"geometry":{"points":[[121.76635474443833,24.75297731186971]]}},{"attributes":{"OBJECTID":679,"STATION_NA":"正旭機車行","COUNTY_NA":"宜蘭縣","ZIPCODE":"260","ADDRESS":"260宜蘭縣宜蘭市東村里校舍路31號","TEL":"03-9380322","LICENSE_NO":"G51","OWNER":"賴玉雲","LOCATION_T":"地址對位","LOCATION_X":326330,"LOCATION_Y":2738679},"geometry":{"points":[[121.76288555242203,24.751550444119758]]}},{"attributes":{"OBJECTID":680,"STATION_NA":"義明機車行","COUNTY_NA":"宜蘭縣","ZIPCODE":"260","ADDRESS":"260宜蘭縣宜蘭市負郭里民權新路334號","TEL":"03-9352677","LICENSE_NO":"G52","OWNER":"陳國清","LOCATION_T":"地址對位","LOCATION_X":324296,"LOCATION_Y":2738826},"geometry":{"points":[[121.74278390764562,24.752978607929055]]}},{"attributes":{"OBJECTID":681,"STATION_NA":"長興機車行","COUNTY_NA":"宜蘭縣","ZIPCODE":"260","ADDRESS":"260宜蘭縣宜蘭市負郭里泰山路155號","TEL":"03-9360211","LICENSE_NO":"G53","OWNER":"曾錫鈴","LOCATION_T":"地址對位","LOCATION_X":324262,"LOCATION_Y":2738863},"geometry":{"points":[[121.74244974223691,24.753314314126659]]}},{"attributes":{"OBJECTID":682,"STATION_NA":"萬安車業行","COUNTY_NA":"宜蘭縣","ZIPCODE":"260","ADDRESS":"260宜蘭縣宜蘭市復興里神農路1段206號","TEL":"03-9330778","LICENSE_NO":"G54","OWNER":"張淑貞","LOCATION_T":"地址對位","LOCATION_X":325067,"LOCATION_Y":2738399},"geometry":{"points":[[121.75038346421714,24.749085607154257]]}},{"attributes":{"OBJECTID":683,"STATION_NA":"中東機車行","COUNTY_NA":"宜蘭縣","ZIPCODE":"260","ADDRESS":"260宜蘭縣宜蘭市黎明里東港路13-71號","TEL":"03-9383121","LICENSE_NO":"G55","OWNER":"潘玉琴","LOCATION_T":"地址對位","LOCATION_X":326893,"LOCATION_Y":2738636},"geometry":{"points":[[121.76844940202191,24.751133885812838]]}},{"attributes":{"OBJECTID":684,"STATION_NA":"六合機車行","COUNTY_NA":"宜蘭縣","ZIPCODE":"264","ADDRESS":"264宜蘭縣員山鄉枕山村枕山路50號","TEL":"03-9224677","LICENSE_NO":"G56","OWNER":"楊振雄","LOCATION_T":"地址對位","LOCATION_X":321885,"LOCATION_Y":2740539},"geometry":{"points":[[121.71903670137205,24.768560713384598]]}},{"attributes":{"OBJECTID":685,"STATION_NA":"大弘機車行","COUNTY_NA":"宜蘭縣","ZIPCODE":"264","ADDRESS":"264宜蘭縣員山鄉永和村溫泉路1-31號","TEL":"03-9225616","LICENSE_NO":"G57","OWNER":"黃濟堂","LOCATION_T":"地址對位","LOCATION_X":321439,"LOCATION_Y":2738439},"geometry":{"points":[[121.7145178203978,24.749622679805498]]}},{"attributes":{"OBJECTID":686,"STATION_NA":"大正機車行","COUNTY_NA":"宜蘭縣","ZIPCODE":"264","ADDRESS":"264宜蘭縣員山鄉員山村員山路1段89號","TEL":"03-9224293","LICENSE_NO":"G58","OWNER":"林美玉","LOCATION_T":"地址對位","LOCATION_X":322970,"LOCATION_Y":2738142},"geometry":{"points":[[121.72963796712307,24.7468680643439]]}},{"attributes":{"OBJECTID":687,"STATION_NA":"惠眾機車行","COUNTY_NA":"宜蘭縣","ZIPCODE":"264","ADDRESS":"264宜蘭縣員山鄉惠好村惠民路165號","TEL":"03-9227905","LICENSE_NO":"G59","OWNER":"張娌鳳","LOCATION_T":"中華電信","LOCATION_X":322824,"LOCATION_Y":2735583},"geometry":{"points":[[121.72806051304413,24.723772228283263]]}},{"attributes":{"OBJECTID":688,"STATION_NA":"吉達機車行","COUNTY_NA":"宜蘭縣","ZIPCODE":"261","ADDRESS":"261宜蘭縣頭城鎮拔雅里吉祥路78號","TEL":"03-9778097","LICENSE_NO":"G60","OWNER":"陳金火","LOCATION_T":"地址對位","LOCATION_X":332128,"LOCATION_Y":2750363},"geometry":{"points":[[121.82089929536315,24.856731621157959]]}},{"attributes":{"OBJECTID":689,"STATION_NA":"仁泰機車行","COUNTY_NA":"宜蘭縣","ZIPCODE":"261","ADDRESS":"261宜蘭縣頭城鎮金面里青雲路2段257號","TEL":"03-9771961","LICENSE_NO":"G61","OWNER":"李仁傑","LOCATION_T":"地址對位","LOCATION_X":330648,"LOCATION_Y":2749044},"geometry":{"points":[[121.80617827133746,24.844903190105647]]}},{"attributes":{"OBJECTID":690,"STATION_NA":"值光機車行","COUNTY_NA":"宜蘭縣","ZIPCODE":"262","ADDRESS":"262宜蘭縣礁溪鄉大義村中山路1段92號","TEL":"03-9889136","LICENSE_NO":"G62","OWNER":"林素蓮","LOCATION_T":"地址對位","LOCATION_X":326905,"LOCATION_Y":2746017},"geometry":{"points":[[121.7689781461581,24.817770617822703]]}},{"attributes":{"OBJECTID":691,"STATION_NA":"礁溪鈴木車業","COUNTY_NA":"宜蘭縣","ZIPCODE":"262","ADDRESS":"262宜蘭縣礁溪鄉大義村中山路1段96號","TEL":"03-9882332","LICENSE_NO":"G63","OWNER":"莊林阿盆","LOCATION_T":"地址對位","LOCATION_X":326911,"LOCATION_Y":2746024},"geometry":{"points":[[121.76903788094954,24.817833507177451]]}},{"attributes":{"OBJECTID":692,"STATION_NA":"士漢機車行","COUNTY_NA":"宜蘭縣","ZIPCODE":"262","ADDRESS":"262宜蘭縣礁溪鄉中山路1段228號","TEL":"03-9886708","LICENSE_NO":"G64","OWNER":"廖添喜","LOCATION_T":"地址對位","LOCATION_X":327103,"LOCATION_Y":2746331},"geometry":{"points":[[121.77095409026482,24.820595375789406]]}},{"attributes":{"OBJECTID":693,"STATION_NA":"安盛機車行","COUNTY_NA":"宜蘭縣","ZIPCODE":"265","ADDRESS":"265宜蘭縣羅東鎮北成里四育路32號","TEL":"03-9516131","LICENSE_NO":"G65","OWNER":"游陳阿紋","LOCATION_T":"地址對位","LOCATION_X":326057,"LOCATION_Y":2730371},"geometry":{"points":[[121.75973218548006,24.676557908470961]]}},{"attributes":{"OBJECTID":694,"STATION_NA":"輪山車業行","COUNTY_NA":"宜蘭縣","ZIPCODE":"265","ADDRESS":"265宜蘭縣羅東鎮西安里中山西路355-39號","TEL":"03-9511762","LICENSE_NO":"G66","OWNER":"林寶惠","LOCATION_T":"地址對位","LOCATION_X":325773,"LOCATION_Y":2729912},"geometry":{"points":[[121.75690120286981,24.672428181338184]]}},{"attributes":{"OBJECTID":695,"STATION_NA":"慶昌機車行","COUNTY_NA":"宜蘭縣","ZIPCODE":"265","ADDRESS":"265宜蘭縣羅東鎮賢文里民生路124號","TEL":"03-9560346","LICENSE_NO":"G67","OWNER":"張坤煌","LOCATION_T":"地址對位","LOCATION_X":326795,"LOCATION_Y":2730505},"geometry":{"points":[[121.76703124111769,24.677730360927697]]}},{"attributes":{"OBJECTID":696,"STATION_NA":"順道機車行","COUNTY_NA":"宜蘭縣","ZIPCODE":"265","ADDRESS":"265宜蘭縣羅東鎮賢文里純精路353號","TEL":"03-9576001","LICENSE_NO":"G68","OWNER":"曾寶淑","LOCATION_T":"地址對位","LOCATION_X":326451,"LOCATION_Y":2730707},"geometry":{"points":[[121.76364350667184,24.679571446423267]]}},{"attributes":{"OBJECTID":697,"STATION_NA":"新益機車行","COUNTY_NA":"宜蘭縣","ZIPCODE":"270","ADDRESS":"270宜蘭縣蘇澳鎮永榮里新榮路3號","TEL":"03-9902249","LICENSE_NO":"G69","OWNER":"簡玉緒","LOCATION_T":"地址對位","LOCATION_X":333617,"LOCATION_Y":2724240},"geometry":{"points":[[121.83406066049582,24.6208076526699]]}},{"attributes":{"OBJECTID":698,"STATION_NA":"啟順機車行","COUNTY_NA":"宜蘭縣","ZIPCODE":"270","ADDRESS":"270宜蘭縣蘇澳鎮隘丁里仁愛路139號","TEL":"03-9903505","LICENSE_NO":"G70","OWNER":"陳素卿","LOCATION_T":"地址對位","LOCATION_X":333627,"LOCATION_Y":2723752},"geometry":{"points":[[121.83413020652483,24.616401314523049]]}},{"attributes":{"OBJECTID":699,"STATION_NA":"長昇機車行","COUNTY_NA":"宜蘭縣","ZIPCODE":"270","ADDRESS":"270宜蘭縣蘇澳鎮龍德里福德路448號","TEL":"03-9901707","LICENSE_NO":"G71","OWNER":"張振富","LOCATION_T":"地址對位","LOCATION_X":333063,"LOCATION_Y":2727189},"geometry":{"points":[[121.82876506247139,24.647462389350526]]}},{"attributes":{"OBJECTID":700,"STATION_NA":"國陽機車行","COUNTY_NA":"宜蘭縣","ZIPCODE":"270","ADDRESS":"270宜蘭縣蘇澳鎮蘇西里中山路126號","TEL":"03-9963766","LICENSE_NO":"G72","OWNER":"劉武澤","LOCATION_T":"地址對位","LOCATION_X":335195,"LOCATION_Y":2721510},"geometry":{"points":[[121.84947863724398,24.596073070291325]]}},{"attributes":{"OBJECTID":701,"STATION_NA":"大華機車行","COUNTY_NA":"宜蘭縣","ZIPCODE":"269","ADDRESS":"269宜蘭縣冬山鄉南興村冬山路159號","TEL":"03-9592889","LICENSE_NO":"G73","OWNER":"黃仁華","LOCATION_T":"地址對位","LOCATION_X":329347,"LOCATION_Y":2725703},"geometry":{"points":[[121.79197270151354,24.634244852010912]]}},{"attributes":{"OBJECTID":702,"STATION_NA":"快輪機業有限公司","COUNTY_NA":"桃園縣","ZIPCODE":"330","ADDRESS":"330桃園縣桃園市永安路133號","TEL":"03-3322731","LICENSE_NO":"H01","OWNER":"黃村明","LOCATION_T":"地址對位","LOCATION_X":280049,"LOCATION_Y":2765670},"geometry":{"points":[[121.30590845910909,24.996875654622915]]}},{"attributes":{"OBJECTID":703,"STATION_NA":"易昇車業有限公司","COUNTY_NA":"桃園縣","ZIPCODE":"330","ADDRESS":"330桃園縣桃園市永安路243號","TEL":"03-3330296","LICENSE_NO":"H02","OWNER":"李呂美娥","LOCATION_T":"地址對位","LOCATION_X":279756,"LOCATION_Y":2765842},"geometry":{"points":[[121.30300967508833,24.998434530813732]]}},{"attributes":{"OBJECTID":704,"STATION_NA":"均冠機車行","COUNTY_NA":"桃園縣","ZIPCODE":"330","ADDRESS":"330桃園縣桃園市永安路1426號","TEL":"03-3412859","LICENSE_NO":"H03","OWNER":"游藍阿幸","LOCATION_T":"地址對位","LOCATION_X":276936,"LOCATION_Y":2767387},"geometry":{"points":[[121.27510381474448,25.012438056847209]]}},{"attributes":{"OBJECTID":705,"STATION_NA":"旭展車業行","COUNTY_NA":"桃園縣","ZIPCODE":"330","ADDRESS":"330桃園縣桃園市春日路1053號","TEL":"03-3254425","LICENSE_NO":"H04","OWNER":"鄭壽玫","LOCATION_T":"地址對位","LOCATION_X":280376,"LOCATION_Y":2767382},"geometry":{"points":[[121.30918661668474,25.012325722198273]]}},{"attributes":{"OBJECTID":706,"STATION_NA":"政大輪業有限公司","COUNTY_NA":"桃園縣","ZIPCODE":"330","ADDRESS":"330桃園縣桃園市慈文路117號","TEL":"03-3256666","LICENSE_NO":"H05","OWNER":"黃寶猜","LOCATION_T":"地址對位","LOCATION_X":279914,"LOCATION_Y":2767034},"geometry":{"points":[[121.30460145164422,25.009193304608559]]}},{"attributes":{"OBJECTID":707,"STATION_NA":"合興機車行","COUNTY_NA":"桃園縣","ZIPCODE":"330","ADDRESS":"330桃園縣桃園市上海路99號","TEL":"03-3697557","LICENSE_NO":"H06","OWNER":"黃鳳珠","LOCATION_T":"地址對位","LOCATION_X":277684,"LOCATION_Y":2765021},"geometry":{"points":[[121.2824663129438,24.991062788259541]]}},{"attributes":{"OBJECTID":708,"STATION_NA":"富國機業有限公司","COUNTY_NA":"桃園縣","ZIPCODE":"330","ADDRESS":"330桃園縣桃園市民生路399號","TEL":"03-3375666","LICENSE_NO":"H07","OWNER":"楊明讚","LOCATION_T":"地址對位","LOCATION_X":280487,"LOCATION_Y":2766054},"geometry":{"points":[[121.31025621879338,25.000333485653961]]}},{"attributes":{"OBJECTID":709,"STATION_NA":"松輪機車有限公司","COUNTY_NA":"桃園縣","ZIPCODE":"335","ADDRESS":"330桃園縣桃園市介壽路479號","TEL":"03-3614966","LICENSE_NO":"H08","OWNER":"鄭來旺","LOCATION_T":"地址對位","LOCATION_X":278496,"LOCATION_Y":2756706},"geometry":{"points":[[121.29033329748762,24.915974038169921]]}},{"attributes":{"OBJECTID":710,"STATION_NA":"進興輪業有限公司","COUNTY_NA":"桃園縣","ZIPCODE":"330","ADDRESS":"330桃園縣桃園市中山路410號","TEL":"03-3356566","LICENSE_NO":"H09","OWNER":"黃進旺","LOCATION_T":"地址對位","LOCATION_X":279781,"LOCATION_Y":2765152},"geometry":{"points":[[121.30324204725916,24.992204388615136]]}},{"attributes":{"OBJECTID":711,"STATION_NA":"桃寅機車有限公司","COUNTY_NA":"桃園縣","ZIPCODE":"330","ADDRESS":"330桃園縣桃園市復興路100號","TEL":"03-3336078","LICENSE_NO":"H10","OWNER":"陳德河","LOCATION_T":"地址對位","LOCATION_X":281016,"LOCATION_Y":2765040},"geometry":{"points":[[121.31547338223214,24.991167525355056]]}},{"attributes":{"OBJECTID":712,"STATION_NA":"正昇機車行","COUNTY_NA":"桃園縣","ZIPCODE":"330","ADDRESS":"330桃園縣桃園市經國路260號","TEL":"03-3252247","LICENSE_NO":"H11","OWNER":"林天在","LOCATION_T":"地址對位","LOCATION_X":279839,"LOCATION_Y":2768347},"geometry":{"points":[[121.30388758943656,25.021049352713955]]}},{"attributes":{"OBJECTID":713,"STATION_NA":"名源輪業有限公司","COUNTY_NA":"桃園縣","ZIPCODE":"330","ADDRESS":"330桃園縣桃園市三民路三段563號","TEL":"03-3622387","LICENSE_NO":"H12","OWNER":"吳慶隆","LOCATION_T":"地址對位","LOCATION_X":280236,"LOCATION_Y":2764255},"geometry":{"points":[[121.30772907080946,24.984096586880458]]}},{"attributes":{"OBJECTID":714,"STATION_NA":"千輪車業有限公司","COUNTY_NA":"桃園縣","ZIPCODE":"320","ADDRESS":"320桃園縣中壢市中華路一段893號","TEL":"03-4527716","LICENSE_NO":"H13","OWNER":"蔡秀月","LOCATION_T":"地址對位","LOCATION_X":273873,"LOCATION_Y":2762335},"geometry":{"points":[[121.2446667585431,24.966879749238576]]}},{"attributes":{"OBJECTID":715,"STATION_NA":"鑫陽車業股份有限公司","COUNTY_NA":"桃園縣","ZIPCODE":"320","ADDRESS":"320桃園縣中壢市普忠路225號","TEL":"03-4612845","LICENSE_NO":"H14","OWNER":"李賢興","LOCATION_T":"地址對位","LOCATION_X":274083,"LOCATION_Y":2761621},"geometry":{"points":[[121.24673376116665,24.960429733989496]]}},{"attributes":{"OBJECTID":716,"STATION_NA":"偉譽車業有限公司","COUNTY_NA":"桃園縣","ZIPCODE":"320","ADDRESS":"320桃園縣中壢市延平路247號","TEL":"03-4627095","LICENSE_NO":"H15","OWNER":"謝淑芬","LOCATION_T":"地址對位","LOCATION_X":272112,"LOCATION_Y":2761716},"geometry":{"points":[[121.22721516835746,24.961319140392746]]}},{"attributes":{"OBJECTID":717,"STATION_NA":"摩都實業有限公司","COUNTY_NA":"桃園縣","ZIPCODE":"320","ADDRESS":"320桃園縣中壢市延平路469號","TEL":"03-4256866","LICENSE_NO":"H16","OWNER":"張黃鳳珍","LOCATION_T":"地址對位","LOCATION_X":271805,"LOCATION_Y":2761335},"geometry":{"points":[[121.22416842320706,24.957883846303822]]}},{"attributes":{"OBJECTID":718,"STATION_NA":"慶東機車行","COUNTY_NA":"桃園縣","ZIPCODE":"320","ADDRESS":"320桃園縣中壢市民族路五段496號","TEL":"03-4901220","LICENSE_NO":"H17","OWNER":"朱姜春燕","LOCATION_T":"地址對位","LOCATION_X":265955,"LOCATION_Y":2761362},"geometry":{"points":[[121.16623337390375,24.958203506643191]]}},{"attributes":{"OBJECTID":719,"STATION_NA":"盛星機車行","COUNTY_NA":"桃園縣","ZIPCODE":"320","ADDRESS":"320桃園縣中壢市新生路124號","TEL":"03-4222529","LICENSE_NO":"H18","OWNER":"王金泉","LOCATION_T":"地址對位","LOCATION_X":271722,"LOCATION_Y":2761577},"geometry":{"points":[[121.22335039718783,24.960070096767726]]}},{"attributes":{"OBJECTID":720,"STATION_NA":"正興車業有限公司","COUNTY_NA":"桃園縣","ZIPCODE":"320","ADDRESS":"320桃園縣中壢市志廣路48號","TEL":"03-4937297","LICENSE_NO":"H19","OWNER":"羅守興","LOCATION_T":"地址對位","LOCATION_X":270219,"LOCATION_Y":2761649},"geometry":{"points":[[121.20846623374713,24.960742203554997]]}},{"attributes":{"OBJECTID":721,"STATION_NA":"玉光輪業有限公司","COUNTY_NA":"桃園縣","ZIPCODE":"320","ADDRESS":"320桃園縣中壢市中山東路二段63號","TEL":"03-4561125","LICENSE_NO":"H20","OWNER":"吳義連","LOCATION_T":"地址對位","LOCATION_X":273218,"LOCATION_Y":2760901},"geometry":{"points":[[121.23815451080733,24.953943189055277]]}},{"attributes":{"OBJECTID":722,"STATION_NA":"源豐車業行","COUNTY_NA":"桃園縣","ZIPCODE":"334","ADDRESS":"334桃園縣八德市介壽路一段683號","TEL":"03-3613556","LICENSE_NO":"H21","OWNER":"尤金源","LOCATION_T":"地址對位","LOCATION_X":279545,"LOCATION_Y":2762180},"geometry":{"points":[[121.30083896239988,24.965376556302839]]}},{"attributes":{"OBJECTID":723,"STATION_NA":"朝陽機車行","COUNTY_NA":"桃園縣","ZIPCODE":"334","ADDRESS":"334桃園縣八德市和平路50號","TEL":"03-3666370","LICENSE_NO":"H22","OWNER":"林素霞","LOCATION_T":"地址對位","LOCATION_X":279484,"LOCATION_Y":2761281},"geometry":{"points":[[121.30021520117387,24.957261058283255]]}},{"attributes":{"OBJECTID":724,"STATION_NA":"輇興輪業有限公司","COUNTY_NA":"桃園縣","ZIPCODE":"334","ADDRESS":"334桃園縣八德市介壽路一段750號","TEL":"03-3615992","LICENSE_NO":"H23","OWNER":"謝俊摸","LOCATION_T":"地址對位","LOCATION_X":279467,"LOCATION_Y":2762025},"geometry":{"points":[[121.30006308951972,24.963978688466039]]}},{"attributes":{"OBJECTID":725,"STATION_NA":"僑陽車業有限公司","COUNTY_NA":"桃園縣","ZIPCODE":"333","ADDRESS":"333桃園縣龜山鄉萬壽路一段237號","TEL":"02-82092121","LICENSE_NO":"H24","OWNER":"朱常鐘","LOCATION_T":"地址對位","LOCATION_X":289996,"LOCATION_Y":2767982},"geometry":{"points":[[121.40451869738922,25.017509012776273]]}},{"attributes":{"OBJECTID":726,"STATION_NA":"國廣車店","COUNTY_NA":"桃園縣","ZIPCODE":"333","ADDRESS":"333桃園縣龜山鄉萬壽路二段36號","TEL":"03-3504035","LICENSE_NO":"H25","OWNER":"詹唐麗華","LOCATION_T":"地址對位","LOCATION_X":285804,"LOCATION_Y":2766256},"geometry":{"points":[[121.36293671138014,25.002035269252165]]}},{"attributes":{"OBJECTID":727,"STATION_NA":"宏信機車行","COUNTY_NA":"桃園縣","ZIPCODE":"333","ADDRESS":"333桃園縣龜山鄉龜山村萬壽路二段890號","TEL":"03-3201262","LICENSE_NO":"H26","OWNER":"黃素琴","LOCATION_T":"地址對位","LOCATION_X":283423,"LOCATION_Y":2765577},"geometry":{"points":[[121.33933056157741,24.995962332207085]]}},{"attributes":{"OBJECTID":728,"STATION_NA":"政馨車業有限公司","COUNTY_NA":"桃園縣","ZIPCODE":"333","ADDRESS":"333桃園縣龜山鄉萬壽路二段906號","TEL":"03-3203000","LICENSE_NO":"H27","OWNER":"劉金樹","LOCATION_T":"地址對位","LOCATION_X":283390,"LOCATION_Y":2765557},"geometry":{"points":[[121.33900314193606,24.995782529148695]]}},{"attributes":{"OBJECTID":729,"STATION_NA":"正龍車業有限公司","COUNTY_NA":"桃園縣","ZIPCODE":"335","ADDRESS":"335桃園縣大溪鎮介壽路1241號","TEL":"03-3803885","LICENSE_NO":"H28","OWNER":"湯明雲","LOCATION_T":"地址對位","LOCATION_X":277923,"LOCATION_Y":2754785},"geometry":{"points":[[121.28461918235278,24.898640860994217]]}},{"attributes":{"OBJECTID":730,"STATION_NA":"昌達車業有限公司","COUNTY_NA":"桃園縣","ZIPCODE":"338","ADDRESS":"338桃園縣蘆竹鄉中正路369號","TEL":"03-3224257","LICENSE_NO":"H29","OWNER":"黃欽鐘","LOCATION_T":"地址對位","LOCATION_X":278512,"LOCATION_Y":2771465},"geometry":{"points":[[121.29080555616321,25.049226405162745]]}},{"attributes":{"OBJECTID":731,"STATION_NA":"固輪車業行","COUNTY_NA":"桃園縣","ZIPCODE":"337","ADDRESS":"337桃園縣大園鄉中正東路50號","TEL":"03-3862837","LICENSE_NO":"H30","OWNER":"許福村","LOCATION_T":"地址對位","LOCATION_X":269330,"LOCATION_Y":2773011},"geometry":{"points":[[121.19982102178888,25.063335959543949]]}},{"attributes":{"OBJECTID":732,"STATION_NA":"輝迎車業有限公司","COUNTY_NA":"桃園縣","ZIPCODE":"337","ADDRESS":"337桃園縣大園鄉竹圍街47-50號","TEL":"03-3837776","LICENSE_NO":"H31","OWNER":"游光輝","LOCATION_T":"地址對位","LOCATION_X":273680,"LOCATION_Y":2777753},"geometry":{"points":[[121.24302467458465,25.106082610404123]]}},{"attributes":{"OBJECTID":733,"STATION_NA":"福田機車行","COUNTY_NA":"桃園縣","ZIPCODE":"337","ADDRESS":"337桃園縣大園鄉田心村華興路5號","TEL":"03-3862347","LICENSE_NO":"H32","OWNER":"蔡信雄","LOCATION_T":"地址對位","LOCATION_X":268659,"LOCATION_Y":2773183},"geometry":{"points":[[121.19317348535398,25.06489688586954]]}},{"attributes":{"OBJECTID":734,"STATION_NA":"宏政車業行","COUNTY_NA":"桃園縣","ZIPCODE":"326","ADDRESS":"326桃園縣楊梅鎮秀才路8號","TEL":"03-4782019","LICENSE_NO":"H33","OWNER":"李俊明","LOCATION_T":"地址對位","LOCATION_X":263659,"LOCATION_Y":2755596},"geometry":{"points":[[121.14343169332372,24.906165578816204]]}},{"attributes":{"OBJECTID":735,"STATION_NA":"楙錩車業有限公司","COUNTY_NA":"桃園縣","ZIPCODE":"326","ADDRESS":"326桃園縣楊梅鎮文化街15號","TEL":"03-4823233","LICENSE_NO":"H34","OWNER":"劉真宇","LOCATION_T":"地址對位","LOCATION_X":267882,"LOCATION_Y":2756678},"geometry":{"points":[[121.18525200712935,24.915889500776427]]}},{"attributes":{"OBJECTID":736,"STATION_NA":"富光輪業有限公司","COUNTY_NA":"桃園縣","ZIPCODE":"326","ADDRESS":"326桃園縣楊梅鎮中山路115號","TEL":"03-4782872","LICENSE_NO":"H35","OWNER":"吳傅完妹","LOCATION_T":"地址對位","LOCATION_X":263982,"LOCATION_Y":2755679},"geometry":{"points":[[121.14663011886007,24.906911928503284]]}},{"attributes":{"OBJECTID":737,"STATION_NA":"日展輪業有限公司","COUNTY_NA":"桃園縣","ZIPCODE":"326","ADDRESS":"326桃園縣楊梅鎮永美路358號","TEL":"03-4820168","LICENSE_NO":"H36","OWNER":"王新助","LOCATION_T":"地址對位","LOCATION_X":267494,"LOCATION_Y":2756809},"geometry":{"points":[[121.18141255337336,24.917076973567692]]}},{"attributes":{"OBJECTID":738,"STATION_NA":"慶璋輪業有限公司","COUNTY_NA":"桃園縣","ZIPCODE":"326","ADDRESS":"326桃園縣楊梅鎮中山路66號","TEL":"03-4782558","LICENSE_NO":"H37","OWNER":"徐瑞玲","LOCATION_T":"地址對位","LOCATION_X":264024,"LOCATION_Y":2755746},"geometry":{"points":[[121.14704665603649,24.907516466086317]]}},{"attributes":{"OBJECTID":739,"STATION_NA":"首席車業有限公司","COUNTY_NA":"桃園縣","ZIPCODE":"325","ADDRESS":"325桃園縣龍潭鄉中興路258號","TEL":"03-4792979","LICENSE_NO":"H38","OWNER":"翁春妹","LOCATION_T":"地址對位","LOCATION_X":272869,"LOCATION_Y":2752091},"geometry":{"points":[[121.2345429060389,24.874404281632952]]}},{"attributes":{"OBJECTID":740,"STATION_NA":"億龍輪業行","COUNTY_NA":"桃園縣","ZIPCODE":"325","ADDRESS":"325桃園縣龍潭鄉龍潭村北龍路208號","TEL":"03-4792956","LICENSE_NO":"H39","OWNER":"張瑞富","LOCATION_T":"地址對位","LOCATION_X":271013,"LOCATION_Y":2751281},"geometry":{"points":[[121.21616106317016,24.867118724937527]]}},{"attributes":{"OBJECTID":741,"STATION_NA":"聖龍車業有限公司","COUNTY_NA":"桃園縣","ZIPCODE":"325","ADDRESS":"325桃園縣龍潭鄉龍潭村中正路126號","TEL":"03-4792796","LICENSE_NO":"H40","OWNER":"魏新華","LOCATION_T":"地址對位","LOCATION_X":271025,"LOCATION_Y":2751221},"geometry":{"points":[[121.21627883330009,24.866576819025031]]}},{"attributes":{"OBJECTID":742,"STATION_NA":"泉烽車業有限公司","COUNTY_NA":"桃園縣","ZIPCODE":"324","ADDRESS":"324桃園縣平鎮市義民路196號","TEL":"03-4935418","LICENSE_NO":"H41","OWNER":"范陳順英","LOCATION_T":"地址對位","LOCATION_X":270775,"LOCATION_Y":2760632},"geometry":{"points":[[121.21395665942698,24.9515518046456]]}},{"attributes":{"OBJECTID":743,"STATION_NA":"中平車業有限公司","COUNTY_NA":"桃園縣","ZIPCODE":"324","ADDRESS":"324桃園縣平鎮市中豐路32-1號","TEL":"03-4927173","LICENSE_NO":"H42","OWNER":"方明德","LOCATION_T":"地址對位","LOCATION_X":271150,"LOCATION_Y":2760428},"geometry":{"points":[[121.21766702449074,24.949704426533476]]}},{"attributes":{"OBJECTID":744,"STATION_NA":"永業機車行","COUNTY_NA":"桃園縣","ZIPCODE":"327","ADDRESS":"327桃園縣新屋鄉新生村中華路419號","TEL":"03-4773661","LICENSE_NO":"H43","OWNER":"姜仁乾","LOCATION_T":"地址對位","LOCATION_X":259893,"LOCATION_Y":2763432},"geometry":{"points":[[121.10621289741017,24.976945757338317]]}},{"attributes":{"OBJECTID":745,"STATION_NA":"旭億車業有限公司","COUNTY_NA":"桃園縣","ZIPCODE":"327","ADDRESS":"327桃園縣新屋鄉中山路247號","TEL":"03-4772179","LICENSE_NO":"H44","OWNER":"張慶壽","LOCATION_T":"地址對位","LOCATION_X":259899,"LOCATION_Y":2762948},"geometry":{"points":[[121.10626850973291,24.97257582420767]]}},{"attributes":{"OBJECTID":746,"STATION_NA":"順通機車行","COUNTY_NA":"桃園縣","ZIPCODE":"337","ADDRESS":"337桃園縣大園鄉大園村中山南路183號","TEL":"03-3862709","LICENSE_NO":"H45","OWNER":"李曾系秀英","LOCATION_T":"地址對位","LOCATION_X":269228,"LOCATION_Y":2772709},"geometry":{"points":[[121.19880608951119,25.06061068068372]]}},{"attributes":{"OBJECTID":747,"STATION_NA":"榮大車業行","COUNTY_NA":"桃園縣","ZIPCODE":"328","ADDRESS":"328桃園縣觀音鄉大同村中山路二段588號","TEL":"03-4981366","LICENSE_NO":"H46","OWNER":"黃聖貴","LOCATION_T":"地址對位","LOCATION_X":262758,"LOCATION_Y":2767478},"geometry":{"points":[[121.13463330234892,25.013451845194659]]}},{"attributes":{"OBJECTID":748,"STATION_NA":"益輪車業行","COUNTY_NA":"桃園縣","ZIPCODE":"334","ADDRESS":"334桃園縣八德市介壽路一段975號","TEL":"03-3611667","LICENSE_NO":"H47","OWNER":"邱益麟","LOCATION_T":"地址對位","LOCATION_X":279420,"LOCATION_Y":2761452},"geometry":{"points":[[121.2995851352543,24.958806224092598]]}},{"attributes":{"OBJECTID":749,"STATION_NA":"昇旺輪業有限公司","COUNTY_NA":"桃園縣","ZIPCODE":"334","ADDRESS":"334桃園縣八德市介壽路一段685號","TEL":"03-3615391","LICENSE_NO":"H50","OWNER":"林呂旺","LOCATION_T":"地址對位","LOCATION_X":279544,"LOCATION_Y":2762175},"geometry":{"points":[[121.3008289506713,24.965331433002351]]}},{"attributes":{"OBJECTID":750,"STATION_NA":"福欣車業有限公司","COUNTY_NA":"桃園縣","ZIPCODE":"334","ADDRESS":"334桃園縣八德市建國路9號","TEL":"03-3681717","LICENSE_NO":"H51","OWNER":"呂舜彬","LOCATION_T":"地址對位","LOCATION_X":278310,"LOCATION_Y":2759251},"geometry":{"points":[[121.2885463227317,24.938955721195875]]}},{"attributes":{"OBJECTID":751,"STATION_NA":"日誠車業有限公司","COUNTY_NA":"桃園縣","ZIPCODE":"337","ADDRESS":"337桃園縣大園鄉大園村中正東路27號","TEL":"03-3862048","LICENSE_NO":"H52","OWNER":"謝石定","LOCATION_T":"地址對位","LOCATION_X":269181,"LOCATION_Y":2773103},"geometry":{"points":[[121.19834563200429,25.064168392237139]]}},{"attributes":{"OBJECTID":752,"STATION_NA":"連盈車業行","COUNTY_NA":"桃園縣","ZIPCODE":"337","ADDRESS":"337桃園縣大園鄉中山北路176號1樓","TEL":"03-3861531","LICENSE_NO":"H53","OWNER":"游碧雲","LOCATION_T":"地址對位","LOCATION_X":268887,"LOCATION_Y":2773541},"geometry":{"points":[[121.19543798210985,25.068126275425247]]}},{"attributes":{"OBJECTID":753,"STATION_NA":"大園車業有限公司","COUNTY_NA":"桃園縣","ZIPCODE":"337","ADDRESS":"337桃園縣大園鄉中山南路32號","TEL":"03-3862034","LICENSE_NO":"H54","OWNER":"許美環","LOCATION_T":"地址對位","LOCATION_X":269087,"LOCATION_Y":2772932},"geometry":{"points":[[121.19741166468106,25.062625739318403]]}},{"attributes":{"OBJECTID":754,"STATION_NA":"聯成車業有限公司","COUNTY_NA":"桃園縣","ZIPCODE":"320","ADDRESS":"320桃園縣中壢市大同路4號","TEL":"03-4225952","LICENSE_NO":"H55","OWNER":"葉麗卿","LOCATION_T":"地址對位","LOCATION_X":271809,"LOCATION_Y":2761477},"geometry":{"points":[[121.22421037499477,24.959165884704259]]}},{"attributes":{"OBJECTID":755,"STATION_NA":"明進機車行","COUNTY_NA":"桃園縣","ZIPCODE":"320","ADDRESS":"320桃園縣中壢市中山東路四段49號","TEL":"03-4561305","LICENSE_NO":"H56","OWNER":"吳嘉隆","LOCATION_T":"地址對位","LOCATION_X":275023,"LOCATION_Y":2758973},"geometry":{"points":[[121.25599341172746,24.936505612765096]]}},{"attributes":{"OBJECTID":756,"STATION_NA":"常新車業有限公司","COUNTY_NA":"桃園縣","ZIPCODE":"320","ADDRESS":"320桃園縣中壢市民權路二段18號","TEL":"03-4922099","LICENSE_NO":"H57","OWNER":"戴朝枝","LOCATION_T":"地址對位","LOCATION_X":271097,"LOCATION_Y":2762156},"geometry":{"points":[[121.21716981797171,24.965307197934635]]}},{"attributes":{"OBJECTID":757,"STATION_NA":"龍楠實業有限公司","COUNTY_NA":"桃園縣","ZIPCODE":"320","ADDRESS":"320桃園縣中壢市延平路148-1號","TEL":"03-4625850","LICENSE_NO":"H58","OWNER":"賴金龍","LOCATION_T":"地址對位","LOCATION_X":272292,"LOCATION_Y":2761910},"geometry":{"points":[[121.22900111257658,24.963067950803698]]}},{"attributes":{"OBJECTID":758,"STATION_NA":"欣楠輪業有限公司","COUNTY_NA":"桃園縣","ZIPCODE":"320","ADDRESS":"320桃園縣中壢市延平路154號","TEL":"03-4525470","LICENSE_NO":"H59","OWNER":"呂義楠","LOCATION_T":"地址對位","LOCATION_X":272281,"LOCATION_Y":2761910},"geometry":{"points":[[121.22889216639724,24.963068118289701]]}},{"attributes":{"OBJECTID":759,"STATION_NA":"中壢車業股份有限公司","COUNTY_NA":"桃園縣","ZIPCODE":"320","ADDRESS":"320桃園縣中壢市中華路一段732號","TEL":"03-4513029","LICENSE_NO":"H60","OWNER":"陳添火","LOCATION_T":"地址對位","LOCATION_X":274213,"LOCATION_Y":2762549},"geometry":{"points":[[121.24803803386673,24.968806218874906]]}},{"attributes":{"OBJECTID":760,"STATION_NA":"鈞隆車業行","COUNTY_NA":"桃園縣","ZIPCODE":"320","ADDRESS":"320桃園縣中壢市忠孝路226號","TEL":"03-4554651","LICENSE_NO":"H61","OWNER":"葉萬玖","LOCATION_T":"地址對位","LOCATION_X":274902,"LOCATION_Y":2763555},"geometry":{"points":[[121.25488071944821,24.977877307753293]]}},{"attributes":{"OBJECTID":761,"STATION_NA":"胤興車業行","COUNTY_NA":"桃園縣","ZIPCODE":"320","ADDRESS":"320桃園縣中壢市信義里中北路54號","TEL":"03-4565984","LICENSE_NO":"H62","OWNER":"唐雅綺","LOCATION_T":"地址對位","LOCATION_X":273106,"LOCATION_Y":2761114},"geometry":{"points":[[121.23704905950834,24.955868130578565]]}},{"attributes":{"OBJECTID":762,"STATION_NA":"吉星機車行","COUNTY_NA":"桃園縣","ZIPCODE":"320","ADDRESS":"320桃園縣中壢市健行路212號","TEL":"03-4573945","LICENSE_NO":"H63","OWNER":"劉煌春","LOCATION_T":"地址對位","LOCATION_X":272188,"LOCATION_Y":2760204},"geometry":{"points":[[121.22794249211422,24.947666286588074]]}},{"attributes":{"OBJECTID":763,"STATION_NA":"本鈿車業有限公司","COUNTY_NA":"桃園縣","ZIPCODE":"320","ADDRESS":"320桃園縣中壢市元化路141號","TEL":"03-4228270","LICENSE_NO":"H64","OWNER":"黃振球","LOCATION_T":"地址對位","LOCATION_X":272206,"LOCATION_Y":2761510},"geometry":{"points":[[121.2281426718519,24.959457743493473]]}},{"attributes":{"OBJECTID":764,"STATION_NA":"今豪車業有限公司","COUNTY_NA":"桃園縣","ZIPCODE":"320","ADDRESS":"320桃園縣中壢市新明路13號","TEL":"03-4920813","LICENSE_NO":"H65","OWNER":"沈金鳳","LOCATION_T":"地址對位","LOCATION_X":270825,"LOCATION_Y":2761289},"geometry":{"points":[[121.21446221771892,24.957483108219364]]}},{"attributes":{"OBJECTID":765,"STATION_NA":"俊勝機車行","COUNTY_NA":"桃園縣","ZIPCODE":"320","ADDRESS":"320桃園縣中壢市龍崗路三段7號","TEL":"03-4580785","LICENSE_NO":"H66","OWNER":"李麗雪","LOCATION_T":"地址對位","LOCATION_X":272550,"LOCATION_Y":2759239},"geometry":{"points":[[121.23151075230167,24.938947763160808]]}},{"attributes":{"OBJECTID":766,"STATION_NA":"長榮車業行","COUNTY_NA":"桃園縣","ZIPCODE":"324","ADDRESS":"324桃園縣平鎮市中豐路4號","TEL":"03-4924010","LICENSE_NO":"H67","OWNER":"余青雲","LOCATION_T":"地址對位","LOCATION_X":271171,"LOCATION_Y":2760519},"geometry":{"points":[[121.21787645018129,24.950525748227186]]}},{"attributes":{"OBJECTID":767,"STATION_NA":"和昇機車行","COUNTY_NA":"桃園縣","ZIPCODE":"324","ADDRESS":"324桃園縣平鎮市金陵路240號","TEL":"03-4581191","LICENSE_NO":"H68","OWNER":"游黃鳳琴","LOCATION_T":"地址對位","LOCATION_X":271569,"LOCATION_Y":2759890},"geometry":{"points":[[121.22180753562074,24.944840609209255]]}},{"attributes":{"OBJECTID":768,"STATION_NA":"偉豐機車行","COUNTY_NA":"桃園縣","ZIPCODE":"324","ADDRESS":"324桃園縣平鎮市南豐路171號","TEL":"03-4690163","LICENSE_NO":"H69","OWNER":"洪雪鳳","LOCATION_T":"地址對位","LOCATION_X":270051,"LOCATION_Y":2754888},"geometry":{"points":[[121.20669749713228,24.899699452404711]]}},{"attributes":{"OBJECTID":769,"STATION_NA":"誌茂車業行","COUNTY_NA":"桃園縣","ZIPCODE":"324","ADDRESS":"324桃園縣平鎮市廣明路35號","TEL":"03-4952126","LICENSE_NO":"H70","OWNER":"周玉鳳","LOCATION_T":"地址對位","LOCATION_X":270761,"LOCATION_Y":2760764},"geometry":{"points":[[121.21382010031938,24.952743836175674]]}},{"attributes":{"OBJECTID":770,"STATION_NA":"通台輪業有限公司","COUNTY_NA":"桃園縣","ZIPCODE":"330","ADDRESS":"330桃園縣桃園市中山路207號","TEL":"03-3381739","LICENSE_NO":"H71","OWNER":"潘清和","LOCATION_T":"地址對位","LOCATION_X":280288,"LOCATION_Y":2765228},"geometry":{"points":[[121.30826611797227,24.992880140498865]]}},{"attributes":{"OBJECTID":771,"STATION_NA":"億豐機車有限公司","COUNTY_NA":"桃園縣","ZIPCODE":"330","ADDRESS":"330桃園縣桃園市永安路608號","TEL":"03-3263636","LICENSE_NO":"H72","OWNER":"王坤霖","LOCATION_T":"地址對位","LOCATION_X":279182,"LOCATION_Y":2766397},"geometry":{"points":[[121.29733531622381,25.003456904668848]]}},{"attributes":{"OBJECTID":772,"STATION_NA":"豐田輪業行","COUNTY_NA":"桃園縣","ZIPCODE":"327","ADDRESS":"327桃園縣新屋鄉頭洲村民族路六段7號","TEL":"03-4901339","LICENSE_NO":"H73","OWNER":"彭秀珍","LOCATION_T":"地址對位","LOCATION_X":265881,"LOCATION_Y":2761320},"geometry":{"points":[[121.16549999499505,24.95782507416952]]}},{"attributes":{"OBJECTID":773,"STATION_NA":"三江機車行","COUNTY_NA":"桃園縣","ZIPCODE":"326","ADDRESS":"326桃園縣楊梅鎮中山北路二段453號","TEL":"03-4828112","LICENSE_NO":"H74","OWNER":"謝同泰","LOCATION_T":"地址對位","LOCATION_X":267066,"LOCATION_Y":2756357},"geometry":{"points":[[121.17716909852045,24.913000910958814]]}},{"attributes":{"OBJECTID":774,"STATION_NA":"育新機車行","COUNTY_NA":"桃園縣","ZIPCODE":"326","ADDRESS":"326桃園縣楊梅鎮中山路111號","TEL":"03-4783675","LICENSE_NO":"H75","OWNER":"陳秀珍","LOCATION_T":"地址對位","LOCATION_X":263992,"LOCATION_Y":2755673},"geometry":{"points":[[121.14672904877509,24.9068576585621]]}},{"attributes":{"OBJECTID":775,"STATION_NA":"運達車業行","COUNTY_NA":"桃園縣","ZIPCODE":"326","ADDRESS":"326桃園縣楊梅鎮民族路五段19號","TEL":"03-4902609","LICENSE_NO":"H76","OWNER":"姜仁壽","LOCATION_T":"地址對位","LOCATION_X":266898,"LOCATION_Y":2761441},"geometry":{"points":[[121.17557336115522,24.958906449158327]]}},{"attributes":{"OBJECTID":776,"STATION_NA":"忠旺車業有限公司","COUNTY_NA":"桃園縣","ZIPCODE":"326","ADDRESS":"326桃園縣楊梅鎮光復街11號","TEL":"03-4783539","LICENSE_NO":"H77","OWNER":"邱黃馨方","LOCATION_T":"地址對位","LOCATION_X":263851,"LOCATION_Y":2756221},"geometry":{"points":[[121.14533935316022,24.911806846538429]]}},{"attributes":{"OBJECTID":777,"STATION_NA":"榮春機車行","COUNTY_NA":"桃園縣","ZIPCODE":"325","ADDRESS":"325桃園縣龍潭鄉中興路537號","TEL":"03-4792582","LICENSE_NO":"H78","OWNER":"曾慶土","LOCATION_T":"地址對位","LOCATION_X":271965,"LOCATION_Y":2751738},"geometry":{"points":[[121.22559008962904,24.871230921495076]]}},{"attributes":{"OBJECTID":778,"STATION_NA":"德濟車業有限公司","COUNTY_NA":"桃園縣","ZIPCODE":"333","ADDRESS":"333桃園縣龜山鄉萬壽路一段127號","TEL":"02-82006485","LICENSE_NO":"H79","OWNER":"余光祥","LOCATION_T":"地址對位","LOCATION_X":290372,"LOCATION_Y":2768073},"geometry":{"points":[[121.40824681361929,25.01832038341357]]}},{"attributes":{"OBJECTID":779,"STATION_NA":"今一機車行","COUNTY_NA":"桃園縣","ZIPCODE":"333","ADDRESS":"333桃園縣龜山鄉萬壽路一段349號","TEL":"02-29022307","LICENSE_NO":"H80","OWNER":"游禮煙","LOCATION_T":"地址對位","LOCATION_X":289720,"LOCATION_Y":2767901},"geometry":{"points":[[121.40178169806562,25.016785186135657]]}},{"attributes":{"OBJECTID":780,"STATION_NA":"欣倫車業有限公司","COUNTY_NA":"桃園縣","ZIPCODE":"334","ADDRESS":"334桃園縣八德市中山路129號","TEL":"03-3683093","LICENSE_NO":"H81","OWNER":"簡李甚","LOCATION_T":"地址對位","LOCATION_X":277911,"LOCATION_Y":2757995},"geometry":{"points":[[121.28456918424421,24.927623243181529]]}},{"attributes":{"OBJECTID":781,"STATION_NA":"源章車業行","COUNTY_NA":"桃園縣","ZIPCODE":"334","ADDRESS":"334桃園縣八德市介壽路2段8號","TEL":"03-3669221","LICENSE_NO":"H82","OWNER":"尤文章","LOCATION_T":"地址對位","LOCATION_X":279332,"LOCATION_Y":2761297},"geometry":{"points":[[121.29871029702994,24.957408528534543]]}},{"attributes":{"OBJECTID":782,"STATION_NA":"振發機車行","COUNTY_NA":"桃園縣","ZIPCODE":"334","ADDRESS":"334桃園縣八德市松柏林239號","TEL":"03-3682536","LICENSE_NO":"H83","OWNER":"林王春敏","LOCATION_T":"地址對位","LOCATION_X":279385,"LOCATION_Y":2759256},"geometry":{"points":[[121.29919077988728,24.938979866294147]]}},{"attributes":{"OBJECTID":783,"STATION_NA":"正野車業行","COUNTY_NA":"桃園縣","ZIPCODE":"334","ADDRESS":"334桃園縣八德市義勇街103號","TEL":"03-3752336","LICENSE_NO":"H84","OWNER":"邱益峰","LOCATION_T":"地址對位","LOCATION_X":279858,"LOCATION_Y":2761998},"geometry":{"points":[[121.30393477608796,24.963727082534149]]}},{"attributes":{"OBJECTID":784,"STATION_NA":"詮興輪業有限公司","COUNTY_NA":"桃園縣","ZIPCODE":"334","ADDRESS":"334桃園縣八德市廣福路206號","TEL":"03-3610508","LICENSE_NO":"H85","OWNER":"謝俊禮","LOCATION_T":"地址對位","LOCATION_X":278880,"LOCATION_Y":2761532},"geometry":{"points":[[121.2942391472988,24.959539154928247]]}},{"attributes":{"OBJECTID":785,"STATION_NA":"長信機車行","COUNTY_NA":"桃園縣","ZIPCODE":"334","ADDRESS":"334桃園縣八德市興豐路304-2號","TEL":"03-3686762","LICENSE_NO":"H86","OWNER":"陳財寶","LOCATION_T":"地址對位","LOCATION_X":278075,"LOCATION_Y":2758153},"geometry":{"points":[[121.28619628285084,24.929046656599169]]}},{"attributes":{"OBJECTID":786,"STATION_NA":"千承車業行","COUNTY_NA":"桃園縣","ZIPCODE":"334","ADDRESS":"334桃園縣八德市興豐路844號","TEL":"03-3654222","LICENSE_NO":"H87","OWNER":"江有財","LOCATION_T":"地址對位","LOCATION_X":279501,"LOCATION_Y":2758589},"geometry":{"points":[[121.30032473543123,24.93295537622101]]}},{"attributes":{"OBJECTID":787,"STATION_NA":"大興機車行","COUNTY_NA":"桃園縣","ZIPCODE":"337","ADDRESS":"337桃園縣大園鄉田心村9鄰新興75號","TEL":"03-3862827","LICENSE_NO":"H88","OWNER":"曾和舞","LOCATION_T":"地址對位","LOCATION_X":268834,"LOCATION_Y":2772972},"geometry":{"points":[[121.19490489690965,25.062989899960332]]}},{"attributes":{"OBJECTID":788,"STATION_NA":"三禾機車行","COUNTY_NA":"桃園縣","ZIPCODE":"337","ADDRESS":"337桃園縣大園鄉果林村拔子林9-12號","TEL":"03-3830181","LICENSE_NO":"H89","OWNER":"李陳阿綢","LOCATION_T":"地址對位","LOCATION_X":275371,"LOCATION_Y":2774244},"geometry":{"points":[[121.25972594429365,25.074374077852184]]}},{"attributes":{"OBJECTID":789,"STATION_NA":"新達機車行","COUNTY_NA":"桃園縣","ZIPCODE":"337","ADDRESS":"337桃園縣大園鄉海口村12鄰三民路一段39號","TEL":"03-3837083","LICENSE_NO":"H90","OWNER":"陳進富","LOCATION_T":"地址對位","LOCATION_X":273933,"LOCATION_Y":2777773},"geometry":{"points":[[121.24553383006186,25.106259010803658]]}},{"attributes":{"OBJECTID":790,"STATION_NA":"正山機車行","COUNTY_NA":"桃園縣","ZIPCODE":"335","ADDRESS":"335桃園縣大溪鎮仁和路1段308號1F","TEL":"03-3801937","LICENSE_NO":"H91","OWNER":"林許鳳香","LOCATION_T":"地址對位","LOCATION_X":276825,"LOCATION_Y":2755172},"geometry":{"points":[[121.27375849460196,24.902155339626823]]}},{"attributes":{"OBJECTID":791,"STATION_NA":"達新機車行","COUNTY_NA":"桃園縣","ZIPCODE":"335","ADDRESS":"335桃園縣大溪鎮介壽路959號1F","TEL":"03-3807898","LICENSE_NO":"H92","OWNER":"吳阿盛","LOCATION_T":"地址對位","LOCATION_X":277964,"LOCATION_Y":2755492},"geometry":{"points":[[121.28504032481486,24.905023382102303]]}},{"attributes":{"OBJECTID":792,"STATION_NA":"健生車業行","COUNTY_NA":"桃園縣","ZIPCODE":"335","ADDRESS":"335桃園縣大溪鎮介壽路1195號","TEL":"03-3807779","LICENSE_NO":"H93","OWNER":"江光榮","LOCATION_T":"地址對位","LOCATION_X":277869,"LOCATION_Y":2754895},"geometry":{"points":[[121.28408703340072,24.899635040674209]]}},{"attributes":{"OBJECTID":793,"STATION_NA":"勝大機車行","COUNTY_NA":"桃園縣","ZIPCODE":"335","ADDRESS":"335桃園縣大溪鎮員林路2段260號1樓","TEL":"03-3807432","LICENSE_NO":"H94","OWNER":"黃永枝","LOCATION_T":"地址對位","LOCATION_X":276437,"LOCATION_Y":2753412},"geometry":{"points":[[121.26988159612648,24.886271668713924]]}},{"attributes":{"OBJECTID":794,"STATION_NA":"權益車業行","COUNTY_NA":"桃園縣","ZIPCODE":"320","ADDRESS":"320桃園縣中壢市中山路60號","TEL":"03-4254569","LICENSE_NO":"H95","OWNER":"邱獻全","LOCATION_T":"地址對位","LOCATION_X":272085,"LOCATION_Y":2761074},"geometry":{"points":[[121.22693706219205,24.955523025636406]]}},{"attributes":{"OBJECTID":795,"STATION_NA":"合豐車業行","COUNTY_NA":"桃園縣","ZIPCODE":"320","ADDRESS":"320桃園縣中壢市中山路574號","TEL":"03-4925950","LICENSE_NO":"H96","OWNER":"李金榮","LOCATION_T":"地址對位","LOCATION_X":270738,"LOCATION_Y":2761316},"geometry":{"points":[[121.21360103656224,24.957728152033607]]}},{"attributes":{"OBJECTID":796,"STATION_NA":"華林機車行","COUNTY_NA":"桃園縣","ZIPCODE":"320","ADDRESS":"320桃園縣中壢市中北路42號1F","TEL":"03-4368379","LICENSE_NO":"H97","OWNER":"林成海","LOCATION_T":"地址對位","LOCATION_X":273076,"LOCATION_Y":2761105},"geometry":{"points":[[121.23675180642839,24.95578734785353]]}},{"attributes":{"OBJECTID":797,"STATION_NA":"明升車業有限公司","COUNTY_NA":"桃園縣","ZIPCODE":"320","ADDRESS":"320桃園縣中壢市中正路624號1F","TEL":"03-4010899","LICENSE_NO":"H98","OWNER":"邱繼年","LOCATION_T":"地址對位","LOCATION_X":270478,"LOCATION_Y":2761559},"geometry":{"points":[[121.21102989926084,24.95992591872756]]}},{"attributes":{"OBJECTID":798,"STATION_NA":"坤祥機車行","COUNTY_NA":"桃園縣","ZIPCODE":"320","ADDRESS":"320桃園縣中壢市元化路58號","TEL":"03-4260039","LICENSE_NO":"H99","OWNER":"徐明政","LOCATION_T":"地址對位","LOCATION_X":272239,"LOCATION_Y":2761560},"geometry":{"points":[[121.22847032817737,24.959908673132944]]}},{"attributes":{"OBJECTID":799,"STATION_NA":"旭昇輪業行","COUNTY_NA":"桃園縣","ZIPCODE":"320","ADDRESS":"320桃園縣中壢市延平路148號","TEL":"03-4625053","LICENSE_NO":"HA0","OWNER":"賴吳秀美","LOCATION_T":"地址對位","LOCATION_X":272292,"LOCATION_Y":2761910},"geometry":{"points":[[121.22900111257658,24.963067950803698]]}},{"attributes":{"OBJECTID":800,"STATION_NA":"尚達車業有限公司","COUNTY_NA":"桃園縣","ZIPCODE":"320","ADDRESS":"320桃園縣中壢市延平路298號","TEL":"03-4223832","LICENSE_NO":"HA1","OWNER":"沈騰雲","LOCATION_T":"地址對位","LOCATION_X":271978,"LOCATION_Y":2761691},"geometry":{"points":[[121.2258876428879,24.961095482675344]]}}]}