{"displayFieldName":"STATION_NA","fieldAliases":{"OBJECTID":"OBJECTID","STATION_NA":"STATION_NA","COUNTY_NA":"COUNTY_NA","ZIPCODE":"ZIPCODE","ADDRESS":"ADDRESS","TEL":"TEL","LICENSE_NO":"LICENSE_NO","OWNER":"OWNER","LOCATION_T":"LOCATION_T","LOCATION_X":"LOCATION_X","LOCATION_Y":"LOCATION_Y"},"geometryType":"esriGeometryMultipoint","spatialReference":{"wkid":104137},"fields":[{"name":"OBJECTID","type":"esriFieldTypeOID","alias":"OBJECTID"},{"name":"STATION_NA","type":"esriFieldTypeString","alias":"STATION_NA","length":30},{"name":"COUNTY_NA","type":"esriFieldTypeString","alias":"COUNTY_NA","length":6},{"name":"ZIPCODE","type":"esriFieldTypeString","alias":"ZIPCODE","length":4},{"name":"ADDRESS","type":"esriFieldTypeString","alias":"ADDRESS","length":40},{"name":"TEL","type":"esriFieldTypeString","alias":"TEL","length":11},{"name":"LICENSE_NO","type":"esriFieldTypeString","alias":"LICENSE_NO","length":3},{"name":"OWNER","type":"esriFieldTypeString","alias":"OWNER","length":10},{"name":"LOCATION_T","type":"esriFieldTypeString","alias":"LOCATION_T","length":10},{"name":"LOCATION_X","type":"esriFieldTypeDouble","alias":"LOCATION_X"},{"name":"LOCATION_Y","type":"esriFieldTypeDouble","alias":"LOCATION_Y"}],"features":[{"attributes":{"OBJECTID":401,"STATION_NA":"立晟車業有限公司","COUNTY_NA":"台北縣","ZIPCODE":"234","ADDRESS":"234台北縣永和市保平路213號","TEL":"02-29240832","LICENSE_NO":"F28","OWNER":"王訓全","LOCATION_T":"地址對位","LOCATION_X":300499,"LOCATION_Y":2766598},"geometry":{"points":[[121.50853169118312,25.004696186725099]]}},{"attributes":{"OBJECTID":402,"STATION_NA":"一楓車業有限公司","COUNTY_NA":"台北縣","ZIPCODE":"234","ADDRESS":"234台北縣永和市林森路48巷2號","TEL":"02-29239582","LICENSE_NO":"F29","OWNER":"陳劉素娥","LOCATION_T":"地址對位","LOCATION_X":302144,"LOCATION_Y":2766609},"geometry":{"points":[[121.52482899011069,25.004738239689587]]}},{"attributes":{"OBJECTID":403,"STATION_NA":"永欣車業有限公司","COUNTY_NA":"台北縣","ZIPCODE":"234","ADDRESS":"234台北縣永和市中山路一段84號","TEL":"02-29221511","LICENSE_NO":"F30","OWNER":"黃樹隈","LOCATION_T":"地址對位","LOCATION_X":300853,"LOCATION_Y":2767295},"geometry":{"points":[[121.51206479461132,25.010976391795047]]}},{"attributes":{"OBJECTID":404,"STATION_NA":"佳昌機車有限公司","COUNTY_NA":"台北縣","ZIPCODE":"241","ADDRESS":"241台北縣三重市民生街84-86號","TEL":"02-29818620","LICENSE_NO":"F31","OWNER":"陳水上","LOCATION_T":"地址對位","LOCATION_X":298625,"LOCATION_Y":2773204},"geometry":{"points":[[121.49020375485574,25.064397611849575]]}},{"attributes":{"OBJECTID":405,"STATION_NA":"久福車業有限公司","COUNTY_NA":"台北縣","ZIPCODE":"241","ADDRESS":"241台北縣三重市力行路一段241號1F","TEL":"02-29816066","LICENSE_NO":"F32","OWNER":"林峻皇","LOCATION_T":"地址對位","LOCATION_X":297868,"LOCATION_Y":2773910},"geometry":{"points":[[121.48272563415692,25.070795908235034]]}},{"attributes":{"OBJECTID":406,"STATION_NA":"信鋒輪業有限公司","COUNTY_NA":"台北縣","ZIPCODE":"241","ADDRESS":"241台北縣三重市三民街136號","TEL":"02-29852052","LICENSE_NO":"F33","OWNER":"游錦柏","LOCATION_T":"地址對位","LOCATION_X":297876,"LOCATION_Y":2773281},"geometry":{"points":[[121.48278253552721,25.065116998360054]]}},{"attributes":{"OBJECTID":407,"STATION_NA":"大新車業有限公司","COUNTY_NA":"台北縣","ZIPCODE":"241","ADDRESS":"241台北縣三重市福德北路15-1號","TEL":"02-29733200","LICENSE_NO":"F34","OWNER":"蕭龍堯","LOCATION_T":"地址對位","LOCATION_X":299874,"LOCATION_Y":2773210},"geometry":{"points":[[121.50258380894468,25.064410578418983]]}},{"attributes":{"OBJECTID":408,"STATION_NA":"偉琍實業有限公司","COUNTY_NA":"台北縣","ZIPCODE":"242","ADDRESS":"242台北縣新莊市富國路119號","TEL":"02-22035353","LICENSE_NO":"F35","OWNER":"莊俊金","LOCATION_T":"地址對位","LOCATION_X":291979,"LOCATION_Y":2768787},"geometry":{"points":[[121.42419128868771,25.024721890303457]]}},{"attributes":{"OBJECTID":409,"STATION_NA":"萬隆車業有限公司","COUNTY_NA":"台北縣","ZIPCODE":"242","ADDRESS":"242台北縣新莊市復興路二段99號","TEL":"02-29932912","LICENSE_NO":"F36","OWNER":"吳國卿","LOCATION_T":"地址對位","LOCATION_X":295173,"LOCATION_Y":2770979},"geometry":{"points":[[121.45591308338287,25.044418383689067]]}},{"attributes":{"OBJECTID":410,"STATION_NA":"台鈴新莊服務站","COUNTY_NA":"台北縣","ZIPCODE":"242","ADDRESS":"242台北縣新莊市中山路一段52號","TEL":"02-85221038","LICENSE_NO":"F38","OWNER":"黃政旺","LOCATION_T":"地址對位","LOCATION_X":295794,"LOCATION_Y":2772832},"geometry":{"points":[[121.46213056621053,25.061128802594986]]}},{"attributes":{"OBJECTID":411,"STATION_NA":"大道車輛企業有限公司","COUNTY_NA":"台北縣","ZIPCODE":"242","ADDRESS":"242台北縣新莊市中正路231號","TEL":"02-29925729","LICENSE_NO":"F39","OWNER":"王森雄","LOCATION_T":"地址對位","LOCATION_X":294639,"LOCATION_Y":2769984},"geometry":{"points":[[121.45058794328574,25.035451354609012]]}},{"attributes":{"OBJECTID":412,"STATION_NA":"順華車行有限公司","COUNTY_NA":"台北縣","ZIPCODE":"247","ADDRESS":"247台北縣蘆洲市中山一路276號","TEL":"02-22831475","LICENSE_NO":"F40","OWNER":"陳國祥","LOCATION_T":"地址對位","LOCATION_X":296731,"LOCATION_Y":2774852},"geometry":{"points":[[121.47148794954643,25.079336465332638]]}},{"attributes":{"OBJECTID":413,"STATION_NA":"祥德車業有限公司","COUNTY_NA":"台北縣","ZIPCODE":"247","ADDRESS":"247台北縣蘆洲市中原路75號","TEL":"02-22896020","LICENSE_NO":"F41","OWNER":"李昭儀","LOCATION_T":"地址對位","LOCATION_X":295411,"LOCATION_Y":2775124},"geometry":{"points":[[121.45841189746641,25.081833239302735]]}},{"attributes":{"OBJECTID":414,"STATION_NA":"正陽車業有限公司","COUNTY_NA":"台北縣","ZIPCODE":"244","ADDRESS":"244台北縣林口鄉中正路173號","TEL":"02-26014226","LICENSE_NO":"F42","OWNER":"許林阿甜","LOCATION_T":"地址對位","LOCATION_X":288755,"LOCATION_Y":2774599},"geometry":{"points":[[121.39241462605385,25.077286292154099]]}},{"attributes":{"OBJECTID":415,"STATION_NA":"達泰車業有限公司","COUNTY_NA":"台北縣","ZIPCODE":"238","ADDRESS":"238台北縣樹林鎮保安街一段226號","TEL":"02-26814635","LICENSE_NO":"F43","OWNER":"陳景星","LOCATION_T":"地址對位","LOCATION_X":291557,"LOCATION_Y":2765620},"geometry":{"points":[[121.41991132227571,24.996142571776236]]}},{"attributes":{"OBJECTID":416,"STATION_NA":"真亨車業有限公司","COUNTY_NA":"台北縣","ZIPCODE":"231","ADDRESS":"231台北縣新店市順安街21號","TEL":"02-29148090","LICENSE_NO":"F43","OWNER":"劉能郡","LOCATION_T":"地址對位","LOCATION_X":303816,"LOCATION_Y":2764451},"geometry":{"points":[[121.54130723484397,24.985196024758537]]}},{"attributes":{"OBJECTID":417,"STATION_NA":"全富車業有限公司","COUNTY_NA":"台北縣","ZIPCODE":"231","ADDRESS":"231台北縣新店市北新路一段169號","TEL":"02-29149589","LICENSE_NO":"F45","OWNER":"林美玉","LOCATION_T":"地址對位","LOCATION_X":303678,"LOCATION_Y":2762126},"geometry":{"points":[[121.5398485915872,24.964212051931817]]}},{"attributes":{"OBJECTID":418,"STATION_NA":"群英輪業有限公司","COUNTY_NA":"台北縣","ZIPCODE":"231","ADDRESS":"231台北縣新店市建國路135號","TEL":"02-22192168","LICENSE_NO":"F46","OWNER":"高周滿","LOCATION_T":"地址對位","LOCATION_X":303601,"LOCATION_Y":2763693},"geometry":{"points":[[121.53914784495922,24.978360994519036]]}},{"attributes":{"OBJECTID":419,"STATION_NA":"香港車業有限公司","COUNTY_NA":"台北縣","ZIPCODE":"231","ADDRESS":"231台北縣新店市北新路一段29號","TEL":"02-29116695","LICENSE_NO":"F47","OWNER":"高全樹","LOCATION_T":"地址對位","LOCATION_X":303473,"LOCATION_Y":2761576},"geometry":{"points":[[121.53779670498626,24.959254261930599]]}},{"attributes":{"OBJECTID":420,"STATION_NA":"力溢車業有限公司","COUNTY_NA":"台北縣","ZIPCODE":"236","ADDRESS":"236台北縣土城市中央路一段302號","TEL":"02-22616577","LICENSE_NO":"F48","OWNER":"廖陳美香","LOCATION_T":"地址對位","LOCATION_X":293906,"LOCATION_Y":2764063},"geometry":{"points":[[121.44313089316424,24.98201926017164]]}},{"attributes":{"OBJECTID":421,"STATION_NA":"全翔車業有限公司","COUNTY_NA":"台北縣","ZIPCODE":"236","ADDRESS":"236台北縣土城市裕民路288號","TEL":"02-22730268","LICENSE_NO":"F49","OWNER":"蔡翠嬡","LOCATION_T":"地址對位","LOCATION_X":295164,"LOCATION_Y":2764039},"geometry":{"points":[[121.45559148700193,24.981765299179539]]}},{"attributes":{"OBJECTID":422,"STATION_NA":"玉堂車業股份有限公司","COUNTY_NA":"台北縣","ZIPCODE":"237","ADDRESS":"237台北縣三峽鎮介壽路一段212號","TEL":"02-26715422","LICENSE_NO":"F50","OWNER":"陳玉堂","LOCATION_T":"地址對位","LOCATION_X":287325,"LOCATION_Y":2758335},"geometry":{"points":[[121.3777826625799,24.930487662442772]]}},{"attributes":{"OBJECTID":423,"STATION_NA":"周石田車業有限公司","COUNTY_NA":"台北縣","ZIPCODE":"221","ADDRESS":"221台北縣汐止鎮大同路二段290號","TEL":"02-26415375","LICENSE_NO":"F51","OWNER":"周石田","LOCATION_T":"地址對位","LOCATION_X":315271,"LOCATION_Y":2773479},"geometry":{"points":[[121.65520324606865,25.066241612681598]]}},{"attributes":{"OBJECTID":424,"STATION_NA":"聖大車業有限公司","COUNTY_NA":"台北縣","ZIPCODE":"251","ADDRESS":"251台北縣淡水鎮中正東路51號","TEL":"02-26211597","LICENSE_NO":"F52","OWNER":"蔡吳罔市","LOCATION_T":"地址對位","LOCATION_X":294214,"LOCATION_Y":2784663},"geometry":{"points":[[121.44685767523286,25.167989464041217]]}},{"attributes":{"OBJECTID":425,"STATION_NA":"安益機車行","COUNTY_NA":"台北縣","ZIPCODE":"224","ADDRESS":"224台北縣瑞芳鎮逢甲路208號","TEL":"02-24973805","LICENSE_NO":"F53","OWNER":"李林益","LOCATION_T":"地址對位","LOCATION_X":330540,"LOCATION_Y":2778433},"geometry":{"points":[[121.80683348522479,25.110220345387233]]}},{"attributes":{"OBJECTID":426,"STATION_NA":"金泰發車業有限公司","COUNTY_NA":"台北縣","ZIPCODE":"224","ADDRESS":"224台北縣瑞芳鎮中山路174號","TEL":"02-24974285","LICENSE_NO":"F54","OWNER":"吳美女","LOCATION_T":"地址對位","LOCATION_X":330031,"LOCATION_Y":2778047},"geometry":{"points":[[121.80176440603232,25.106762867376403]]}},{"attributes":{"OBJECTID":427,"STATION_NA":"瑞輪實業有限公司","COUNTY_NA":"台北縣","ZIPCODE":"224","ADDRESS":"224台北縣瑞芳鎮明燈路三段74號","TEL":"02-24972222","LICENSE_NO":"F55","OWNER":"胡詹美女","LOCATION_T":"地址對位","LOCATION_X":330508,"LOCATION_Y":2778218},"geometry":{"points":[[121.80650375904227,25.108281183928252]]}},{"attributes":{"OBJECTID":428,"STATION_NA":"榮擎有限公司","COUNTY_NA":"台北縣","ZIPCODE":"224","ADDRESS":"224台北縣瑞芳鎮一坑路56號","TEL":"02-24975840","LICENSE_NO":"F56","OWNER":"李鴻熙","LOCATION_T":"地址對位","LOCATION_X":330226,"LOCATION_Y":2778218},"geometry":{"points":[[121.80370769369812,25.108296186029506]]}},{"attributes":{"OBJECTID":429,"STATION_NA":"柏松機車行","COUNTY_NA":"台北縣","ZIPCODE":"239","ADDRESS":"239台北縣鶯歌鎮尖山埔路201號","TEL":"02-26792443","LICENSE_NO":"F57","OWNER":"陳信銨","LOCATION_T":"地址對位","LOCATION_X":284026,"LOCATION_Y":2760523},"geometry":{"points":[[121.34517354661327,24.950321234272131]]}},{"attributes":{"OBJECTID":430,"STATION_NA":"同億機車行","COUNTY_NA":"台北縣","ZIPCODE":"239","ADDRESS":"239台北縣鶯歌鎮鶯桃路122號","TEL":"02-26793539","LICENSE_NO":"F58","OWNER":"詹正同","LOCATION_T":"地址對位","LOCATION_X":283322,"LOCATION_Y":2761019},"geometry":{"points":[[121.33821493133455,24.954815047809259]]}},{"attributes":{"OBJECTID":431,"STATION_NA":"德陽機車行","COUNTY_NA":"台北縣","ZIPCODE":"248","ADDRESS":"248台北縣五股鄉成泰路一段71號","TEL":"02-29091566","LICENSE_NO":"F59","OWNER":"徐招治","LOCATION_T":"地址對位","LOCATION_X":293015,"LOCATION_Y":2773568},"geometry":{"points":[[121.43460976443608,25.06785708376832]]}},{"attributes":{"OBJECTID":432,"STATION_NA":"上暉車業有限公司","COUNTY_NA":"台北縣","ZIPCODE":"241","ADDRESS":"241台北縣三重市三和路三段40號","TEL":"02-29885788","LICENSE_NO":"F60","OWNER":"王清龍","LOCATION_T":"地址對位","LOCATION_X":299203,"LOCATION_Y":2773902},"geometry":{"points":[[121.49595831729575,25.070680255248778]]}},{"attributes":{"OBJECTID":433,"STATION_NA":"和昌機車行","COUNTY_NA":"台北縣","ZIPCODE":"241","ADDRESS":"241台北縣三重市三和路四段225號","TEL":"02-22867755","LICENSE_NO":"F61","OWNER":"張今寶","LOCATION_T":"地址對位","LOCATION_X":297731,"LOCATION_Y":2774907},"geometry":{"points":[[121.48140298521538,25.079801227954412]]}},{"attributes":{"OBJECTID":434,"STATION_NA":"國葉車業有限公司","COUNTY_NA":"台北縣","ZIPCODE":"241","ADDRESS":"241台北縣三重市中正南路85號","TEL":"02-29776645","LICENSE_NO":"F62","OWNER":"林國財","LOCATION_T":"地址對位","LOCATION_X":299023,"LOCATION_Y":2772537},"geometry":{"points":[[121.49412433721734,25.058362843525131]]}},{"attributes":{"OBJECTID":435,"STATION_NA":"新輪車業行","COUNTY_NA":"台北縣","ZIPCODE":"241","ADDRESS":"241台北縣三重市中華路54號","TEL":"02-29836221","LICENSE_NO":"F63","OWNER":"謝國暢","LOCATION_T":"地址對位","LOCATION_X":297928,"LOCATION_Y":2772931},"geometry":{"points":[[121.48328548095031,25.061955504340389]]}},{"attributes":{"OBJECTID":436,"STATION_NA":"昆輝機車行","COUNTY_NA":"台北縣","ZIPCODE":"241","ADDRESS":"241台北縣三重市自強路二段76號","TEL":"02-29886585","LICENSE_NO":"F64","OWNER":"李芳輝","LOCATION_T":"地址對位","LOCATION_X":298399,"LOCATION_Y":2773845},"geometry":{"points":[[121.48798675365782,25.070191947064799]]}},{"attributes":{"OBJECTID":437,"STATION_NA":"威廷機車行","COUNTY_NA":"台北縣","ZIPCODE":"241","ADDRESS":"241台北縣三重市忠孝路一段58號","TEL":"02-29816659","LICENSE_NO":"F65","OWNER":"林陳玉琴","LOCATION_T":"地址對位","LOCATION_X":298646,"LOCATION_Y":2774028},"geometry":{"points":[[121.49044171210407,25.071836043341591]]}},{"attributes":{"OBJECTID":438,"STATION_NA":"金鈴機車有限公司","COUNTY_NA":"台北縣","ZIPCODE":"241","ADDRESS":"241台北縣三重市溪尾街146號","TEL":"02-22860126","LICENSE_NO":"F66","OWNER":"陳金亮","LOCATION_T":"地址對位","LOCATION_X":298497,"LOCATION_Y":2774904},"geometry":{"points":[[121.48899631939977,25.079749410036733]]}},{"attributes":{"OBJECTID":439,"STATION_NA":"建宏機車行","COUNTY_NA":"台北縣","ZIPCODE":"236","ADDRESS":"236台北縣土城市中央路四段5號","TEL":"02-22682792","LICENSE_NO":"F67","OWNER":"楊程麗花","LOCATION_T":"地址對位","LOCATION_X":292148,"LOCATION_Y":2761925},"geometry":{"points":[[121.4256492986308,24.962768814145001]]}},{"attributes":{"OBJECTID":440,"STATION_NA":"群益車業有限公司","COUNTY_NA":"台北縣","ZIPCODE":"236","ADDRESS":"236台北縣土城市延和路20號","TEL":"02-22664203","LICENSE_NO":"F68","OWNER":"蕭桂芝","LOCATION_T":"地址對位","LOCATION_X":296075,"LOCATION_Y":2764762},"geometry":{"points":[[121.46464003411974,24.988264740118741]]}},{"attributes":{"OBJECTID":441,"STATION_NA":"東發車業有限公司","COUNTY_NA":"台北縣","ZIPCODE":"236","ADDRESS":"236台北縣土城市金城路三段235號","TEL":"02-22627281","LICENSE_NO":"F69","OWNER":"蘇光榮","LOCATION_T":"地址對位","LOCATION_X":296726,"LOCATION_Y":2764937},"geometry":{"points":[[121.47109487856424,24.989824532480664]]}},{"attributes":{"OBJECTID":442,"STATION_NA":"名仕車業行","COUNTY_NA":"台北縣","ZIPCODE":"235","ADDRESS":"235台北縣中和市中山路二段134-6號","TEL":"02-22480960","LICENSE_NO":"F70","OWNER":"許何翠菊","LOCATION_T":"地址對位","LOCATION_X":299866,"LOCATION_Y":2766459},"geometry":{"points":[[121.50225542257145,25.0034628355588]]}},{"attributes":{"OBJECTID":443,"STATION_NA":"福豪車業行","COUNTY_NA":"台北縣","ZIPCODE":"235","ADDRESS":"235台北縣中和市安平路110號","TEL":"02-29415283","LICENSE_NO":"F71","OWNER":"許陳寶蓮","LOCATION_T":"地址對位","LOCATION_X":300832,"LOCATION_Y":2765792},"geometry":{"points":[[121.51180077545143,24.997408479767142]]}},{"attributes":{"OBJECTID":444,"STATION_NA":"有盛車業有限公司","COUNTY_NA":"台北縣","ZIPCODE":"235","ADDRESS":"235台北縣中和市安樂路29號","TEL":"02-29461218","LICENSE_NO":"F72","OWNER":"朱林寶貴","LOCATION_T":"地址對位","LOCATION_X":300821,"LOCATION_Y":2765249},"geometry":{"points":[[121.51167167392933,24.992506920565063]]}},{"attributes":{"OBJECTID":445,"STATION_NA":"久川車業有限公司","COUNTY_NA":"台北縣","ZIPCODE":"234","ADDRESS":"235台北縣中和市安樂路68號","TEL":"02-29428322","LICENSE_NO":"F73","OWNER":"黃保桐","LOCATION_T":"地址對位","LOCATION_X":301138,"LOCATION_Y":2765891},"geometry":{"points":[[121.51483580486958,24.998291594184924]]}},{"attributes":{"OBJECTID":446,"STATION_NA":"豪成機車有限公司","COUNTY_NA":"台北縣","ZIPCODE":"235","ADDRESS":"235台北縣中和市成功南路109號1F","TEL":"02-29490766","LICENSE_NO":"F74","OWNER":"吳文樑","LOCATION_T":"地址對位","LOCATION_X":302273,"LOCATION_Y":2765110},"geometry":{"points":[[121.52604942307963,24.991200972182085]]}},{"attributes":{"OBJECTID":447,"STATION_NA":"筌富實業有限公司","COUNTY_NA":"台北縣","ZIPCODE":"235","ADDRESS":"235台北縣中和市連城路337-1號1F","TEL":"02-22222370","LICENSE_NO":"F75","OWNER":"游林玉環","LOCATION_T":"地址對位","LOCATION_X":298475,"LOCATION_Y":2765633},"geometry":{"points":[[121.48844527588189,24.996052121946438]]}},{"attributes":{"OBJECTID":448,"STATION_NA":"旭泰車業有限公司","COUNTY_NA":"台北縣","ZIPCODE":"235","ADDRESS":"235台北縣中和市泰和街45號","TEL":"02-22405463","LICENSE_NO":"F76","OWNER":"呂金地","LOCATION_T":"地址對位","LOCATION_X":299539,"LOCATION_Y":2765994},"geometry":{"points":[[121.49899892596578,24.999275967075175]]}},{"attributes":{"OBJECTID":449,"STATION_NA":"一俐車業有限公司","COUNTY_NA":"台北縣","ZIPCODE":"235","ADDRESS":"235台北縣中和市景平路670號","TEL":"02-22405252","LICENSE_NO":"F77","OWNER":"林建源","LOCATION_T":"地址對位","LOCATION_X":299364,"LOCATION_Y":2766207},"geometry":{"points":[[121.49727292526359,25.001204672912952]]}},{"attributes":{"OBJECTID":450,"STATION_NA":"祐泰車業有限公司","COUNTY_NA":"台北縣","ZIPCODE":"235","ADDRESS":"235台北縣中和市景新街467巷1號","TEL":"02-29409068","LICENSE_NO":"F78","OWNER":"陳美珠","LOCATION_T":"地址對位","LOCATION_X":301001,"LOCATION_Y":2764774},"geometry":{"points":[[121.51343704748561,24.988212627797974]]}},{"attributes":{"OBJECTID":451,"STATION_NA":"大鑫車業有限公司","COUNTY_NA":"台北縣","ZIPCODE":"234","ADDRESS":"234台北縣永和市中正路40號1F","TEL":"02-29468888","LICENSE_NO":"F79","OWNER":"廖豐草","LOCATION_T":"地址對位","LOCATION_X":300967,"LOCATION_Y":2765451},"geometry":{"points":[[121.51312545546992,24.994325424813994]]}},{"attributes":{"OBJECTID":452,"STATION_NA":"福順車業有限公司","COUNTY_NA":"台北縣","ZIPCODE":"234","ADDRESS":"234台北縣永和市永平路296號","TEL":"02-29236996","LICENSE_NO":"F80","OWNER":"陳王素欽","LOCATION_T":"地址對位","LOCATION_X":300406,"LOCATION_Y":2767425},"geometry":{"points":[[121.50764091568313,25.012165298102751]]}},{"attributes":{"OBJECTID":453,"STATION_NA":"景騛機車行","COUNTY_NA":"台北縣","ZIPCODE":"234","ADDRESS":"234台北縣永和市永貞路313號","TEL":"02-22317972","LICENSE_NO":"F81","OWNER":"游志堂","LOCATION_T":"地址對位","LOCATION_X":300651,"LOCATION_Y":2766794},"geometry":{"points":[[121.51004483415132,25.006460404668278]]}},{"attributes":{"OBJECTID":454,"STATION_NA":"宏升機車有限公司","COUNTY_NA":"台北縣","ZIPCODE":"221","ADDRESS":"221台北縣汐止鎮大同路二段503號","TEL":"02-26412878","LICENSE_NO":"F82","OWNER":"李麗梅","LOCATION_T":"地址對位","LOCATION_X":315860,"LOCATION_Y":2773762},"geometry":{"points":[[121.66105481736659,25.068770646047799]]}},{"attributes":{"OBJECTID":455,"STATION_NA":"永湛車業有限公司","COUNTY_NA":"台北縣","ZIPCODE":"221","ADDRESS":"221台北縣汐止鎮福德一路278號1樓","TEL":"02-26945003","LICENSE_NO":"F83","OWNER":"林麗月","LOCATION_T":"地址對位","LOCATION_X":312450,"LOCATION_Y":2772838},"geometry":{"points":[[121.62721390463589,25.060575646712525]]}},{"attributes":{"OBJECTID":456,"STATION_NA":"榮輪車業有限公司","COUNTY_NA":"台北縣","ZIPCODE":"220","ADDRESS":"220台北縣板橋市中正路307號","TEL":"02-29697721","LICENSE_NO":"F84","OWNER":"林榮屘","LOCATION_T":"地址對位","LOCATION_X":295099,"LOCATION_Y":2768246},"geometry":{"points":[[121.45508803272938,25.019746862609374]]}},{"attributes":{"OBJECTID":457,"STATION_NA":"連陽車業有限公司","COUNTY_NA":"台北縣","ZIPCODE":"242","ADDRESS":"242台北縣新莊市昌平街67號","TEL":"02-29936800","LICENSE_NO":"F85","OWNER":"施碧玲","LOCATION_T":"地址對位","LOCATION_X":295026,"LOCATION_Y":2771988},"geometry":{"points":[[121.45449009876589,25.053532335186141]]}},{"attributes":{"OBJECTID":458,"STATION_NA":"有利車業有限公司","COUNTY_NA":"台北縣","ZIPCODE":"220","ADDRESS":"220台北縣板橋市互助街94號","TEL":"02-22563364","LICENSE_NO":"F86","OWNER":"顏能通","LOCATION_T":"地址對位","LOCATION_X":295608,"LOCATION_Y":2768972},"geometry":{"points":[[121.46015594374948,25.026285761317038]]}},{"attributes":{"OBJECTID":459,"STATION_NA":"欣展展業有限公司","COUNTY_NA":"台北縣","ZIPCODE":"220","ADDRESS":"220台北縣板橋市文化路一段279號","TEL":"02-22588214","LICENSE_NO":"F87","OWNER":"姚許庇","LOCATION_T":"地址對位","LOCATION_X":296060,"LOCATION_Y":2768133},"geometry":{"points":[[121.46460599420304,25.018697519258868]]}},{"attributes":{"OBJECTID":460,"STATION_NA":"榮德車業有限公司","COUNTY_NA":"台北縣","ZIPCODE":"220","ADDRESS":"220台北縣板橋市四川路二段245巷67號","TEL":"02-29541798","LICENSE_NO":"F89","OWNER":"黃惠民","LOCATION_T":"地址對位","LOCATION_X":294861,"LOCATION_Y":2765186},"geometry":{"points":[[121.45262807438102,24.992129093992922]]}},{"attributes":{"OBJECTID":461,"STATION_NA":"樺山車業有限公司","COUNTY_NA":"台北縣","ZIPCODE":"220","ADDRESS":"220台北縣板橋市長江路一段51號","TEL":"02-22592483","LICENSE_NO":"F90","OWNER":"陳惠玲","LOCATION_T":"地址對位","LOCATION_X":295453,"LOCATION_Y":2769305},"geometry":{"points":[[121.45863133792697,25.029296811291587]]}},{"attributes":{"OBJECTID":462,"STATION_NA":"僑王機車行","COUNTY_NA":"台北縣","ZIPCODE":"220","ADDRESS":"220台北縣板橋市華興街42號1F","TEL":"02-29616969","LICENSE_NO":"F91","OWNER":"廖炳煌","LOCATION_T":"地址對位","LOCATION_X":295443,"LOCATION_Y":2766599},"geometry":{"points":[[121.45844095830729,25.0048676986675]]}},{"attributes":{"OBJECTID":463,"STATION_NA":"蘭帝車業有限公司","COUNTY_NA":"台北縣","ZIPCODE":"220","ADDRESS":"220台北縣板橋市實踐路82號","TEL":"02-29559206","LICENSE_NO":"F92","OWNER":"涂吳雪","LOCATION_T":"地址對位","LOCATION_X":295981,"LOCATION_Y":2766642},"geometry":{"points":[[121.46377246281773,25.00523951982392]]}},{"attributes":{"OBJECTID":464,"STATION_NA":"樺龍車業有限公司","COUNTY_NA":"台北縣","ZIPCODE":"251","ADDRESS":"251台北縣淡水鎮中正東路43號1F","TEL":"02-26224070","LICENSE_NO":"F93","OWNER":"李金龍","LOCATION_T":"地址對位","LOCATION_X":294185,"LOCATION_Y":2784678},"geometry":{"points":[[121.44657048351884,25.168125765132565]]}},{"attributes":{"OBJECTID":465,"STATION_NA":"永悅車業有限公司","COUNTY_NA":"台北縣","ZIPCODE":"251","ADDRESS":"251台北縣淡水鎮大忠街36號","TEL":"02-26297077","LICENSE_NO":"F94","OWNER":"李永欽","LOCATION_T":"地址對位","LOCATION_X":293890,"LOCATION_Y":2785531},"geometry":{"points":[[121.44367141603396,25.175835510095766]]}},{"attributes":{"OBJECTID":466,"STATION_NA":"鶴山輪業有限公司","COUNTY_NA":"台北縣","ZIPCODE":"231","ADDRESS":"231台北縣新店市中興路一段186號","TEL":"02-29147733","LICENSE_NO":"F95","OWNER":"陳  泥","LOCATION_T":"地址對位","LOCATION_X":304038,"LOCATION_Y":2762201},"geometry":{"points":[[121.5434167401139,24.964875985768103]]}},{"attributes":{"OBJECTID":467,"STATION_NA":"泉和車業有限公司","COUNTY_NA":"台北縣","ZIPCODE":"231","ADDRESS":"231台北縣新店市安和路三段175號","TEL":"02-29455555","LICENSE_NO":"F96","OWNER":"林錦泉","LOCATION_T":"地址對位","LOCATION_X":301277,"LOCATION_Y":2764550},"geometry":{"points":[[121.51616250553485,24.986180820899342]]}},{"attributes":{"OBJECTID":468,"STATION_NA":"昇億機車行","COUNTY_NA":"台北縣","ZIPCODE":"242","ADDRESS":"242台北縣新莊市中平路82巷28號","TEL":"02-29945750","LICENSE_NO":"F97","OWNER":"邱照憲","LOCATION_T":"地址對位","LOCATION_X":294173,"LOCATION_Y":2771005},"geometry":{"points":[[121.44600367047316,25.044683040573307]]}},{"attributes":{"OBJECTID":469,"STATION_NA":"五洲機車有限公司","COUNTY_NA":"台北縣","ZIPCODE":"242","ADDRESS":"242台北縣新莊市中正路346號1F","TEL":"02-29962414","LICENSE_NO":"F98","OWNER":"曾麗玉","LOCATION_T":"地址對位","LOCATION_X":293991,"LOCATION_Y":2769886},"geometry":{"points":[[121.44416336858065,25.03458580160525]]}},{"attributes":{"OBJECTID":470,"STATION_NA":"鎰昇車業有限公司","COUNTY_NA":"台北縣","ZIPCODE":"242","ADDRESS":"242台北縣新莊市中誠街1號","TEL":"02-29939953","LICENSE_NO":"F99","OWNER":"王秀玉","LOCATION_T":"地址對位","LOCATION_X":294802,"LOCATION_Y":2771377},"geometry":{"points":[[121.452249647371,25.048022811008909]]}},{"attributes":{"OBJECTID":471,"STATION_NA":"鴻鈴車業有限公司","COUNTY_NA":"台北縣","ZIPCODE":"242","ADDRESS":"242台北縣新莊市民安路45號","TEL":"02-22038646","LICENSE_NO":"FA0","OWNER":"蘇淑貞","LOCATION_T":"地址對位","LOCATION_X":291947,"LOCATION_Y":2768980},"geometry":{"points":[[121.4238802483783,25.026465207738116]]}},{"attributes":{"OBJECTID":472,"STATION_NA":"光昇車業有限公司","COUNTY_NA":"台北縣","ZIPCODE":"242","ADDRESS":"242台北縣新莊市思源路165號1F","TEL":"02-29929339","LICENSE_NO":"FA1","OWNER":"徐永掌","LOCATION_T":"地址對位","LOCATION_X":295544,"LOCATION_Y":2771025},"geometry":{"points":[[121.45959135095838,25.044822430047621]]}},{"attributes":{"OBJECTID":473,"STATION_NA":"順豐車業行","COUNTY_NA":"台北縣","ZIPCODE":"242","ADDRESS":"242台北縣新莊市新泰路336號","TEL":"02-29921757","LICENSE_NO":"FA2","OWNER":"林琴福","LOCATION_T":"地址對位","LOCATION_X":294062,"LOCATION_Y":2770721},"geometry":{"points":[[121.4448943137467,25.042122295118265]]}},{"attributes":{"OBJECTID":474,"STATION_NA":"台順車業有限公司","COUNTY_NA":"台北縣","ZIPCODE":"207","ADDRESS":"207台北縣萬里鄉瑪鍊路290號","TEL":"02-24922212","LICENSE_NO":"FA3","OWNER":"陳美玉","LOCATION_T":"地址對位","LOCATION_X":318575,"LOCATION_Y":2786258},"geometry":{"points":[[121.68859962381404,25.181455574729231]]}},{"attributes":{"OBJECTID":475,"STATION_NA":"樹申有限公司","COUNTY_NA":"台北縣","ZIPCODE":"238","ADDRESS":"238台北縣樹林鎮中山路一段54號","TEL":"02-26815240","LICENSE_NO":"FA4","OWNER":"簡春美","LOCATION_T":"地址對位","LOCATION_X":291917,"LOCATION_Y":2765165},"geometry":{"points":[[121.42346328425107,24.992024923257762]]}},{"attributes":{"OBJECTID":476,"STATION_NA":"鴻億車業有限公司","COUNTY_NA":"台北縣","ZIPCODE":"238","ADDRESS":"238台北縣樹林鎮保安二街43號","TEL":"02-26830003","LICENSE_NO":"FA5","OWNER":"林清風","LOCATION_T":"地址對位","LOCATION_X":292026,"LOCATION_Y":2765400},"geometry":{"points":[[121.42455049237709,24.99414333298731]]}},{"attributes":{"OBJECTID":477,"STATION_NA":"蘆洲機車有限公司","COUNTY_NA":"台北縣","ZIPCODE":"247","ADDRESS":"247台北縣蘆洲市中正路138號","TEL":"02-22822745","LICENSE_NO":"FA6","OWNER":"張正澤","LOCATION_T":"地址對位","LOCATION_X":296493,"LOCATION_Y":2775498},"geometry":{"points":[[121.46915091248961,25.085176049951201]]}},{"attributes":{"OBJECTID":478,"STATION_NA":"勝男車業有限公司","COUNTY_NA":"台北縣","ZIPCODE":"247","ADDRESS":"247台北縣蘆洲市復興路284號","TEL":"02-22828228","LICENSE_NO":"FA7","OWNER":"黃林貞惠","LOCATION_T":"地址對位","LOCATION_X":297656,"LOCATION_Y":2776017},"geometry":{"points":[[121.48069869535985,25.089824615855349]]}},{"attributes":{"OBJECTID":479,"STATION_NA":"欣富車業行","COUNTY_NA":"台北縣","ZIPCODE":"220","ADDRESS":"220台北縣板橋市長江路1段107號1F","TEL":"02-22501151","LICENSE_NO":"FB2","OWNER":"黃三和","LOCATION_T":"地址對位","LOCATION_X":295548,"LOCATION_Y":2769363},"geometry":{"points":[[121.45957466036968,25.029817556062973]]}},{"attributes":{"OBJECTID":480,"STATION_NA":"榮記輪業有限公司","COUNTY_NA":"台北縣","ZIPCODE":"220","ADDRESS":"220台北縣板橋市長江路1段184號","TEL":"02-22523322","LICENSE_NO":"FB3","OWNER":"林蔡糸秀鳳","LOCATION_T":"地址對位","LOCATION_X":295787,"LOCATION_Y":2769436},"geometry":{"points":[[121.46194541195266,25.03046932716796]]}},{"attributes":{"OBJECTID":481,"STATION_NA":"明興機車行","COUNTY_NA":"台北縣","ZIPCODE":"220","ADDRESS":"220台北縣板橋市長江路1段359號","TEL":"02-22567976","LICENSE_NO":"FB4","OWNER":"李明","LOCATION_T":"地址對位","LOCATION_X":295732,"LOCATION_Y":2769455},"geometry":{"points":[[121.46140105850179,25.03064253675738]]}},{"attributes":{"OBJECTID":482,"STATION_NA":"仟松車業有限公司","COUNTY_NA":"台北縣","ZIPCODE":"220","ADDRESS":"220台北縣板橋市長江路2段128號","TEL":"02-22550811","LICENSE_NO":"FB5","OWNER":"陳岳瑤","LOCATION_T":"地址對位","LOCATION_X":296178,"LOCATION_Y":2769558},"geometry":{"points":[[121.46582406500255,25.031558755466818]]}},{"attributes":{"OBJECTID":483,"STATION_NA":"安全車業有限公司","COUNTY_NA":"台北縣","ZIPCODE":"220","ADDRESS":"220台北縣板橋市長江路3段117號","TEL":"02-22525224","LICENSE_NO":"FB6","OWNER":"蔡美麗","LOCATION_T":"地址對位","LOCATION_X":297119,"LOCATION_Y":2769914},"geometry":{"points":[[121.47516110156867,25.034743418503272]]}},{"attributes":{"OBJECTID":484,"STATION_NA":"進新輪業有限公司","COUNTY_NA":"台北縣","ZIPCODE":"220","ADDRESS":"220台北縣板橋市長江路2段197號","TEL":"02-22553898","LICENSE_NO":"FB7","OWNER":"蔡木和","LOCATION_T":"地址對位","LOCATION_X":296326,"LOCATION_Y":2769642},"geometry":{"points":[[121.46729352478071,25.032312537865216]]}},{"attributes":{"OBJECTID":485,"STATION_NA":"繼郎機車有限公司","COUNTY_NA":"台北縣","ZIPCODE":"220","ADDRESS":"220台北縣板橋市四川路1段381號1F","TEL":"02-29615988","LICENSE_NO":"FB8","OWNER":"林吳素雲","LOCATION_T":"地址對位","LOCATION_X":295422,"LOCATION_Y":2765989},"geometry":{"points":[[121.45821240892258,24.999361436141555]]}},{"attributes":{"OBJECTID":486,"STATION_NA":"世鼎車業有限公司","COUNTY_NA":"台北縣","ZIPCODE":"220","ADDRESS":"220台北縣板橋市四川路2段86號","TEL":"02-29554160","LICENSE_NO":"FB9","OWNER":"劉燦慧","LOCATION_T":"地址對位","LOCATION_X":294798,"LOCATION_Y":2765480},"geometry":{"points":[[121.45201371768285,24.994785103249871]]}},{"attributes":{"OBJECTID":487,"STATION_NA":"永督機車行","COUNTY_NA":"台北縣","ZIPCODE":"220","ADDRESS":"220台北縣板橋市民族路178號1F","TEL":"02-29500229","LICENSE_NO":"FC0","OWNER":"朱永督","LOCATION_T":"地址對位","LOCATION_X":296364,"LOCATION_Y":2766906},"geometry":{"points":[[121.46757592903265,25.00761103163795]]}},{"attributes":{"OBJECTID":488,"STATION_NA":"騰鴻車業有限公司","COUNTY_NA":"台北縣","ZIPCODE":"220","ADDRESS":"220台北縣板橋市三民路2段7號","TEL":"02-29520950","LICENSE_NO":"FC1","OWNER":"黃登燦","LOCATION_T":"地址對位","LOCATION_X":297557,"LOCATION_Y":2768120},"geometry":{"points":[[121.47943809756894,25.018533368551569]]}},{"attributes":{"OBJECTID":489,"STATION_NA":"讚成機車行","COUNTY_NA":"台北縣","ZIPCODE":"220","ADDRESS":"220台北縣板橋市中山路2段495號","TEL":"02-29506506","LICENSE_NO":"FC2","OWNER":"陳讚成","LOCATION_T":"地址對位","LOCATION_X":297859,"LOCATION_Y":2768410},"geometry":{"points":[[121.48244067260302,25.0211418327263]]}},{"attributes":{"OBJECTID":490,"STATION_NA":"華豐機車行","COUNTY_NA":"台北縣","ZIPCODE":"220","ADDRESS":"220台北縣板橋市莊敬路214號","TEL":"02-22542878","LICENSE_NO":"FC3","OWNER":"蘇菊","LOCATION_T":"地址對位","LOCATION_X":296831,"LOCATION_Y":2768419},"geometry":{"points":[[121.47225514419844,25.021255614622465]]}},{"attributes":{"OBJECTID":491,"STATION_NA":"大裕車業行","COUNTY_NA":"台北縣","ZIPCODE":"220","ADDRESS":"220台北縣板橋市莒光路192號","TEL":"02-22534697","LICENSE_NO":"FC4","OWNER":"李金花","LOCATION_T":"地址對位","LOCATION_X":296999,"LOCATION_Y":2768556},"geometry":{"points":[[121.47392452956844,25.022487181470559]]}},{"attributes":{"OBJECTID":492,"STATION_NA":"興祥機車行","COUNTY_NA":"台北縣","ZIPCODE":"220","ADDRESS":"220台北縣板橋市民治街61巷2號1F","TEL":"02-22578456","LICENSE_NO":"FC5","OWNER":"鄒忠賢","LOCATION_T":"地址對位","LOCATION_X":297563,"LOCATION_Y":2769775},"geometry":{"points":[[121.47955599830691,25.033474466312235]]}},{"attributes":{"OBJECTID":493,"STATION_NA":"來興車業有限公司","COUNTY_NA":"台北縣","ZIPCODE":"220","ADDRESS":"220台北縣板橋市新海路398號","TEL":"02-22566065","LICENSE_NO":"FC6","OWNER":"許清文","LOCATION_T":"地址對位","LOCATION_X":295475,"LOCATION_Y":2769018},"geometry":{"points":[[121.45883963334148,25.026705084258502]]}},{"attributes":{"OBJECTID":494,"STATION_NA":"隆陞車業有限公司","COUNTY_NA":"台北縣","ZIPCODE":"220","ADDRESS":"220台北縣板橋市新海路420號","TEL":"02-22580630","LICENSE_NO":"FC7","OWNER":"林瑞賢","LOCATION_T":"地址對位","LOCATION_X":295428,"LOCATION_Y":2769099},"geometry":{"points":[[121.45837665471811,25.027437784834138]]}},{"attributes":{"OBJECTID":495,"STATION_NA":"忠山機車行","COUNTY_NA":"台北縣","ZIPCODE":"220","ADDRESS":"220台北縣板橋市文化路1段205號","TEL":"02-29661923","LICENSE_NO":"FC8","OWNER":"陳寶林","LOCATION_T":"地址對位","LOCATION_X":295929,"LOCATION_Y":2767933},"geometry":{"points":[[121.46330120571925,25.016895956775734]]}},{"attributes":{"OBJECTID":496,"STATION_NA":"富騏輪業有限公司","COUNTY_NA":"台北縣","ZIPCODE":"220","ADDRESS":"220台北縣板橋市民生路三段113號","TEL":"02-22591386","LICENSE_NO":"FC9","OWNER":"黃聚德","LOCATION_T":"地址對位","LOCATION_X":296221,"LOCATION_Y":2768874},"geometry":{"points":[[121.46622665725971,25.02538225682855]]}},{"attributes":{"OBJECTID":497,"STATION_NA":"東三機車行","COUNTY_NA":"台北縣","ZIPCODE":"220","ADDRESS":"220台北縣板橋市光正街45巷2弄17號","TEL":"02-29689865","LICENSE_NO":"FD0","OWNER":"楊文興","LOCATION_T":"地址對位","LOCATION_X":295705,"LOCATION_Y":2767972},"geometry":{"points":[[121.46108313298564,25.017254789605165]]}},{"attributes":{"OBJECTID":498,"STATION_NA":"大忠車業行","COUNTY_NA":"台北縣","ZIPCODE":"220","ADDRESS":"220台北縣板橋市中正路250巷13號1F","TEL":"02-29677098","LICENSE_NO":"FD1","OWNER":"葉泰忠","LOCATION_T":"地址對位","LOCATION_X":295206,"LOCATION_Y":2768218},"geometry":{"points":[[121.45614727225029,25.019490863820376]]}},{"attributes":{"OBJECTID":499,"STATION_NA":"祥達車業有限公司","COUNTY_NA":"台北縣","ZIPCODE":"220","ADDRESS":"220台北縣板橋市大智街22號","TEL":"02-29669875","LICENSE_NO":"FD2","OWNER":"賴清奎","LOCATION_T":"地址對位","LOCATION_X":295160,"LOCATION_Y":2767718},"geometry":{"points":[[121.45567471978018,25.014978314610325]]}},{"attributes":{"OBJECTID":500,"STATION_NA":"北門車業有限公司","COUNTY_NA":"台北縣","ZIPCODE":"220","ADDRESS":"220台北縣板橋市西門街12號","TEL":"02-29651205","LICENSE_NO":"FD3","OWNER":"林素珍","LOCATION_T":"地址對位","LOCATION_X":295150,"LOCATION_Y":2767347},"geometry":{"points":[[121.45556320520798,25.011629294696871]]}},{"attributes":{"OBJECTID":501,"STATION_NA":"欣展展業行","COUNTY_NA":"台北縣","ZIPCODE":"220","ADDRESS":"220台北縣板橋市大觀路1段8號","TEL":"02-29652668","LICENSE_NO":"FD4","OWNER":"姚鎮海","LOCATION_T":"地址對位","LOCATION_X":294644,"LOCATION_Y":2767013},"geometry":{"points":[[121.45053886313757,25.00862914267919]]}},{"attributes":{"OBJECTID":502,"STATION_NA":"昇樺機車行","COUNTY_NA":"台北縣","ZIPCODE":"220","ADDRESS":"220台北縣板橋市仁愛路16號","TEL":"02-29565263","LICENSE_NO":"FD5","OWNER":"陳春金","LOCATION_T":"地址對位","LOCATION_X":295461,"LOCATION_Y":2765998},"geometry":{"points":[[121.45859907417915,24.999441503848377]]}},{"attributes":{"OBJECTID":503,"STATION_NA":"永定機車行","COUNTY_NA":"台北縣","ZIPCODE":"220","ADDRESS":"220台北縣板橋市溪崑二街8號1F","TEL":"02-26833470","LICENSE_NO":"FD6","OWNER":"陳定甲","LOCATION_T":"地址對位","LOCATION_X":292449,"LOCATION_Y":2765143},"geometry":{"points":[[121.42873270715452,24.991811248717056]]}},{"attributes":{"OBJECTID":504,"STATION_NA":"永裕車業行","COUNTY_NA":"台北縣","ZIPCODE":"220","ADDRESS":"220台北縣板橋市溪北路158號","TEL":"02-26833950","LICENSE_NO":"FD7","OWNER":"林秀芳","LOCATION_T":"地址對位","LOCATION_X":292631,"LOCATION_Y":2764733},"geometry":{"points":[[121.4305225455844,24.988104734150014]]}},{"attributes":{"OBJECTID":505,"STATION_NA":"有展機車行","COUNTY_NA":"台北縣","ZIPCODE":"220","ADDRESS":"220台北縣板橋市三民路1段31巷87弄11號","TEL":"02-29553587","LICENSE_NO":"FD8","OWNER":"魏有展","LOCATION_T":"地址對位","LOCATION_X":297746,"LOCATION_Y":2768681},"geometry":{"points":[[121.48133062647125,25.02359201411528]]}},{"attributes":{"OBJECTID":506,"STATION_NA":"雷進順機車行","COUNTY_NA":"台北縣","ZIPCODE":"220","ADDRESS":"220台北縣板橋市縣民大道三段31號","TEL":"02-22527310","LICENSE_NO":"FD9","OWNER":"雷進雄","LOCATION_T":"地址對位","LOCATION_X":296815,"LOCATION_Y":2768170},"geometry":{"points":[[121.47208795527457,25.01900816084143]]}},{"attributes":{"OBJECTID":507,"STATION_NA":"信隆機車行","COUNTY_NA":"台北縣","ZIPCODE":"235","ADDRESS":"235台北縣中和市泰和街42號1F","TEL":"02-22493018","LICENSE_NO":"FE0","OWNER":"趙陵昌","LOCATION_T":"地址對位","LOCATION_X":299548,"LOCATION_Y":2766053},"geometry":{"points":[[121.4990902235982,24.999808291643625]]}},{"attributes":{"OBJECTID":508,"STATION_NA":"和昇機車行","COUNTY_NA":"台北縣","ZIPCODE":"235","ADDRESS":"235台北縣中和市中和路178號1F","TEL":"02-22491026","LICENSE_NO":"FE1","OWNER":"蔡萬賀","LOCATION_T":"地址對位","LOCATION_X":300124,"LOCATION_Y":2766033},"geometry":{"points":[[121.50479582466009,24.999608365121357]]}},{"attributes":{"OBJECTID":509,"STATION_NA":"興隆機車有限公司","COUNTY_NA":"台北縣","ZIPCODE":"235","ADDRESS":"235台北縣中和市中山路2段99號","TEL":"02-22498537","LICENSE_NO":"FE2","OWNER":"林森貴","LOCATION_T":"地址對位","LOCATION_X":299985,"LOCATION_Y":2766520},"geometry":{"points":[[121.5034366021918,25.004009520091891]]}},{"attributes":{"OBJECTID":510,"STATION_NA":"鴻緯車業有限公司","COUNTY_NA":"台北縣","ZIPCODE":"235","ADDRESS":"235台北縣中和市中山路2段467號1F","TEL":"02-22210427","LICENSE_NO":"FE3","OWNER":"簡仲謙","LOCATION_T":"地址對位","LOCATION_X":297965,"LOCATION_Y":2766600},"geometry":{"points":[[121.4834267763418,25.004798158156483]]}},{"attributes":{"OBJECTID":511,"STATION_NA":"東茂車業有限公司","COUNTY_NA":"台北縣","ZIPCODE":"235","ADDRESS":"235台北縣中和市中山路2段475號","TEL":"02-22223327","LICENSE_NO":"FE4","OWNER":"蘇瑞碧","LOCATION_T":"地址對位","LOCATION_X":297942,"LOCATION_Y":2766603},"geometry":{"points":[[121.48319901748916,25.004825980929816]]}},{"attributes":{"OBJECTID":512,"STATION_NA":"驥剛車業行","COUNTY_NA":"台北縣","ZIPCODE":"235","ADDRESS":"235台北縣中和市中山路3段25號","TEL":"02-22236369","LICENSE_NO":"FE5","OWNER":"吳建德","LOCATION_T":"地址對位","LOCATION_X":297555,"LOCATION_Y":2766712},"geometry":{"points":[[121.47936877195104,25.005822340550168]]}},{"attributes":{"OBJECTID":513,"STATION_NA":"升暉車業有限公司","COUNTY_NA":"台北縣","ZIPCODE":"235","ADDRESS":"235台北縣中和市中山路3段177號","TEL":"02-22211388","LICENSE_NO":"FE6","OWNER":"張順釧","LOCATION_T":"地址對位","LOCATION_X":296930,"LOCATION_Y":2766745},"geometry":{"points":[[121.47317790131925,25.006139982399766]]}},{"attributes":{"OBJECTID":514,"STATION_NA":"佳順機車行","COUNTY_NA":"台北縣","ZIPCODE":"235","ADDRESS":"235台北縣中和市南山路543號","TEL":"02-29464366","LICENSE_NO":"FE7","OWNER":"呂簡阿美","LOCATION_T":"地址對位","LOCATION_X":300463,"LOCATION_Y":2764613},"geometry":{"points":[[121.50810196773951,24.986777839544537]]}},{"attributes":{"OBJECTID":515,"STATION_NA":"尚成車業行","COUNTY_NA":"台北縣","ZIPCODE":"234","ADDRESS":"235台北縣中和市中興街133號","TEL":"02-22451788","LICENSE_NO":"FE8","OWNER":"方彝芝","LOCATION_T":"地址對位","LOCATION_X":301547,"LOCATION_Y":2767439},"geometry":{"points":[[121.5189460469776,25.012252381318746]]}},{"attributes":{"OBJECTID":516,"STATION_NA":"元宏車業行","COUNTY_NA":"台北縣","ZIPCODE":"235","ADDRESS":"235台北縣中和市秀朗路3段74-3號1F","TEL":"02-29481535","LICENSE_NO":"FE9","OWNER":"吳國展","LOCATION_T":"地址對位","LOCATION_X":302284,"LOCATION_Y":2765438},"geometry":{"points":[[121.52617096113072,24.994161685569445]]}},{"attributes":{"OBJECTID":517,"STATION_NA":"旺泰機車行","COUNTY_NA":"台北縣","ZIPCODE":"235","ADDRESS":"235台北縣中和市圓通路162-3號","TEL":"02-22427128","LICENSE_NO":"FF0","OWNER":"李永維","LOCATION_T":"地址對位","LOCATION_X":299403,"LOCATION_Y":2765575},"geometry":{"points":[[121.49763657289023,24.99549805426469]]}},{"attributes":{"OBJECTID":518,"STATION_NA":"勝明機車行","COUNTY_NA":"台北縣","ZIPCODE":"235","ADDRESS":"235台北縣中和市民享街86巷23號","TEL":"02-22252866","LICENSE_NO":"FF1","OWNER":"鄒柯素梅","LOCATION_T":"地址對位","LOCATION_X":296937,"LOCATION_Y":2766114},"geometry":{"points":[[121.47322543372833,25.000443322620864]]}},{"attributes":{"OBJECTID":519,"STATION_NA":"良力車業有限公司","COUNTY_NA":"台北縣","ZIPCODE":"235","ADDRESS":"235台北縣中和市員山路257號","TEL":"02-22260793","LICENSE_NO":"FF2","OWNER":"曾志良","LOCATION_T":"地址對位","LOCATION_X":297739,"LOCATION_Y":2765936},"geometry":{"points":[[121.48116445938768,24.99881106401098]]}},{"attributes":{"OBJECTID":520,"STATION_NA":"宇洋輪業有限公司","COUNTY_NA":"台北縣","ZIPCODE":"235","ADDRESS":"235台北縣中和市中正路655號","TEL":"02-22217987","LICENSE_NO":"FF3","OWNER":"賴慶忠","LOCATION_T":"地址對位","LOCATION_X":298120,"LOCATION_Y":2765618},"geometry":{"points":[[121.48492785684037,24.99592817841533]]}},{"attributes":{"OBJECTID":521,"STATION_NA":"聖達輪業有限公司","COUNTY_NA":"台北縣","ZIPCODE":"235","ADDRESS":"235台北縣中和市連城路1號1F","TEL":"02-22491625","LICENSE_NO":"FF4","OWNER":"余阿兒","LOCATION_T":"地址對位","LOCATION_X":298856,"LOCATION_Y":2765672},"geometry":{"points":[[121.49222112873649,24.996391796334194]]}},{"attributes":{"OBJECTID":522,"STATION_NA":"豪元車業有限公司","COUNTY_NA":"台北縣","ZIPCODE":"235","ADDRESS":"235台北縣中和市連城路135號","TEL":"02-22497393","LICENSE_NO":"FF5","OWNER":"吳黃素幸","LOCATION_T":"地址對位","LOCATION_X":299236,"LOCATION_Y":2765949},"geometry":{"points":[[121.49599554607622,24.998879828407919]]}},{"attributes":{"OBJECTID":523,"STATION_NA":"國瓏機車輪業商業行","COUNTY_NA":"台北縣","ZIPCODE":"235","ADDRESS":"235台北縣中和市更生街21號","TEL":"02-29413466","LICENSE_NO":"FF6","OWNER":"楊宗林","LOCATION_T":"地址對位","LOCATION_X":301891,"LOCATION_Y":2765668},"geometry":{"points":[[121.52228675431923,24.996252003459535]]}},{"attributes":{"OBJECTID":524,"STATION_NA":"瑞和車業行","COUNTY_NA":"台北縣","ZIPCODE":"235","ADDRESS":"235台北縣中和市景新街230-1號","TEL":"02-29403142","LICENSE_NO":"FF7","OWNER":"張秀琴","LOCATION_T":"地址對位","LOCATION_X":300498,"LOCATION_Y":2765420},"geometry":{"points":[[121.50847834704035,24.994061755206037]]}},{"attributes":{"OBJECTID":525,"STATION_NA":"景發車業有限公司","COUNTY_NA":"台北縣","ZIPCODE":"235","ADDRESS":"235台北縣中和市景安路116號1F","TEL":"02-22401068","LICENSE_NO":"FF8","OWNER":"游志成","LOCATION_T":"地址對位","LOCATION_X":300174,"LOCATION_Y":2765539},"geometry":{"points":[[121.50527311722057,24.995147114278602]]}},{"attributes":{"OBJECTID":526,"STATION_NA":"福和車業有限公司","COUNTY_NA":"台北縣","ZIPCODE":"235","ADDRESS":"235台北縣中和市永和路78號","TEL":"02-22495773","LICENSE_NO":"FF9","OWNER":"江國富","LOCATION_T":"地址對位","LOCATION_X":299405,"LOCATION_Y":2766651},"geometry":{"points":[[121.49769516713754,25.005211548255147]]}},{"attributes":{"OBJECTID":527,"STATION_NA":"光里展業有限公司","COUNTY_NA":"台北縣","ZIPCODE":"242","ADDRESS":"242台北縣新莊市中正路145-14號","TEL":"02-29986949","LICENSE_NO":"FG0","OWNER":"姚寶蓮","LOCATION_T":"地址對位","LOCATION_X":295471,"LOCATION_Y":2770221},"geometry":{"points":[[121.45884068851844,25.037565998462057]]}},{"attributes":{"OBJECTID":528,"STATION_NA":"東昇車業有限公司","COUNTY_NA":"台北縣","ZIPCODE":"242","ADDRESS":"242台北縣新莊市中正路145-15號1F","TEL":"02-29933321","LICENSE_NO":"FG1","OWNER":"黃榮智","LOCATION_T":"地址對位","LOCATION_X":295467,"LOCATION_Y":2770217},"geometry":{"points":[[121.4588009119269,25.037530006872196]]}},{"attributes":{"OBJECTID":529,"STATION_NA":"泓陽車業行","COUNTY_NA":"台北縣","ZIPCODE":"242","ADDRESS":"242台北縣新莊市中正路867-8號1F","TEL":"02-29020770","LICENSE_NO":"FG2","OWNER":"孫瑞杰","LOCATION_T":"地址對位","LOCATION_X":291389,"LOCATION_Y":2769051},"geometry":{"points":[[121.41835339510909,25.027121872479547]]}},{"attributes":{"OBJECTID":530,"STATION_NA":"永利車業行","COUNTY_NA":"台北縣","ZIPCODE":"242","ADDRESS":"242台北縣新莊市裕民街132號","TEL":"02-29036361","LICENSE_NO":"FG3","OWNER":"郭東明","LOCATION_T":"地址對位","LOCATION_X":291340,"LOCATION_Y":2768514},"geometry":{"points":[[121.41785132824455,25.022275139021456]]}},{"attributes":{"OBJECTID":531,"STATION_NA":"民益車業行","COUNTY_NA":"台北縣","ZIPCODE":"242","ADDRESS":"242台北縣新莊市民安西路224號","TEL":"02-22025903","LICENSE_NO":"FG4","OWNER":"汪小萍","LOCATION_T":"地址對位","LOCATION_X":292143,"LOCATION_Y":2767658},"geometry":{"points":[[121.42578082444639,25.014524649906171]]}},{"attributes":{"OBJECTID":532,"STATION_NA":"迎光車業有限公司","COUNTY_NA":"台北縣","ZIPCODE":"242","ADDRESS":"242台北縣新莊市民安西路233號","TEL":"02-22027193","LICENSE_NO":"FG5","OWNER":"高遠儀","LOCATION_T":"地址對位","LOCATION_X":292180,"LOCATION_Y":2767607},"geometry":{"points":[[121.42614580482909,25.014063180435901]]}},{"attributes":{"OBJECTID":533,"STATION_NA":"源福車業行","COUNTY_NA":"台北縣","ZIPCODE":"242","ADDRESS":"242台北縣新莊市民安西路318號","TEL":"02-22042398","LICENSE_NO":"FG6","OWNER":"邱俊水","LOCATION_T":"地址對位","LOCATION_X":292211,"LOCATION_Y":2767347},"geometry":{"points":[[121.42644475257818,25.011715062268784]]}},{"attributes":{"OBJECTID":534,"STATION_NA":"必榮機車材料行","COUNTY_NA":"台北縣","ZIPCODE":"242","ADDRESS":"242台北縣新莊市民安西路365號","TEL":"02-22030650","LICENSE_NO":"FG7","OWNER":"林必勝","LOCATION_T":"地址對位","LOCATION_X":292439,"LOCATION_Y":2767210},"geometry":{"points":[[121.42869933397256,25.010471777151075]]}},{"attributes":{"OBJECTID":535,"STATION_NA":"政義機車有限公司","COUNTY_NA":"台北縣","ZIPCODE":"242","ADDRESS":"242台北縣新莊市公園路102號","TEL":"02-29933674","LICENSE_NO":"FG8","OWNER":"廖尤玉燕","LOCATION_T":"地址對位","LOCATION_X":294705,"LOCATION_Y":2770470},"geometry":{"points":[[121.45125813840086,25.039837006666872]]}},{"attributes":{"OBJECTID":536,"STATION_NA":"寶祥機車行","COUNTY_NA":"台北縣","ZIPCODE":"242","ADDRESS":"242台北縣新莊市中港路394號","TEL":"02-29935725","LICENSE_NO":"FG9","OWNER":"賴慶和","LOCATION_T":"地址對位","LOCATION_X":294816,"LOCATION_Y":2771544},"geometry":{"points":[[121.45239396793579,25.049530112765563]]}},{"attributes":{"OBJECTID":537,"STATION_NA":"輝鴻機車行","COUNTY_NA":"台北縣","ZIPCODE":"242","ADDRESS":"242台北縣新莊市幸福路16號1F","TEL":"02-22760618","LICENSE_NO":"FH0","OWNER":"陳輝雄","LOCATION_T":"地址對位","LOCATION_X":295500,"LOCATION_Y":2771547},"geometry":{"points":[[121.45917298544376,25.049536511067899]]}},{"attributes":{"OBJECTID":538,"STATION_NA":"泓順車業行","COUNTY_NA":"台北縣","ZIPCODE":"242","ADDRESS":"242台北縣新莊市建安街52號","TEL":"02-22048298","LICENSE_NO":"FH1","OWNER":"紀政義","LOCATION_T":"地址對位","LOCATION_X":292307,"LOCATION_Y":2768803},"geometry":{"points":[[121.42744180865843,25.024857052030804]]}},{"attributes":{"OBJECTID":539,"STATION_NA":"億美車業行","COUNTY_NA":"台北縣","ZIPCODE":"242","ADDRESS":"242台北縣新莊市後港一路65巷2號","TEL":"02-22051198","LICENSE_NO":"FH2","OWNER":"楊隆昌","LOCATION_T":"地址對位","LOCATION_X":292214,"LOCATION_Y":2768997},"geometry":{"points":[[121.42652641246508,25.02661113209323]]}},{"attributes":{"OBJECTID":540,"STATION_NA":"駿福車業行","COUNTY_NA":"台北縣","ZIPCODE":"242","ADDRESS":"242台北縣新莊市富國路154號","TEL":"02-22049321","LICENSE_NO":"FH3","OWNER":"魏福來","LOCATION_T":"地址對位","LOCATION_X":291871,"LOCATION_Y":2768786},"geometry":{"points":[[121.42312113819531,25.024715906543758]]}},{"attributes":{"OBJECTID":541,"STATION_NA":"強順機車行","COUNTY_NA":"台北縣","ZIPCODE":"242","ADDRESS":"242台北縣新莊市中誠街67號","TEL":"02-29936284","LICENSE_NO":"FH4","OWNER":"方智強","LOCATION_T":"地址對位","LOCATION_X":294644,"LOCATION_Y":2771355},"geometry":{"points":[[121.45068304864137,25.047828929376621]]}},{"attributes":{"OBJECTID":542,"STATION_NA":"巨陽車業行","COUNTY_NA":"台北縣","ZIPCODE":"242","ADDRESS":"242台北縣新莊市中和街90號","TEL":"02-29984625","LICENSE_NO":"FH5","OWNER":"張梅芳","LOCATION_T":"地址對位","LOCATION_X":294349,"LOCATION_Y":2771222},"geometry":{"points":[[121.44775504302329,25.04663696765023]]}},{"attributes":{"OBJECTID":543,"STATION_NA":"暐達車業有限公司","COUNTY_NA":"台北縣","ZIPCODE":"242","ADDRESS":"242台北縣新莊市新泰路218號","TEL":"02-29925636","LICENSE_NO":"FH6","OWNER":"吳進行","LOCATION_T":"地址對位","LOCATION_X":294262,"LOCATION_Y":2770375},"geometry":{"points":[[121.44686493396206,25.038992606902283]]}},{"attributes":{"OBJECTID":544,"STATION_NA":"中信機車行","COUNTY_NA":"台北縣","ZIPCODE":"242","ADDRESS":"242台北縣新莊市中信街39號","TEL":"02-29965827","LICENSE_NO":"FH7","OWNER":"陳宗毅","LOCATION_T":"地址對位","LOCATION_X":294598,"LOCATION_Y":2771671},"geometry":{"points":[[121.45023765920379,25.050683248892131]]}},{"attributes":{"OBJECTID":545,"STATION_NA":"信寬有限公司","COUNTY_NA":"台北縣","ZIPCODE":"237","ADDRESS":"237台北縣三峽鎮復興路293號","TEL":"02-26713327","LICENSE_NO":"FH8","OWNER":"張萬寬","LOCATION_T":"地址對位","LOCATION_X":286123,"LOCATION_Y":2759250},"geometry":{"points":[[121.36590468759582,24.938778969214464]]}},{"attributes":{"OBJECTID":546,"STATION_NA":"廣進車業有限公司","COUNTY_NA":"台北縣","ZIPCODE":"237","ADDRESS":"237台北縣三峽鎮介壽路1段165號","TEL":"02-26711631","LICENSE_NO":"FH9","OWNER":"林梨花","LOCATION_T":"地址對位","LOCATION_X":287262,"LOCATION_Y":2758423},"geometry":{"points":[[121.37716116886921,24.931283818573732]]}},{"attributes":{"OBJECTID":547,"STATION_NA":"長銘車業有限公司","COUNTY_NA":"台北縣","ZIPCODE":"237","ADDRESS":"237台北縣三峽鎮介壽路1段230號","TEL":"02-26716156","LICENSE_NO":"FI0","OWNER":"林正雄","LOCATION_T":"地址對位","LOCATION_X":287371,"LOCATION_Y":2758311},"geometry":{"points":[[121.37823751303149,24.930269792747637]]}},{"attributes":{"OBJECTID":548,"STATION_NA":"國勝機車行","COUNTY_NA":"台北縣","ZIPCODE":"237","ADDRESS":"237台北縣三峽鎮大勇路76號","TEL":"02-26740865","LICENSE_NO":"FI1","OWNER":"林本情","LOCATION_T":"地址對位","LOCATION_X":286242,"LOCATION_Y":2758964},"geometry":{"points":[[121.3670755719663,24.936193840612916]]}},{"attributes":{"OBJECTID":549,"STATION_NA":"新祥輪業有限公司","COUNTY_NA":"台北縣","ZIPCODE":"231","ADDRESS":"231台北縣新店市光明街117號","TEL":"02-29110410","LICENSE_NO":"FI2","OWNER":"劉葉絨","LOCATION_T":"地址對位","LOCATION_X":303611,"LOCATION_Y":2761828},"geometry":{"points":[[121.53917328844139,24.961524254126136]]}},{"attributes":{"OBJECTID":550,"STATION_NA":"國偉機車行","COUNTY_NA":"台北縣","ZIPCODE":"231","ADDRESS":"231台北縣新店市中興路3段186號","TEL":"02-29153838","LICENSE_NO":"FI3","OWNER":"蘇聖倫","LOCATION_T":"地址對位","LOCATION_X":304106,"LOCATION_Y":2764048},"geometry":{"points":[[121.54416360956996,24.98154726444195]]}},{"attributes":{"OBJECTID":551,"STATION_NA":"昇宏車業有限公司","COUNTY_NA":"台北縣","ZIPCODE":"231","ADDRESS":"231台北縣新店市安康路3段28號1F","TEL":"02-22158569","LICENSE_NO":"FI4","OWNER":"張麗蘇","LOCATION_T":"地址對位","LOCATION_X":298966,"LOCATION_Y":2760900},"geometry":{"points":[[121.49313932956581,24.953307368300294]]}},{"attributes":{"OBJECTID":552,"STATION_NA":"全城機車行","COUNTY_NA":"台北縣","ZIPCODE":"231","ADDRESS":"231台北縣新店市安康路3段263號","TEL":"02-22151965","LICENSE_NO":"FI5","OWNER":"葉文清","LOCATION_T":"地址對位","LOCATION_X":298305,"LOCATION_Y":2760716},"geometry":{"points":[[121.48658672054066,24.951667546917943]]}},{"attributes":{"OBJECTID":553,"STATION_NA":"霸輪機車行","COUNTY_NA":"台北縣","ZIPCODE":"231","ADDRESS":"231台北縣新店市安和路3段169號1F","TEL":"02-29473561","LICENSE_NO":"FI6","OWNER":"吳忠義","LOCATION_T":"地址對位","LOCATION_X":301284,"LOCATION_Y":2764544},"geometry":{"points":[[121.51623161885075,24.986126406784823]]}},{"attributes":{"OBJECTID":554,"STATION_NA":"國隆機車行","COUNTY_NA":"台北縣","ZIPCODE":"231","ADDRESS":"231台北縣新店市北新路1段121號1F","TEL":"02-29187467","LICENSE_NO":"FI7","OWNER":"鄧國敦","LOCATION_T":"地址對位","LOCATION_X":303609,"LOCATION_Y":2761960},"geometry":{"points":[[121.53915870871784,24.962715980141635]]}},{"attributes":{"OBJECTID":555,"STATION_NA":"進陽車業有限公司","COUNTY_NA":"台北縣","ZIPCODE":"231","ADDRESS":"231台北縣新店市北新路1段287號1F","TEL":"02-29154555","LICENSE_NO":"FI8","OWNER":"游蕙芬","LOCATION_T":"地址對位","LOCATION_X":303793,"LOCATION_Y":2762448},"geometry":{"points":[[121.54100021219173,24.967114737247822]]}},{"attributes":{"OBJECTID":556,"STATION_NA":"天翔機車行","COUNTY_NA":"台北縣","ZIPCODE":"231","ADDRESS":"231台北縣新店市三民路185號","TEL":"02-29134801","LICENSE_NO":"FI9","OWNER":"何興成","LOCATION_T":"地址對位","LOCATION_X":303194,"LOCATION_Y":2763363},"geometry":{"points":[[121.5351039041095,24.975396706954896]]}},{"attributes":{"OBJECTID":557,"STATION_NA":"永全輪業有限公司","COUNTY_NA":"台北縣","ZIPCODE":"231","ADDRESS":"231台北縣新店市建國路12-1號","TEL":"02-29159675","LICENSE_NO":"FJ0","OWNER":"游生忠","LOCATION_T":"地址對位","LOCATION_X":303705,"LOCATION_Y":2763176},"geometry":{"points":[[121.54015748479198,24.973689990972453]]}},{"attributes":{"OBJECTID":558,"STATION_NA":"富元車業有限公司","COUNTY_NA":"台北縣","ZIPCODE":"234","ADDRESS":"234台北縣永和市得和路30號1F","TEL":"02-29468675","LICENSE_NO":"FJ1","OWNER":"劉安然","LOCATION_T":"地址對位","LOCATION_X":301207,"LOCATION_Y":2766104},"geometry":{"points":[[121.51552732163088,25.000212081045603]]}},{"attributes":{"OBJECTID":559,"STATION_NA":"偉盛輪業行","COUNTY_NA":"台北縣","ZIPCODE":"234","ADDRESS":"234台北縣永和市得和路249-4號","TEL":"02-29278735","LICENSE_NO":"FJ2","OWNER":"蕭禮城","LOCATION_T":"地址對位","LOCATION_X":301738,"LOCATION_Y":2766099},"geometry":{"points":[[121.52078746193344,25.000148347513207]]}},{"attributes":{"OBJECTID":560,"STATION_NA":"成和機車有限公司","COUNTY_NA":"台北縣","ZIPCODE":"234","ADDRESS":"234台北縣永和市得和路313號1F","TEL":"02-29288538","LICENSE_NO":"FJ3","OWNER":"林錦土川","LOCATION_T":"地址對位","LOCATION_X":301989,"LOCATION_Y":2766081},"geometry":{"points":[[121.52327329024756,24.999976989533881]]}},{"attributes":{"OBJECTID":561,"STATION_NA":"皇偉機車行","COUNTY_NA":"台北縣","ZIPCODE":"234","ADDRESS":"234台北縣永和市成功路1段115號1F","TEL":"02-29284462","LICENSE_NO":"FJ4","OWNER":"蘇明緣","LOCATION_T":"地址對位","LOCATION_X":302378,"LOCATION_Y":2766315},"geometry":{"points":[[121.52713583514488,25.002075737492362]]}},{"attributes":{"OBJECTID":562,"STATION_NA":"昇鴻車業有限公司","COUNTY_NA":"台北縣","ZIPCODE":"234","ADDRESS":"234台北縣永和市秀朗路2段167號","TEL":"02-29203504","LICENSE_NO":"FJ5","OWNER":"洪振湮","LOCATION_T":"地址對位","LOCATION_X":302187,"LOCATION_Y":2766280},"geometry":{"points":[[121.52524236276255,25.001766539145599]]}},{"attributes":{"OBJECTID":563,"STATION_NA":"廣固機車行","COUNTY_NA":"台北縣","ZIPCODE":"234","ADDRESS":"234台北縣永和市中正路522號","TEL":"02-29276545","LICENSE_NO":"FJ6","OWNER":"顏龍泉","LOCATION_T":"地址對位","LOCATION_X":301395,"LOCATION_Y":2766606},"geometry":{"points":[[121.51740864892318,25.004737465164819]]}},{"attributes":{"OBJECTID":564,"STATION_NA":"松鼎機車行","COUNTY_NA":"台北縣","ZIPCODE":"234","ADDRESS":"234台北縣永和市福和路29號","TEL":"02-29218584","LICENSE_NO":"FJ7","OWNER":"陳?銘","LOCATION_T":"地址對位","LOCATION_X":302063,"LOCATION_Y":2766966},"geometry":{"points":[[121.52404020063676,25.007964056244067]]}},{"attributes":{"OBJECTID":565,"STATION_NA":"裕祥車行","COUNTY_NA":"台北縣","ZIPCODE":"234","ADDRESS":"234台北縣永和市永元路31號","TEL":"02-29232013","LICENSE_NO":"FJ8","OWNER":"邱麗汶","LOCATION_T":"地址對位","LOCATION_X":301871,"LOCATION_Y":2766196},"geometry":{"points":[[121.52210870977108,25.001019362615882]]}},{"attributes":{"OBJECTID":566,"STATION_NA":"福勝機車行","COUNTY_NA":"台北縣","ZIPCODE":"234","ADDRESS":"234台北縣永和市林森路86號","TEL":"02-29285936","LICENSE_NO":"FJ9","OWNER":"陳邱秀真","LOCATION_T":"地址對位","LOCATION_X":302009,"LOCATION_Y":2766515},"geometry":{"points":[[121.52348799433487,25.00389438397686]]}},{"attributes":{"OBJECTID":567,"STATION_NA":"呈運機車行","COUNTY_NA":"台北縣","ZIPCODE":"234","ADDRESS":"234台北縣永和市永亨路75號","TEL":"02-29286290","LICENSE_NO":"FK0","OWNER":"陳金火","LOCATION_T":"地址對位","LOCATION_X":301839,"LOCATION_Y":2766723},"geometry":{"points":[[121.52181175783441,25.00577816736828]]}},{"attributes":{"OBJECTID":568,"STATION_NA":"永瑋車行","COUNTY_NA":"台北縣","ZIPCODE":"234","ADDRESS":"234台北縣永和市文化路105號","TEL":"02-29241721","LICENSE_NO":"FK1","OWNER":"黃水永","LOCATION_T":"地址對位","LOCATION_X":300956,"LOCATION_Y":2767745},"geometry":{"points":[[121.51310214001776,25.015035391140756]]}},{"attributes":{"OBJECTID":569,"STATION_NA":"東政機車行","COUNTY_NA":"台北縣","ZIPCODE":"234","ADDRESS":"234台北縣永和市文化路112號","TEL":"02-29272615","LICENSE_NO":"FK2","OWNER":"黃彩媚","LOCATION_T":"地址對位","LOCATION_X":301001,"LOCATION_Y":2767763},"geometry":{"points":[[121.51354866756736,25.015196345147249]]}},{"attributes":{"OBJECTID":570,"STATION_NA":"宏聯機車行","COUNTY_NA":"台北縣","ZIPCODE":"235","ADDRESS":"234台北縣永和市信義街106號","TEL":"02-22314318","LICENSE_NO":"FK3","OWNER":"吳金忠","LOCATION_T":"地址對位","LOCATION_X":300840,"LOCATION_Y":2764664},"geometry":{"points":[[121.51183817522451,24.987225207346]]}},{"attributes":{"OBJECTID":571,"STATION_NA":"大輪車業有限公司","COUNTY_NA":"台北縣","ZIPCODE":"236","ADDRESS":"236台北縣土城市中央路1段269-1號1F","TEL":"02-22631886","LICENSE_NO":"FK4","OWNER":"黃進發","LOCATION_T":"地址對位","LOCATION_X":294101,"LOCATION_Y":2764407},"geometry":{"points":[[121.44507376574438,24.985119057376661]]}},{"attributes":{"OBJECTID":572,"STATION_NA":"世暉車業有限公司","COUNTY_NA":"台北縣","ZIPCODE":"236","ADDRESS":"236台北縣土城市中央路1段357號","TEL":"02-22631818","LICENSE_NO":"FK5","OWNER":"盧德川","LOCATION_T":"地址對位","LOCATION_X":293927,"LOCATION_Y":2763956},"geometry":{"points":[[121.44333541991497,24.981052677443156]]}},{"attributes":{"OBJECTID":573,"STATION_NA":"鋐鉅車業有限公司","COUNTY_NA":"台北縣","ZIPCODE":"236","ADDRESS":"236台北縣土城市中央路3段229號","TEL":"02-22675029","LICENSE_NO":"FK6","OWNER":"鄭林星","LOCATION_T":"地址對位","LOCATION_X":292523,"LOCATION_Y":2762101},"geometry":{"points":[[121.42936901562121,24.964346958691976]]}},{"attributes":{"OBJECTID":574,"STATION_NA":"台業機車行","COUNTY_NA":"台北縣","ZIPCODE":"236","ADDRESS":"236台北縣土城市中正路12號","TEL":"02-22609707","LICENSE_NO":"FK7","OWNER":"鄭偉正","LOCATION_T":"地址對位","LOCATION_X":293877,"LOCATION_Y":2763276},"geometry":{"points":[[121.44281797976755,24.974915267319073]]}},{"attributes":{"OBJECTID":575,"STATION_NA":"連揚機車行","COUNTY_NA":"台北縣","ZIPCODE":"236","ADDRESS":"236台北縣土城市裕生路7號","TEL":"02-22629984","LICENSE_NO":"FK8","OWNER":"徐岫雲","LOCATION_T":"地址對位","LOCATION_X":294455,"LOCATION_Y":2764683},"geometry":{"points":[[121.44858953753567,24.987600254381132]]}},{"attributes":{"OBJECTID":576,"STATION_NA":"自來車行","COUNTY_NA":"台北縣","ZIPCODE":"236","ADDRESS":"236台北縣土城市裕民路270號1F","TEL":"02-22616353","LICENSE_NO":"FK9","OWNER":"張建輝","LOCATION_T":"地址對位","LOCATION_X":295087,"LOCATION_Y":2764118},"geometry":{"points":[[121.45483136996639,24.982480784672983]]}},{"attributes":{"OBJECTID":577,"STATION_NA":"長新機車行","COUNTY_NA":"台北縣","ZIPCODE":"236","ADDRESS":"236台北縣土城市延平街14號","TEL":"02-22647762","LICENSE_NO":"FL0","OWNER":"莊育川","LOCATION_T":"地址對位","LOCATION_X":296459,"LOCATION_Y":2765064},"geometry":{"points":[[121.46845424001944,24.990979280407799]]}},{"attributes":{"OBJECTID":578,"STATION_NA":"東泰發車業有限公司","COUNTY_NA":"台北縣","ZIPCODE":"236","ADDRESS":"236台北縣土城市慶安街70號","TEL":"02-22745955","LICENSE_NO":"FL1","OWNER":"蔡碧儀","LOCATION_T":"地址對位","LOCATION_X":293656,"LOCATION_Y":2763064},"geometry":{"points":[[121.44062204213058,24.973007868019899]]}},{"attributes":{"OBJECTID":579,"STATION_NA":"明展機車行","COUNTY_NA":"台北縣","ZIPCODE":"235","ADDRESS":"235台北縣中和市民德路332號","TEL":"02-29626622","LICENSE_NO":"FL2","OWNER":"林明賢","LOCATION_T":"地址對位","LOCATION_X":296243,"LOCATION_Y":2765503},"geometry":{"points":[[121.46632937323783,24.994949015689627]]}},{"attributes":{"OBJECTID":580,"STATION_NA":"協鑫車業行","COUNTY_NA":"台北縣","ZIPCODE":"236","ADDRESS":"236台北縣土城市青雲路76號","TEL":"02-22640569","LICENSE_NO":"FL3","OWNER":"陳志富","LOCATION_T":"地址對位","LOCATION_X":295532,"LOCATION_Y":2764616},"geometry":{"points":[[121.45925612369257,24.986963197100067]]}},{"attributes":{"OBJECTID":581,"STATION_NA":"萊萊車行","COUNTY_NA":"台北縣","ZIPCODE":"236","ADDRESS":"236台北縣土城市青仁路19號","TEL":"02-22632650","LICENSE_NO":"FL4","OWNER":"張建財","LOCATION_T":"地址對位","LOCATION_X":295610,"LOCATION_Y":2763704},"geometry":{"points":[[121.45999818981517,24.97872758840445]]}},{"attributes":{"OBJECTID":582,"STATION_NA":"日友機車行","COUNTY_NA":"台北縣","ZIPCODE":"236","ADDRESS":"236台北縣土城市清水路180號","TEL":"02-22663810","LICENSE_NO":"FL5","OWNER":"陳火明","LOCATION_T":"地址對位","LOCATION_X":295630,"LOCATION_Y":2764016},"geometry":{"points":[[121.46020679281442,24.981543655591668]]}},{"attributes":{"OBJECTID":583,"STATION_NA":"昌新機車行","COUNTY_NA":"台北縣","ZIPCODE":"236","ADDRESS":"236台北縣土城市延吉街127號","TEL":"02-22617115","LICENSE_NO":"FL6","OWNER":"陳瑞妹","LOCATION_T":"地址對位","LOCATION_X":296720,"LOCATION_Y":2764548},"geometry":{"points":[[121.4710221800396,24.986313018673485]]}},{"attributes":{"OBJECTID":584,"STATION_NA":"宇峰機車材料行","COUNTY_NA":"台北縣","ZIPCODE":"236","ADDRESS":"236台北縣土城市延和路50號","TEL":"02-22656073","LICENSE_NO":"FL7","OWNER":"李友財","LOCATION_T":"地址對位","LOCATION_X":296159,"LOCATION_Y":2764811},"geometry":{"points":[[121.46547380263121,24.988704520091943]]}},{"attributes":{"OBJECTID":585,"STATION_NA":"欣泰機車行","COUNTY_NA":"台北縣","ZIPCODE":"241","ADDRESS":"241台北縣三重市下竹圍街24號1F","TEL":"02-22861227","LICENSE_NO":"FL8","OWNER":"張瓊花","LOCATION_T":"地址對位","LOCATION_X":297672,"LOCATION_Y":2774432},"geometry":{"points":[[121.48080128877656,25.075514817182814]]}},{"attributes":{"OBJECTID":586,"STATION_NA":"廣明車業行","COUNTY_NA":"台北縣","ZIPCODE":"241","ADDRESS":"241台北縣三重市仁義街211巷9號","TEL":"02-29887824","LICENSE_NO":"FL9","OWNER":"吳文瑞","LOCATION_T":"地址對位","LOCATION_X":299332,"LOCATION_Y":2775147},"geometry":{"points":[[121.49728264827594,25.081915828899795]]}},{"attributes":{"OBJECTID":587,"STATION_NA":"慶山機車行","COUNTY_NA":"台北縣","ZIPCODE":"241","ADDRESS":"241台北縣三重市五華街122巷16號","TEL":"02-29882975","LICENSE_NO":"FM0","OWNER":"蔡清山","LOCATION_T":"地址對位","LOCATION_X":298749,"LOCATION_Y":2775237},"geometry":{"points":[[121.49150646846782,25.082747485543049]]}},{"attributes":{"OBJECTID":588,"STATION_NA":"鴻寶車業有限公司","COUNTY_NA":"台北縣","ZIPCODE":"241","ADDRESS":"241台北縣三重市溪尾街271號1F","TEL":"02-29857833","LICENSE_NO":"FM1","OWNER":"洪宗寶","LOCATION_T":"地址對位","LOCATION_X":298358,"LOCATION_Y":2775201},"geometry":{"points":[[121.4876290527833,25.082435213803965]]}},{"attributes":{"OBJECTID":589,"STATION_NA":"宏發車行有限公司","COUNTY_NA":"台北縣","ZIPCODE":"241","ADDRESS":"241台北縣三重市三和路3段154號1F","TEL":"02-29823458","LICENSE_NO":"FM2","OWNER":"黃楞慧","LOCATION_T":"地址對位","LOCATION_X":298886,"LOCATION_Y":2774130},"geometry":{"points":[[121.49282439438691,25.072749054472364]]}},{"attributes":{"OBJECTID":590,"STATION_NA":"金和機車有限公司","COUNTY_NA":"台北縣","ZIPCODE":"241","ADDRESS":"241台北縣三重市過圳街86號1F","TEL":"02-29893783","LICENSE_NO":"FM3","OWNER":"林國字","LOCATION_T":"地址對位","LOCATION_X":298244,"LOCATION_Y":2772918},"geometry":{"points":[[121.48641708781996,25.061827950050247]]}},{"attributes":{"OBJECTID":591,"STATION_NA":"銘通機車有限公司","COUNTY_NA":"台北縣","ZIPCODE":"241","ADDRESS":"241台北縣三重市重陽路1段104巷5號","TEL":"02-29863722","LICENSE_NO":"FM4","OWNER":"蕭碧霞","LOCATION_T":"地址對位","LOCATION_X":298219,"LOCATION_Y":2772635},"geometry":{"points":[[121.48615913986586,25.059273806561855]]}},{"attributes":{"OBJECTID":592,"STATION_NA":"昇輝有限公司","COUNTY_NA":"台北縣","ZIPCODE":"241","ADDRESS":"241台北縣三重市重陽路2段2號","TEL":"02-29842056","LICENSE_NO":"FM5","OWNER":"謝榮華","LOCATION_T":"地址對位","LOCATION_X":298261,"LOCATION_Y":2772900},"geometry":{"points":[[121.48658494121409,25.061664894367407]]}},{"attributes":{"OBJECTID":593,"STATION_NA":"上鈴機車行","COUNTY_NA":"台北縣","ZIPCODE":"247","ADDRESS":"241台北縣蘆洲市長安街335號","TEL":"02-89820555","LICENSE_NO":"FM6","OWNER":"郭秋圍","LOCATION_T":"地址對位","LOCATION_X":295294,"LOCATION_Y":2775661},"geometry":{"points":[[121.45727012065885,25.086684953371115]]}},{"attributes":{"OBJECTID":594,"STATION_NA":"富松機車行","COUNTY_NA":"台北縣","ZIPCODE":"241","ADDRESS":"241台北縣三重市重新路3段31號","TEL":"02-29818045","LICENSE_NO":"FM7","OWNER":"陳竹松","LOCATION_T":"地址對位","LOCATION_X":299019,"LOCATION_Y":2772897},"geometry":{"points":[[121.49409781903294,25.061613095822143]]}},{"attributes":{"OBJECTID":595,"STATION_NA":"太平洋機車有限公司","COUNTY_NA":"台北縣","ZIPCODE":"241","ADDRESS":"241台北縣三重市重新路5段587號","TEL":"02-29958642","LICENSE_NO":"FM8","OWNER":"張振盛","LOCATION_T":"地址對位","LOCATION_X":296577,"LOCATION_Y":2771164},"geometry":{"points":[[121.46983350638257,25.046045532658486]]}},{"attributes":{"OBJECTID":596,"STATION_NA":"順輪機車行","COUNTY_NA":"台北縣","ZIPCODE":"241","ADDRESS":"241台北縣三重市環河南路223號1F","TEL":"02-29782307","LICENSE_NO":"FM9","OWNER":"姚文福","LOCATION_T":"地址對位","LOCATION_X":298847,"LOCATION_Y":2771815},"geometry":{"points":[[121.4923537066567,25.051850312948893]]}},{"attributes":{"OBJECTID":597,"STATION_NA":"弘祥機車有限公司","COUNTY_NA":"台北縣","ZIPCODE":"239","ADDRESS":"239台北縣鶯歌鎮中正一路20號","TEL":"02-26793014","LICENSE_NO":"FN0","OWNER":"陳憲斌","LOCATION_T":"地址對位","LOCATION_X":284782,"LOCATION_Y":2760838},"geometry":{"points":[[121.35266747797111,24.953147877873416]]}},{"attributes":{"OBJECTID":598,"STATION_NA":"陽全車業有限公司","COUNTY_NA":"台北縣","ZIPCODE":"239","ADDRESS":"239台北縣鶯歌鎮文化路385號1樓","TEL":"02-26793098","LICENSE_NO":"FN1","OWNER":"李新發","LOCATION_T":"地址對位","LOCATION_X":284749,"LOCATION_Y":2760539},"geometry":{"points":[[121.35233303141652,24.950449176801627]]}},{"attributes":{"OBJECTID":599,"STATION_NA":"金大機車有限公司","COUNTY_NA":"台北縣","ZIPCODE":"247","ADDRESS":"247台北縣蘆洲市中山一路63號","TEL":"02-22819837","LICENSE_NO":"FN2","OWNER":"張吉良","LOCATION_T":"地址對位","LOCATION_X":297424,"LOCATION_Y":2775041},"geometry":{"points":[[121.47836437029126,25.081020799634054]]}},{"attributes":{"OBJECTID":600,"STATION_NA":"謝氏機車業行","COUNTY_NA":"台北縣","ZIPCODE":"247","ADDRESS":"247台北縣蘆洲市中山一路265號1F","TEL":"02-22826566","LICENSE_NO":"FN3","OWNER":"謝文珍","LOCATION_T":"地址對位","LOCATION_X":296853,"LOCATION_Y":2774928},"geometry":{"points":[[121.47269998934159,25.080018748313805]]}}]}