{"displayFieldName":"STATION_NA","fieldAliases":{"OBJECTID":"OBJECTID","STATION_NA":"STATION_NA","COUNTY_NA":"COUNTY_NA","ZIPCODE":"ZIPCODE","ADDRESS":"ADDRESS","TEL":"TEL","LICENSE_NO":"LICENSE_NO","OWNER":"OWNER","LOCATION_T":"LOCATION_T","LOCATION_X":"LOCATION_X","LOCATION_Y":"LOCATION_Y"},"geometryType":"esriGeometryMultipoint","spatialReference":{"wkid":104137},"fields":[{"name":"OBJECTID","type":"esriFieldTypeOID","alias":"OBJECTID"},{"name":"STATION_NA","type":"esriFieldTypeString","alias":"STATION_NA","length":30},{"name":"COUNTY_NA","type":"esriFieldTypeString","alias":"COUNTY_NA","length":6},{"name":"ZIPCODE","type":"esriFieldTypeString","alias":"ZIPCODE","length":4},{"name":"ADDRESS","type":"esriFieldTypeString","alias":"ADDRESS","length":40},{"name":"TEL","type":"esriFieldTypeString","alias":"TEL","length":11},{"name":"LICENSE_NO","type":"esriFieldTypeString","alias":"LICENSE_NO","length":3},{"name":"OWNER","type":"esriFieldTypeString","alias":"OWNER","length":10},{"name":"LOCATION_T","type":"esriFieldTypeString","alias":"LOCATION_T","length":10},{"name":"LOCATION_X","type":"esriFieldTypeDouble","alias":"LOCATION_X"},{"name":"LOCATION_Y","type":"esriFieldTypeDouble","alias":"LOCATION_Y"}],"features":[{"attributes":{"OBJECTID":201,"STATION_NA":"國光車業行","COUNTY_NA":"台中市","ZIPCODE":"402","ADDRESS":"402台中市南區國光路375號1F","TEL":"04-22878048","LICENSE_NO":"BB2","OWNER":"林美容","LOCATION_T":"地址對位","LOCATION_X":216604,"LOCATION_Y":2668588},"geometry":{"points":[[120.67960471225035,24.120290688070771]]}},{"attributes":{"OBJECTID":202,"STATION_NA":"吉豐車行","COUNTY_NA":"台中市","ZIPCODE":"402","ADDRESS":"402台中市南區復興路二段36-6號","TEL":"04-22610387","LICENSE_NO":"BB3","OWNER":"張敏生","LOCATION_T":"地址對位","LOCATION_X":214626,"LOCATION_Y":2668511},"geometry":{"points":[[120.66014719210605,24.119553850087605]]}},{"attributes":{"OBJECTID":203,"STATION_NA":"昇旺機車行","COUNTY_NA":"台中市","ZIPCODE":"406","ADDRESS":"406台中市北屯區陳平里敦化路438號1F","TEL":"04-22982876","LICENSE_NO":"BB4","OWNER":"謝木龍","LOCATION_T":"地址對位","LOCATION_X":215368,"LOCATION_Y":2675994},"geometry":{"points":[[120.66727050807762,24.187133967596747]]}},{"attributes":{"OBJECTID":204,"STATION_NA":"良翊輪業商行","COUNTY_NA":"台中市","ZIPCODE":"404","ADDRESS":"406台中市北區永興街178號1F","TEL":"04-22361127","LICENSE_NO":"BB5","OWNER":"陳仕杰","LOCATION_T":"地址對位","LOCATION_X":216901,"LOCATION_Y":2673385},"geometry":{"points":[[120.68241863436722,24.163609307786626]]}},{"attributes":{"OBJECTID":205,"STATION_NA":"震陽輪業股份有限公司","COUNTY_NA":"基隆市","ZIPCODE":"200","ADDRESS":"200基隆市仁愛區南榮路393巷2號","TEL":"02-24288785","LICENSE_NO":"C05","OWNER":"邱建興","LOCATION_T":"地址對位","LOCATION_X":324204,"LOCATION_Y":2779270},"geometry":{"points":[[121.74405844684023,25.118103934014762]]}},{"attributes":{"OBJECTID":206,"STATION_NA":"瑞陽車業股份有限公司","COUNTY_NA":"基隆市","ZIPCODE":"201","ADDRESS":"201基隆市信義區智慧里仁一路59號1樓","TEL":"02-24283076","LICENSE_NO":"C06","OWNER":"謝天德","LOCATION_T":"地址對位","LOCATION_X":325251,"LOCATION_Y":2780346},"geometry":{"points":[[121.75449968711295,25.127764062452769]]}},{"attributes":{"OBJECTID":207,"STATION_NA":"德新車業有限公司","COUNTY_NA":"基隆市","ZIPCODE":"200","ADDRESS":"200基隆市仁愛區南榮路65號","TEL":"02-24270196","LICENSE_NO":"C07","OWNER":"林麗香","LOCATION_T":"地址對位","LOCATION_X":324075,"LOCATION_Y":2780164},"geometry":{"points":[[121.7428284942211,25.126180265676055]]}},{"attributes":{"OBJECTID":208,"STATION_NA":"日揚車業有限公司","COUNTY_NA":"基隆市","ZIPCODE":"203","ADDRESS":"203基隆市中山區西定路457號","TEL":"02-24232472","LICENSE_NO":"C08","OWNER":"古慶章","LOCATION_T":"地址對位","LOCATION_X":322548,"LOCATION_Y":2781735},"geometry":{"points":[[121.72777171838946,25.1404362298866]]}},{"attributes":{"OBJECTID":209,"STATION_NA":"玉昌機車有限公司","COUNTY_NA":"基隆市","ZIPCODE":"203","ADDRESS":"203基隆市中山區中山一路13號","TEL":"02-24247816","LICENSE_NO":"C09","OWNER":"余素華","LOCATION_T":"地址對位","LOCATION_X":323454,"LOCATION_Y":2780606},"geometry":{"points":[[121.7366949343848,25.130200703066706]]}},{"attributes":{"OBJECTID":210,"STATION_NA":"忠仁車業有限公司","COUNTY_NA":"基隆市","ZIPCODE":"204","ADDRESS":"204基隆市安樂區安樂路二段88號","TEL":"02-24315151","LICENSE_NO":"C10","OWNER":"許忠仁","LOCATION_T":"地址對位","LOCATION_X":322348,"LOCATION_Y":2779814},"geometry":{"points":[[121.72568524817565,25.123105397855195]]}},{"attributes":{"OBJECTID":211,"STATION_NA":"新宏富車業有限公司","COUNTY_NA":"基隆市","ZIPCODE":"201","ADDRESS":"201基隆市信義區東信路150號","TEL":"02-24654037","LICENSE_NO":"C11","OWNER":"楊惠珍","LOCATION_T":"地址對位","LOCATION_X":326359,"LOCATION_Y":2780352},"geometry":{"points":[[121.76548701576847,25.127761571646804]]}},{"attributes":{"OBJECTID":212,"STATION_NA":"順利機車行","COUNTY_NA":"基隆市","ZIPCODE":"202","ADDRESS":"202基隆市中正區北寧路368號","TEL":"02-24691466","LICENSE_NO":"C12","OWNER":"張順利","LOCATION_T":"地址對位","LOCATION_X":329136,"LOCATION_Y":2781663},"geometry":{"points":[[121.79309933266364,25.139451545819217]]}},{"attributes":{"OBJECTID":213,"STATION_NA":"全勝有限公司","COUNTY_NA":"基隆市","ZIPCODE":"200","ADDRESS":"200基隆市仁愛區南榮路125號","TEL":"02-24232826","LICENSE_NO":"C13","OWNER":"林宗貴","LOCATION_T":"地址對位","LOCATION_X":324100,"LOCATION_Y":2780036},"geometry":{"points":[[121.7430693324426,25.125023623109421]]}},{"attributes":{"OBJECTID":214,"STATION_NA":"明輝車業有限公司","COUNTY_NA":"基隆市","ZIPCODE":"200","ADDRESS":"200基隆市仁愛區南榮路219號","TEL":"02-24220005","LICENSE_NO":"C14","OWNER":"張文德","LOCATION_T":"地址對位","LOCATION_X":324108,"LOCATION_Y":2779811},"geometry":{"points":[[121.74313629960422,25.122992198675295]]}},{"attributes":{"OBJECTID":215,"STATION_NA":"銘信機車行","COUNTY_NA":"基隆市","ZIPCODE":"201","ADDRESS":"201基隆市信義區信二路252號","TEL":"02-24282689","LICENSE_NO":"C15","OWNER":"吳再銘","LOCATION_T":"地址對位","LOCATION_X":324823,"LOCATION_Y":2780570},"geometry":{"points":[[121.75026810925954,25.129807625686162]]}},{"attributes":{"OBJECTID":216,"STATION_NA":"萬全機車行","COUNTY_NA":"基隆市","ZIPCODE":"206","ADDRESS":"206基隆市七堵區福三街22號","TEL":"02-24516811","LICENSE_NO":"C17","OWNER":"廖萬富","LOCATION_T":"地址對位","LOCATION_X":319598,"LOCATION_Y":2775157},"geometry":{"points":[[121.69817692539256,25.081194628091886]]}},{"attributes":{"OBJECTID":217,"STATION_NA":"文禾行","COUNTY_NA":"基隆市","ZIPCODE":"200","ADDRESS":"200基隆市仁愛區南榮路67號","TEL":"02-24236912","LICENSE_NO":"C18","OWNER":"陳碧玉","LOCATION_T":"地址對位","LOCATION_X":324072,"LOCATION_Y":2780157},"geometry":{"points":[[121.74279835957644,25.126117226131196]]}},{"attributes":{"OBJECTID":218,"STATION_NA":"信益車業有限公司","COUNTY_NA":"基隆市","ZIPCODE":"200","ADDRESS":"200基隆市仁愛區南榮路141號","TEL":"02-24262473","LICENSE_NO":"C19","OWNER":"陳巧雲","LOCATION_T":"地址對位","LOCATION_X":324097,"LOCATION_Y":2779997},"geometry":{"points":[[121.74303743692822,25.124671731764973]]}},{"attributes":{"OBJECTID":219,"STATION_NA":"見元機車行","COUNTY_NA":"基隆市","ZIPCODE":"205","ADDRESS":"205基隆市暖暖區源遠路272之4號","TEL":"02-24579793","LICENSE_NO":"C20","OWNER":"謝海松","LOCATION_T":"地址對位","LOCATION_X":325440,"LOCATION_Y":2777134},"geometry":{"points":[[121.75619578652172,25.098759085889458]]}},{"attributes":{"OBJECTID":220,"STATION_NA":"春宏機車行","COUNTY_NA":"台南市","ZIPCODE":"709","ADDRESS":"709台南市安南區海佃路二段782號","TEL":"06-2567097","LICENSE_NO":"D09","OWNER":"謝春夫","LOCATION_T":"地址對位","LOCATION_X":165639,"LOCATION_Y":2549829},"geometry":{"points":[[120.18487803263791,23.046108352477457]]}},{"attributes":{"OBJECTID":221,"STATION_NA":"金谷機車有限公司","COUNTY_NA":"台南市","ZIPCODE":"701","ADDRESS":"701台南市東區大同路一段137號","TEL":"06-2141869","LICENSE_NO":"D10","OWNER":"張智雄","LOCATION_T":"地址對位","LOCATION_X":168322,"LOCATION_Y":2543125},"geometry":{"points":[[120.21141274187492,22.985705430017155]]}},{"attributes":{"OBJECTID":222,"STATION_NA":"照明實業有限公司","COUNTY_NA":"台南市","ZIPCODE":"701","ADDRESS":"701台南市東區怡東路27號","TEL":"06-2755876","LICENSE_NO":"D11","OWNER":"蔡進貴","LOCATION_T":"地址對位","LOCATION_X":169969,"LOCATION_Y":2543729},"geometry":{"points":[[120.22744455794742,22.991237704371642]]}},{"attributes":{"OBJECTID":223,"STATION_NA":"統宇車業有限公司","COUNTY_NA":"台南市","ZIPCODE":"704","ADDRESS":"704台南市北區公園路595之2號","TEL":"06-2511623","LICENSE_NO":"D12","OWNER":"王錦秀","LOCATION_T":"地址對位","LOCATION_X":168379,"LOCATION_Y":2546198},"geometry":{"points":[[120.21180550944547,23.013456147294097]]}},{"attributes":{"OBJECTID":224,"STATION_NA":"龍忻車業有限公司","COUNTY_NA":"台南市","ZIPCODE":"702","ADDRESS":"701台南市東區大同路二段502號","TEL":"06-2684843","LICENSE_NO":"D13","OWNER":"林水龍","LOCATION_T":"地址對位","LOCATION_X":168634,"LOCATION_Y":2541620},"geometry":{"points":[[120.21453449970477,22.972130782723124]]}},{"attributes":{"OBJECTID":225,"STATION_NA":"茂發車業有限公司","COUNTY_NA":"台南市","ZIPCODE":"702","ADDRESS":"702台南市南區明興路1350號","TEL":"06-2621257","LICENSE_NO":"D14","OWNER":"陳學章","LOCATION_T":"地址對位","LOCATION_X":165526,"LOCATION_Y":2536158},"geometry":{"points":[[120.18451939291013,22.92265847000192]]}},{"attributes":{"OBJECTID":226,"STATION_NA":"金益車業有限公司","COUNTY_NA":"台南市","ZIPCODE":"702","ADDRESS":"702台南市南區新興路433號","TEL":"06-2633300","LICENSE_NO":"D15","OWNER":"郭金明","LOCATION_T":"地址對位","LOCATION_X":166124,"LOCATION_Y":2541942},"geometry":{"points":[[120.19003999288788,22.974916270316726]]}},{"attributes":{"OBJECTID":227,"STATION_NA":"三億車業行","COUNTY_NA":"台南市","ZIPCODE":"703","ADDRESS":"703台南市西區金華路三段207號","TEL":"06-2238377","LICENSE_NO":"D16","OWNER":"郭義雄","LOCATION_T":"地址對位","LOCATION_X":166464,"LOCATION_Y":2544109},"geometry":{"points":[[120.19323874038423,22.994500148437332]]}},{"attributes":{"OBJECTID":228,"STATION_NA":"永豐機車行","COUNTY_NA":"台南市","ZIPCODE":"709","ADDRESS":"709台南市安南區安和路五段159號","TEL":"06-3556529","LICENSE_NO":"D18","OWNER":"黃國棟","LOCATION_T":"地址對位","LOCATION_X":169029,"LOCATION_Y":2552027},"geometry":{"points":[[120.21784009838088,23.066122159419567]]}},{"attributes":{"OBJECTID":229,"STATION_NA":"展暉機車行","COUNTY_NA":"台南市","ZIPCODE":"709","ADDRESS":"709台南市安南區本原街三段137號","TEL":"06-2477720","LICENSE_NO":"D19","OWNER":"李俊達","LOCATION_T":"地址對位","LOCATION_X":164728,"LOCATION_Y":2550552},"geometry":{"points":[[120.17595022439554,23.052591360567451]]}},{"attributes":{"OBJECTID":230,"STATION_NA":"新明弘機車行","COUNTY_NA":"台南市","ZIPCODE":"709","ADDRESS":"709台南市安南區海佃路一段217號","TEL":"06-2591568","LICENSE_NO":"D20","OWNER":"邱耀煌","LOCATION_T":"地址對位","LOCATION_X":166279,"LOCATION_Y":2547496},"geometry":{"points":[[120.19124954536504,23.025074011178074]]}},{"attributes":{"OBJECTID":231,"STATION_NA":"東慶機車行","COUNTY_NA":"台南市","ZIPCODE":"701","ADDRESS":"701台南市東區崇德三十街88號","TEL":"06-2672730","LICENSE_NO":"D21","OWNER":"黃高碧華","LOCATION_T":"地址對位","LOCATION_X":170198,"LOCATION_Y":2540373},"geometry":{"points":[[120.22984995279954,22.96094482450733]]}},{"attributes":{"OBJECTID":232,"STATION_NA":"龍達車業有限公司","COUNTY_NA":"台南市","ZIPCODE":"700","ADDRESS":"700台南市中區府前路一段164號","TEL":"06-2232552","LICENSE_NO":"D22","OWNER":"黃盟文","LOCATION_T":"地址對位","LOCATION_X":167861,"LOCATION_Y":2543517},"geometry":{"points":[[120.20689579275778,22.989222810777544]]}},{"attributes":{"OBJECTID":233,"STATION_NA":"見昌車業行","COUNTY_NA":"台南市","ZIPCODE":"704","ADDRESS":"704台南市北區公園路281號","TEL":"06-2204058","LICENSE_NO":"D23","OWNER":"陳秀花","LOCATION_T":"地址對位","LOCATION_X":168058,"LOCATION_Y":2544849},"geometry":{"points":[[120.20874627040025,23.001259743062121]]}},{"attributes":{"OBJECTID":234,"STATION_NA":"國勝車業有限公司","COUNTY_NA":"台南市","ZIPCODE":"702","ADDRESS":"702台南市南區金華路二段78號","TEL":"06-2610668","LICENSE_NO":"D24","OWNER":"蔡清籐","LOCATION_T":"地址對位","LOCATION_X":166267,"LOCATION_Y":2542244},"geometry":{"points":[[120.1914182478028,22.97765027890684]]}},{"attributes":{"OBJECTID":235,"STATION_NA":"鳳勝機車行","COUNTY_NA":"台南市","ZIPCODE":"701","ADDRESS":"701台南市東區小東里東平路166號1F","TEL":"06-2384992","LICENSE_NO":"D25","OWNER":"何豐銘","LOCATION_T":"地址對位","LOCATION_X":170147,"LOCATION_Y":2544219},"geometry":{"points":[[120.22915526324618,22.995670639042128]]}},{"attributes":{"OBJECTID":236,"STATION_NA":"國龍機車行","COUNTY_NA":"台南市","ZIPCODE":"700","ADDRESS":"700台南市中區中山路6號","TEL":"06-2240253","LICENSE_NO":"D26","OWNER":"葉建吾","LOCATION_T":"地址對位","LOCATION_X":167757,"LOCATION_Y":2543918},"geometry":{"points":[[120.20586010497499,22.992838642552492]]}},{"attributes":{"OBJECTID":237,"STATION_NA":"東昌機車行","COUNTY_NA":"台南市","ZIPCODE":"700","ADDRESS":"700台南市中區中山路87號","TEL":"06-2259673","LICENSE_NO":"D27","OWNER":"陸明德","LOCATION_T":"地址對位","LOCATION_X":167902,"LOCATION_Y":2544077},"geometry":{"points":[[120.20726587198378,22.99428136507105]]}},{"attributes":{"OBJECTID":238,"STATION_NA":"振盛機車行","COUNTY_NA":"台南市","ZIPCODE":"708","ADDRESS":"708台南市安平區慶平路429號","TEL":"06-2957015","LICENSE_NO":"D28","OWNER":"黃振賜","LOCATION_T":"地址對位","LOCATION_X":164656,"LOCATION_Y":2544359},"geometry":{"points":[[120.17559111744414,22.996667542997873]]}},{"attributes":{"OBJECTID":239,"STATION_NA":"勁揚車業有限公司","COUNTY_NA":"台南市","ZIPCODE":"704","ADDRESS":"700台南市中區忠義路三段43號","TEL":"06-2269977","LICENSE_NO":"D29","OWNER":"黃玄宗","LOCATION_T":"地址對位","LOCATION_X":167699,"LOCATION_Y":2544664},"geometry":{"points":[[120.20525450127698,22.9995718955999]]}},{"attributes":{"OBJECTID":240,"STATION_NA":"漢達車業行","COUNTY_NA":"台南市","ZIPCODE":"700","ADDRESS":"700台南市中區南門路183號","TEL":"06-2137227","LICENSE_NO":"D30","OWNER":"徐國龍","LOCATION_T":"地址對位","LOCATION_X":167611,"LOCATION_Y":2543152},"geometry":{"points":[[120.20447699374151,22.985914897904188]]}},{"attributes":{"OBJECTID":241,"STATION_NA":"福吉實業股份有限公司","COUNTY_NA":"台南市","ZIPCODE":"700","ADDRESS":"700台南市中區開山路67號","TEL":"06-2292126","LICENSE_NO":"D31","OWNER":"林玉蘭","LOCATION_T":"地址對位","LOCATION_X":167868,"LOCATION_Y":2543637},"geometry":{"points":[[120.20695767955559,22.990306699811395]]}},{"attributes":{"OBJECTID":242,"STATION_NA":"鑫龍車業有限公司","COUNTY_NA":"台南市","ZIPCODE":"704","ADDRESS":"704台南市北區公園路287號","TEL":"06-2233588","LICENSE_NO":"D32","OWNER":"徐恩盛","LOCATION_T":"地址對位","LOCATION_X":168066,"LOCATION_Y":2544863},"geometry":{"points":[[120.2088235564871,23.001386543800066]]}},{"attributes":{"OBJECTID":243,"STATION_NA":"擎匠機車行","COUNTY_NA":"台南市","ZIPCODE":"704","ADDRESS":"704台南市北區文元里文賢路1164號1F","TEL":"06-2585747","LICENSE_NO":"D33","OWNER":"林德川","LOCATION_T":"地址對位","LOCATION_X":166498,"LOCATION_Y":2546625},"geometry":{"points":[[120.19343348550606,23.017220104553321]]}},{"attributes":{"OBJECTID":244,"STATION_NA":"群芳機車行","COUNTY_NA":"台南市","ZIPCODE":"708","ADDRESS":"708台南市安平區安平路666號","TEL":"06-2211731","LICENSE_NO":"D34","OWNER":"曾銘堂","LOCATION_T":"地址對位","LOCATION_X":163804,"LOCATION_Y":2544662},"geometry":{"points":[[120.16726452410404,22.999360423498977]]}},{"attributes":{"OBJECTID":245,"STATION_NA":"安成車業有限公司","COUNTY_NA":"台南市","ZIPCODE":"708","ADDRESS":"708台南市安平區安平路92號","TEL":"06-2509979","LICENSE_NO":"D35","OWNER":"徐安木","LOCATION_T":"地址對位","LOCATION_X":165556,"LOCATION_Y":2544528},"geometry":{"points":[[120.18435980952985,22.99823857047388]]}},{"attributes":{"OBJECTID":246,"STATION_NA":"聯興機車行","COUNTY_NA":"台南市","ZIPCODE":"709","ADDRESS":"709台南市安南區公學路四段426號1F","TEL":"06-2567628","LICENSE_NO":"D36","OWNER":"吳清淵","LOCATION_T":"地址對位","LOCATION_X":164223,"LOCATION_Y":2551933},"geometry":{"points":[[120.1709468257706,23.065036097114536]]}},{"attributes":{"OBJECTID":247,"STATION_NA":"尚昌機車有限公司","COUNTY_NA":"台南市","ZIPCODE":"709","ADDRESS":"709台南市安南區安和路三段64號","TEL":"06-3557789","LICENSE_NO":"D37","OWNER":"洪世昌","LOCATION_T":"地址對位","LOCATION_X":168976,"LOCATION_Y":2549675},"geometry":{"points":[[120.2174453959657,23.044881055806872]]}},{"attributes":{"OBJECTID":248,"STATION_NA":"六億車業","COUNTY_NA":"台南市","ZIPCODE":"702","ADDRESS":"703台南市西區中華西路一段147號","TEL":"06-2981941","LICENSE_NO":"D38","OWNER":"劉春枝","LOCATION_T":"地址對位","LOCATION_X":165668,"LOCATION_Y":2542706},"geometry":{"points":[[120.18555161354581,22.981792288976212]]}},{"attributes":{"OBJECTID":249,"STATION_NA":"慶川機車行","COUNTY_NA":"台南市","ZIPCODE":"701","ADDRESS":"701台南市東區東門路二段254號","TEL":"06-2682009","LICENSE_NO":"D39","OWNER":"程慶川","LOCATION_T":"地址對位","LOCATION_X":169690,"LOCATION_Y":2542976},"geometry":{"points":[[120.22476254152005,22.984425189049631]]}},{"attributes":{"OBJECTID":250,"STATION_NA":"慶發機車行","COUNTY_NA":"台南市","ZIPCODE":"701","ADDRESS":"701台南市東區崇明路3號1F","TEL":"06-2688773","LICENSE_NO":"D40","OWNER":"黃美雲","LOCATION_T":"地址對位","LOCATION_X":168828,"LOCATION_Y":2542710},"geometry":{"points":[[120.21636948633677,22.981982375139349]]}},{"attributes":{"OBJECTID":251,"STATION_NA":"億峰車業股份有限公司","COUNTY_NA":"台南市","ZIPCODE":"701","ADDRESS":"701台南市東區崇德十五街1號","TEL":"06-2693911","LICENSE_NO":"D41","OWNER":"陳正益","LOCATION_T":"地址對位","LOCATION_X":170008,"LOCATION_Y":2541422},"geometry":{"points":[[120.22794382293179,22.970408048819682]]}},{"attributes":{"OBJECTID":252,"STATION_NA":"興東發機車行","COUNTY_NA":"台南市","ZIPCODE":"702","ADDRESS":"702台南市南區明興路1283號","TEL":"06-2964116","LICENSE_NO":"D42","OWNER":"杜木樹","LOCATION_T":"地址對位","LOCATION_X":165596,"LOCATION_Y":2536232},"geometry":{"points":[[120.18519780982794,22.923330160758034]]}},{"attributes":{"OBJECTID":253,"STATION_NA":"泉利機車行","COUNTY_NA":"台南市","ZIPCODE":"702","ADDRESS":"702台南市南區建南路87-5號1F","TEL":"06-2284191","LICENSE_NO":"D43","OWNER":"林商利","LOCATION_T":"地址對位","LOCATION_X":166370,"LOCATION_Y":2543025},"geometry":{"points":[[120.1923806267154,22.984707473397563]]}},{"attributes":{"OBJECTID":254,"STATION_NA":"明進機車行","COUNTY_NA":"台南市","ZIPCODE":"702","ADDRESS":"702台南市南區健康路一段381號","TEL":"06-2645136","LICENSE_NO":"D44","OWNER":"曹春美","LOCATION_T":"地址對位","LOCATION_X":167112,"LOCATION_Y":2542629},"geometry":{"points":[[120.19963829222854,22.981168141629841]]}},{"attributes":{"OBJECTID":255,"STATION_NA":"貫德車業行","COUNTY_NA":"台南市","ZIPCODE":"704","ADDRESS":"704台南市北區大和路211號","TEL":"06-2588636","LICENSE_NO":"D46","OWNER":"吳秀里","LOCATION_T":"地址對位","LOCATION_X":166145,"LOCATION_Y":2546191},"geometry":{"points":[[120.19001378977812,23.01328386628008]]}},{"attributes":{"OBJECTID":256,"STATION_NA":"六德車業股份有限公司","COUNTY_NA":"台南市","ZIPCODE":"704","ADDRESS":"704台南市北區小東路281號","TEL":"06-2355717","LICENSE_NO":"D47","OWNER":"林崇德","LOCATION_T":"地址對位","LOCATION_X":170140,"LOCATION_Y":2544674},"geometry":{"points":[[120.22906337134484,22.999778831442899]]}},{"attributes":{"OBJECTID":257,"STATION_NA":"啟成車業有限公司","COUNTY_NA":"台南市","ZIPCODE":"704","ADDRESS":"704台南市北區公園路1004號","TEL":"06-2521037","LICENSE_NO":"D48","OWNER":"黃蘇麗卿","LOCATION_T":"地址對位","LOCATION_X":168721,"LOCATION_Y":2546589},"geometry":{"points":[[120.21512095201344,23.01700318564134]]}},{"attributes":{"OBJECTID":258,"STATION_NA":"金初機車行","COUNTY_NA":"台南市","ZIPCODE":"704","ADDRESS":"704台南市北區成功路80號","TEL":"06-2269351","LICENSE_NO":"D49","OWNER":"蔡香","LOCATION_T":"地址對位","LOCATION_X":167819,"LOCATION_Y":2544521},"geometry":{"points":[[120.20643260467112,22.998286482841898]]}},{"attributes":{"OBJECTID":259,"STATION_NA":"星輝機車行","COUNTY_NA":"台南市","ZIPCODE":"701","ADDRESS":"708台南市東區榮譽街174號1樓","TEL":"06-2551476","LICENSE_NO":"D51","OWNER":"林炤輝","LOCATION_T":"地址對位","LOCATION_X":169189,"LOCATION_Y":2542030},"geometry":{"points":[[120.21992562080024,22.975859405264824]]}},{"attributes":{"OBJECTID":260,"STATION_NA":"正峰機車行","COUNTY_NA":"台南市","ZIPCODE":"709","ADDRESS":"708台南市安南區安和路四段95號","TEL":"06-3567292","LICENSE_NO":"D52","OWNER":"黃炎鴻","LOCATION_T":"地址對位","LOCATION_X":169098,"LOCATION_Y":2550540},"geometry":{"points":[[120.2185905353614,23.052697773601576]]}},{"attributes":{"OBJECTID":261,"STATION_NA":"佑晟機車行","COUNTY_NA":"台南市","ZIPCODE":"709","ADDRESS":"708台南市安南區長溪街1段1號1F","TEL":"06-2564231","LICENSE_NO":"D53","OWNER":"許玉鳳","LOCATION_T":"地址對位","LOCATION_X":168417,"LOCATION_Y":2548417},"geometry":{"points":[[120.21205787483049,23.033494710300122]]}},{"attributes":{"OBJECTID":262,"STATION_NA":"和昌機車行","COUNTY_NA":"台南市","ZIPCODE":"700","ADDRESS":"700台南市中區忠義路二段136號","TEL":"06-2294447","LICENSE_NO":"D54","OWNER":"童顯南","LOCATION_T":"地址對位","LOCATION_X":167561,"LOCATION_Y":2544217},"geometry":{"points":[[120.2039324337035,22.995528981503565]]}},{"attributes":{"OBJECTID":263,"STATION_NA":"永信機車行","COUNTY_NA":"台南市","ZIPCODE":"701","ADDRESS":"701台南市東區崇德路130號","TEL":"06-2340548","LICENSE_NO":"D55","OWNER":"王承信","LOCATION_T":"地址對位","LOCATION_X":169139,"LOCATION_Y":2542431},"geometry":{"points":[[120.21941711383919,22.979477917577277]]}},{"attributes":{"OBJECTID":264,"STATION_NA":"和順機車行","COUNTY_NA":"台南市","ZIPCODE":"701","ADDRESS":"701台南市東區東安路41號","TEL":"06-2378911","LICENSE_NO":"D56","OWNER":"陳永大","LOCATION_T":"地址對位","LOCATION_X":169820,"LOCATION_Y":2543789},"geometry":{"points":[[120.2259881905905,22.991772464112554]]}},{"attributes":{"OBJECTID":265,"STATION_NA":"通達機車行","COUNTY_NA":"台南市","ZIPCODE":"701","ADDRESS":"701台南市東區東門路二段28號","TEL":"06-2359967","LICENSE_NO":"D57","OWNER":"戴國良","LOCATION_T":"地址對位","LOCATION_X":169151,"LOCATION_Y":2543190},"geometry":{"points":[[120.21949453717453,22.986331995561056]]}},{"attributes":{"OBJECTID":266,"STATION_NA":"巨新車業有限公司","COUNTY_NA":"台南市","ZIPCODE":"701","ADDRESS":"701台南市東區東門路二段35號","TEL":"06-2369888","LICENSE_NO":"D58","OWNER":"蔡王秋月","LOCATION_T":"地址對位","LOCATION_X":169176,"LOCATION_Y":2543204},"geometry":{"points":[[120.21973763310143,22.986459602451912]]}},{"attributes":{"OBJECTID":267,"STATION_NA":"信國機車行","COUNTY_NA":"台南市","ZIPCODE":"701","ADDRESS":"701台南市東區東興路258號","TEL":"06-2382155","LICENSE_NO":"D59","OWNER":"杜秋籐","LOCATION_T":"地址對位","LOCATION_X":170220,"LOCATION_Y":2544149},"geometry":{"points":[[120.22987090422734,22.995041993383783]]}},{"attributes":{"OBJECTID":268,"STATION_NA":"統利機車行","COUNTY_NA":"台南市","ZIPCODE":"701","ADDRESS":"701台南市東區林森路二段194號","TEL":"06-2355716","LICENSE_NO":"D60","OWNER":"石仁男","LOCATION_T":"地址對位","LOCATION_X":169647,"LOCATION_Y":2543548},"geometry":{"points":[[120.22431339761764,22.989588136114378]]}},{"attributes":{"OBJECTID":269,"STATION_NA":"鈴鹿機車行","COUNTY_NA":"台南市","ZIPCODE":"701","ADDRESS":"701台南市東區崇善路227-2號1F","TEL":"06-2607458","LICENSE_NO":"D61","OWNER":"陳志誠","LOCATION_T":"地址對位","LOCATION_X":169743,"LOCATION_Y":2542416},"geometry":{"points":[[120.22530841225775,22.97937107344621]]}},{"attributes":{"OBJECTID":270,"STATION_NA":"炤輝機車行","COUNTY_NA":"台南市","ZIPCODE":"701","ADDRESS":"701台南市東區崇德路767號","TEL":"06-2603628","LICENSE_NO":"D62","OWNER":"林炤輝","LOCATION_T":"地址對位","LOCATION_X":169988,"LOCATION_Y":2541063},"geometry":{"points":[[120.22776713990571,22.967165453784585]]}},{"attributes":{"OBJECTID":271,"STATION_NA":"聖興機車行","COUNTY_NA":"台南市","ZIPCODE":"701","ADDRESS":"701台南市東區富農街一段131巷26號","TEL":"06-3368152","LICENSE_NO":"D63","OWNER":"郭再來","LOCATION_T":"地址對位","LOCATION_X":170621,"LOCATION_Y":2542717},"geometry":{"points":[[120.23385567487162,22.982130220510239]]}},{"attributes":{"OBJECTID":272,"STATION_NA":"協峰機車行","COUNTY_NA":"台南市","ZIPCODE":"701","ADDRESS":"701台南市東區裕農路618號","TEL":"06-2683232","LICENSE_NO":"D64","OWNER":"郭曾玉霞","LOCATION_T":"地址對位","LOCATION_X":170795,"LOCATION_Y":2543422},"geometry":{"points":[[120.23551653729847,22.988504292564762]]}},{"attributes":{"OBJECTID":273,"STATION_NA":"嘉亮機車行","COUNTY_NA":"台南市","ZIPCODE":"701","ADDRESS":"701台南市東區生產路297巷22號","TEL":"06-2688256","LICENSE_NO":"D65","OWNER":"柯吳金蘭","LOCATION_T":"地址對位","LOCATION_X":170187,"LOCATION_Y":2540896},"geometry":{"points":[[120.22971616915969,22.9656668376463]]}},{"attributes":{"OBJECTID":274,"STATION_NA":"駿一機車行","COUNTY_NA":"台南市","ZIPCODE":"702","ADDRESS":"702台南市南區明興路1024號","TEL":"06-2621580","LICENSE_NO":"D66","OWNER":"葉美杏","LOCATION_T":"地址對位","LOCATION_X":165397,"LOCATION_Y":2537060},"geometry":{"points":[[120.1832135606822,22.93079698365867]]}},{"attributes":{"OBJECTID":275,"STATION_NA":"大金益車館","COUNTY_NA":"台南市","ZIPCODE":"702","ADDRESS":"702台南市南區金華路一段399號","TEL":"06-2633300","LICENSE_NO":"D67","OWNER":"郭張麗珠","LOCATION_T":"地址對位","LOCATION_X":166140,"LOCATION_Y":2541428},"geometry":{"points":[[120.19022367455551,22.970275821458301]]}},{"attributes":{"OBJECTID":276,"STATION_NA":"平晉企業有限公司","COUNTY_NA":"台南市","ZIPCODE":"702","ADDRESS":"702台南市南區金華路一段487號","TEL":"06-2643331","LICENSE_NO":"D68","OWNER":"李麗銀","LOCATION_T":"地址對位","LOCATION_X":166175,"LOCATION_Y":2541849},"geometry":{"points":[[120.1905423423223,22.974079037346943]]}},{"attributes":{"OBJECTID":277,"STATION_NA":"金榮機車行","COUNTY_NA":"台南市","ZIPCODE":"702","ADDRESS":"702台南市南區金華路二段161號","TEL":"06-2649826","LICENSE_NO":"D69","OWNER":"曾國森","LOCATION_T":"地址對位","LOCATION_X":166245,"LOCATION_Y":2542622},"geometry":{"points":[[120.19118330327986,22.981062381070601]]}},{"attributes":{"OBJECTID":278,"STATION_NA":"通發機車行","COUNTY_NA":"台南市","ZIPCODE":"702","ADDRESS":"702台南市南區灣裡路385號","TEL":"06-2622403","LICENSE_NO":"D70","OWNER":"葉星風","LOCATION_T":"地址對位","LOCATION_X":165408,"LOCATION_Y":2536305},"geometry":{"points":[[120.18336124386072,22.923979980202798]]}},{"attributes":{"OBJECTID":279,"STATION_NA":"大億車業行","COUNTY_NA":"台南市","ZIPCODE":"702","ADDRESS":"702台南市南區觀光城2號","TEL":"06-2914333","LICENSE_NO":"D71","OWNER":"郭玉美","LOCATION_T":"地址對位","LOCATION_X":165880,"LOCATION_Y":2541956},"geometry":{"points":[[120.18765975627306,22.975030609905982]]}},{"attributes":{"OBJECTID":280,"STATION_NA":"協成機車行","COUNTY_NA":"台南市","ZIPCODE":"709","ADDRESS":"709台南市安南區海佃路一段167號","TEL":"06-2581339","LICENSE_NO":"D72","OWNER":"陳玉珊","LOCATION_T":"地址對位","LOCATION_X":166309,"LOCATION_Y":2547343},"geometry":{"points":[[120.19155057298283,23.023693975822486]]}},{"attributes":{"OBJECTID":281,"STATION_NA":"月昌機車行","COUNTY_NA":"高雄市","ZIPCODE":"813","ADDRESS":"813高雄市左營區左營大路826號","TEL":"07-5832605","LICENSE_NO":"E20","OWNER":"洪國雄","LOCATION_T":"地址對位","LOCATION_X":177275,"LOCATION_Y":2510863},"geometry":{"points":[[120.30021187357531,22.694770079092784]]}},{"attributes":{"OBJECTID":282,"STATION_NA":"友順車業有限公司","COUNTY_NA":"高雄市","ZIPCODE":"807","ADDRESS":"807高雄市三民區建興路230號","TEL":"07-3821266","LICENSE_NO":"E21","OWNER":"施儼","LOCATION_T":"地址對位","LOCATION_X":179779,"LOCATION_Y":2505321},"geometry":{"points":[[120.32482644353914,22.64482602955874]]}},{"attributes":{"OBJECTID":283,"STATION_NA":"有泰車業行","COUNTY_NA":"高雄市","ZIPCODE":"807","ADDRESS":"807高雄市三民區力行路39號","TEL":"07-3212935","LICENSE_NO":"E22","OWNER":"薛全有","LOCATION_T":"地址對位","LOCATION_X":176188,"LOCATION_Y":2504693},"geometry":{"points":[[120.28991796830283,22.63900369681653]]}},{"attributes":{"OBJECTID":284,"STATION_NA":"德冀輪業有限公司","COUNTY_NA":"高雄市","ZIPCODE":"812","ADDRESS":"812高雄市小港區大業北路388號","TEL":"07-8016682","LICENSE_NO":"E23","OWNER":"郭文東","LOCATION_T":"地址對位","LOCATION_X":182013,"LOCATION_Y":2496444},"geometry":{"points":[[120.34694043870562,22.564749468559974]]}},{"attributes":{"OBJECTID":285,"STATION_NA":"陽程機車行","COUNTY_NA":"高雄市","ZIPCODE":"806","ADDRESS":"806高雄市前鎮區草衙二路478號","TEL":"07-8312733","LICENSE_NO":"E24","OWNER":"李麗娜","LOCATION_T":"地址對位","LOCATION_X":179579,"LOCATION_Y":2498159},"geometry":{"points":[[120.32319716343544,22.580139718009772]]}},{"attributes":{"OBJECTID":286,"STATION_NA":"合益機車行","COUNTY_NA":"高雄市","ZIPCODE":"802","ADDRESS":"802高雄市苓雅區建國一路342號","TEL":"07-2222319","LICENSE_NO":"E25","OWNER":"李盛錢","LOCATION_T":"地址對位","LOCATION_X":179739,"LOCATION_Y":2504004},"geometry":{"points":[[120.32449555369219,22.63293111725508]]}},{"attributes":{"OBJECTID":287,"STATION_NA":"興昌機車行","COUNTY_NA":"高雄市","ZIPCODE":"811","ADDRESS":"811高雄市楠梓區右昌街377號","TEL":"07-3616201","LICENSE_NO":"E26","OWNER":"李黃真","LOCATION_T":"地址對位","LOCATION_X":176074,"LOCATION_Y":2513111},"geometry":{"points":[[120.28841909492049,22.715020478104076]]}},{"attributes":{"OBJECTID":288,"STATION_NA":"鑫謚車業有限公司","COUNTY_NA":"高雄市","ZIPCODE":"811","ADDRESS":"811高雄市楠梓區盛昌街228號","TEL":"07-3620202","LICENSE_NO":"E27","OWNER":"林吳金蘭","LOCATION_T":"地址對位","LOCATION_X":176022,"LOCATION_Y":2513047},"geometry":{"points":[[120.28791590282711,22.714440258621881]]}},{"attributes":{"OBJECTID":289,"STATION_NA":"永順車業有限公司","COUNTY_NA":"高雄市","ZIPCODE":"807","ADDRESS":"807高雄市三民區大順二路683號","TEL":"07-3830712","LICENSE_NO":"E28","OWNER":"胡素娟","LOCATION_T":"地址對位","LOCATION_X":179497,"LOCATION_Y":2506004},"geometry":{"points":[[120.32205242158335,22.650982271783672]]}},{"attributes":{"OBJECTID":290,"STATION_NA":"益昌機車有限公司","COUNTY_NA":"高雄市","ZIPCODE":"813","ADDRESS":"813高雄市左營區左營大路420號","TEL":"07-5827322","LICENSE_NO":"E29","OWNER":"張錦德","LOCATION_T":"地址對位","LOCATION_X":176594,"LOCATION_Y":2510058},"geometry":{"points":[[120.29362102963347,22.687471244391276]]}},{"attributes":{"OBJECTID":291,"STATION_NA":"協和車業有限公司","COUNTY_NA":"高雄市","ZIPCODE":"806","ADDRESS":"806高雄市前鎮區一心一路114號","TEL":"07-7252617","LICENSE_NO":"E30","OWNER":"李文福","LOCATION_T":"地址對位","LOCATION_X":179487,"LOCATION_Y":2501063},"geometry":{"points":[[120.3221742680396,22.606361533136766]]}},{"attributes":{"OBJECTID":292,"STATION_NA":"澧達機車有限公司","COUNTY_NA":"高雄市","ZIPCODE":"806","ADDRESS":"802高雄市苓雅區凱旋三路381號","TEL":"07-7251879","LICENSE_NO":"E31","OWNER":"王崇城","LOCATION_T":"地址對位","LOCATION_X":179984,"LOCATION_Y":2501793},"geometry":{"points":[[120.32697642206169,22.612974423549915]]}},{"attributes":{"OBJECTID":293,"STATION_NA":"統縉企業有限公司","COUNTY_NA":"高雄市","ZIPCODE":"807","ADDRESS":"807高雄市三民區建工路769號","TEL":"07-3846294","LICENSE_NO":"E32","OWNER":"郭國基","LOCATION_T":"地址對位","LOCATION_X":178799,"LOCATION_Y":2505610},"geometry":{"points":[[120.31527872903145,22.64739526804485]]}},{"attributes":{"OBJECTID":294,"STATION_NA":"金麗安企業有限公司","COUNTY_NA":"高雄市","ZIPCODE":"807","ADDRESS":"807高雄市三民區正忠路329號","TEL":"07-3816883","LICENSE_NO":"E33","OWNER":"鄭麗雪","LOCATION_T":"地址對位","LOCATION_X":180308,"LOCATION_Y":2505603},"geometry":{"points":[[120.32996093025295,22.64739438053304]]}},{"attributes":{"OBJECTID":295,"STATION_NA":"鈞鈺車業股份有限公司","COUNTY_NA":"高雄市","ZIPCODE":"802","ADDRESS":"802高雄市苓雅區五權街100號","TEL":"07-2010824","LICENSE_NO":"E34","OWNER":"馬金惠","LOCATION_T":"地址對位","LOCATION_X":179489,"LOCATION_Y":2502722},"geometry":{"points":[[120.3221202578994,22.621343526724065]]}},{"attributes":{"OBJECTID":296,"STATION_NA":"必成機車行","COUNTY_NA":"高雄市","ZIPCODE":"801","ADDRESS":"800高雄市新興區七賢二路311號","TEL":"07-2612655","LICENSE_NO":"E35","OWNER":"吳秋孟","LOCATION_T":"地址對位","LOCATION_X":176237,"LOCATION_Y":2503826},"geometry":{"points":[[120.29043479311379,22.631176197044351]]}},{"attributes":{"OBJECTID":297,"STATION_NA":"台鈴高雄服務站","COUNTY_NA":"高雄市","ZIPCODE":"807","ADDRESS":"800高雄市新興區民族一路41號","TEL":"07-7220245","LICENSE_NO":"E36","OWNER":"黃政旺","LOCATION_T":"地址對位","LOCATION_X":178648,"LOCATION_Y":2504970},"geometry":{"points":[[120.31383831148743,22.641609390063383]]}},{"attributes":{"OBJECTID":298,"STATION_NA":"久德車業有限公司","COUNTY_NA":"高雄市","ZIPCODE":"811","ADDRESS":"811高雄市楠梓區右昌街74號","TEL":"07-3637196","LICENSE_NO":"E38","OWNER":"李崑德","LOCATION_T":"地址對位","LOCATION_X":176378,"LOCATION_Y":2512530},"geometry":{"points":[[120.29140499911369,22.709786525428548]]}},{"attributes":{"OBJECTID":299,"STATION_NA":"宏聆有限公司","COUNTY_NA":"高雄市","ZIPCODE":"804","ADDRESS":"804高雄市鼓山區鼓波街33號","TEL":"07-5512060","LICENSE_NO":"E39","OWNER":"邱山樹","LOCATION_T":"地址對位","LOCATION_X":174282,"LOCATION_Y":2502888},"geometry":{"points":[[120.27146087022973,22.622620323701341]]}},{"attributes":{"OBJECTID":300,"STATION_NA":"長亨車業行","COUNTY_NA":"高雄市","ZIPCODE":"812","ADDRESS":"812高雄市小港區六苓里漢民路535號1樓","TEL":"07-8070191","LICENSE_NO":"E40","OWNER":"羅志明","LOCATION_T":"地址對位","LOCATION_X":183308,"LOCATION_Y":2496680},"geometry":{"points":[[120.35952292841715,22.566931339991893]]}},{"attributes":{"OBJECTID":301,"STATION_NA":"永祺車業有限公司","COUNTY_NA":"高雄市","ZIPCODE":"801","ADDRESS":"801高雄市前金區瑞源路145號","TEL":"07-2164012","LICENSE_NO":"E41","OWNER":"吳華文","LOCATION_T":"地址對位","LOCATION_X":176854,"LOCATION_Y":2504104},"geometry":{"points":[[120.29642431113685,22.633713141661364]]}},{"attributes":{"OBJECTID":302,"STATION_NA":"上勤車業有限公司","COUNTY_NA":"高雄市","ZIPCODE":"802","ADDRESS":"802高雄市苓雅區成功一路222號","TEL":"07-3321223","LICENSE_NO":"E42","OWNER":"許惟喬","LOCATION_T":"地址對位","LOCATION_X":176865,"LOCATION_Y":2502297},"geometry":{"points":[[120.29661427571239,22.617395224548684]]}},{"attributes":{"OBJECTID":303,"STATION_NA":"名順車業有限公司","COUNTY_NA":"高雄市","ZIPCODE":"807","ADDRESS":"807高雄市三民區北平二街64號","TEL":"07-3224833","LICENSE_NO":"E43","OWNER":"陳義三","LOCATION_T":"地址對位","LOCATION_X":177379,"LOCATION_Y":2505951},"geometry":{"points":[[120.30144748252611,22.650415102583011]]}},{"attributes":{"OBJECTID":304,"STATION_NA":"自立車業有限公司","COUNTY_NA":"高雄市","ZIPCODE":"802","ADDRESS":"802高雄市苓雅區福德三路38號","TEL":"07-7617787","LICENSE_NO":"E44","OWNER":"謝金珠","LOCATION_T":"地址對位","LOCATION_X":180122,"LOCATION_Y":2502470},"geometry":{"points":[[120.32828907190708,22.619093868917272]]}},{"attributes":{"OBJECTID":305,"STATION_NA":"長裕實業有限公司","COUNTY_NA":"高雄市","ZIPCODE":"807","ADDRESS":"807高雄市三民區建工路684號","TEL":"07-3843699","LICENSE_NO":"E45","OWNER":"劉秋碧","LOCATION_T":"地址對位","LOCATION_X":179407,"LOCATION_Y":2505785},"geometry":{"points":[[120.32118648342042,22.649000856152131]]}},{"attributes":{"OBJECTID":306,"STATION_NA":"慶良機車行","COUNTY_NA":"高雄市","ZIPCODE":"807","ADDRESS":"807高雄市三民區鼎力路59號","TEL":"07-3429476","LICENSE_NO":"E46","OWNER":"鄭美珠","LOCATION_T":"地址對位","LOCATION_X":179452,"LOCATION_Y":2507396},"geometry":{"points":[[120.3215527653531,22.663550984517876]]}},{"attributes":{"OBJECTID":307,"STATION_NA":"道陸車業有限公司","COUNTY_NA":"高雄市","ZIPCODE":"807","ADDRESS":"807高雄市三民區鼎中路769號","TEL":"07-3424218","LICENSE_NO":"E47","OWNER":"蘇美麗","LOCATION_T":"地址對位","LOCATION_X":179543,"LOCATION_Y":2508738},"geometry":{"points":[[120.32237893920308,22.675674022589998]]}},{"attributes":{"OBJECTID":308,"STATION_NA":"宏德車業行","COUNTY_NA":"高雄市","ZIPCODE":"812","ADDRESS":"812高雄市小港區平和路97號","TEL":"07-8417862","LICENSE_NO":"E48","OWNER":"王萬龍","LOCATION_T":"地址對位","LOCATION_X":180604,"LOCATION_Y":2496527},"geometry":{"points":[[120.33323595855576,22.565442819178401]]}},{"attributes":{"OBJECTID":309,"STATION_NA":"晉亨車業有限公司","COUNTY_NA":"高雄市","ZIPCODE":"812","ADDRESS":"812高雄市小港區高鳳路20號","TEL":"07-8020377","LICENSE_NO":"E49","OWNER":"許芳慈","LOCATION_T":"地址對位","LOCATION_X":184523,"LOCATION_Y":2497372},"geometry":{"points":[[120.37130934890642,22.573227386990986]]}},{"attributes":{"OBJECTID":310,"STATION_NA":"平常車業行","COUNTY_NA":"高雄市","ZIPCODE":"812","ADDRESS":"812高雄市小港區鳳北路181號","TEL":"07-8711576","LICENSE_NO":"E50","OWNER":"楊平常","LOCATION_T":"地址對位","LOCATION_X":181685,"LOCATION_Y":2492404},"geometry":{"points":[[120.34392353194121,22.52825048110385]]}},{"attributes":{"OBJECTID":311,"STATION_NA":"長航車業有限公司","COUNTY_NA":"高雄市","ZIPCODE":"813","ADDRESS":"813高雄市左營區至真路280號","TEL":"07-3414507","LICENSE_NO":"E51","OWNER":"郭美惠","LOCATION_T":"地址對位","LOCATION_X":177392,"LOCATION_Y":2508394},"geometry":{"points":[[120.30146273157231,22.672477738222618]]}},{"attributes":{"OBJECTID":312,"STATION_NA":"合聯機車行","COUNTY_NA":"高雄市","ZIPCODE":"813","ADDRESS":"813高雄市左營區新庄仔路580號","TEL":"07-3412914","LICENSE_NO":"E52","OWNER":"張榮郎","LOCATION_T":"地址對位","LOCATION_X":177827,"LOCATION_Y":2508059},"geometry":{"points":[[120.30571081667286,22.669470717412953]]}},{"attributes":{"OBJECTID":313,"STATION_NA":"企冠企業有限公司","COUNTY_NA":"高雄市","ZIPCODE":"806","ADDRESS":"806高雄市前鎮區一心一路126號","TEL":"07-5562014","LICENSE_NO":"E53","OWNER":"張景棠","LOCATION_T":"地址對位","LOCATION_X":179454,"LOCATION_Y":2501079},"geometry":{"points":[[120.32185257373416,22.606504655378576]]}},{"attributes":{"OBJECTID":314,"STATION_NA":"富鼎機車有限公司","COUNTY_NA":"高雄市","ZIPCODE":"806","ADDRESS":"806高雄市前鎮區瑞祥街138號","TEL":"07-7238332","LICENSE_NO":"E54","OWNER":"黃木龍","LOCATION_T":"地址對位","LOCATION_X":180168,"LOCATION_Y":2501511},"geometry":{"points":[[120.32877861918132,22.61043530490285]]}},{"attributes":{"OBJECTID":315,"STATION_NA":"信豐車業行","COUNTY_NA":"高雄市","ZIPCODE":"806","ADDRESS":"806高雄市前鎮區廣西路190號","TEL":"07-3322981","LICENSE_NO":"E55","OWNER":"許益信","LOCATION_T":"地址對位","LOCATION_X":179045,"LOCATION_Y":2502077},"geometry":{"points":[[120.31782984292175,22.615500330733145]]}},{"attributes":{"OBJECTID":316,"STATION_NA":"弘暘機車行","COUNTY_NA":"高雄市","ZIPCODE":"811","ADDRESS":"811高雄市楠梓區高楠公路1753號","TEL":"07-3515574","LICENSE_NO":"E56","OWNER":"陳木發","LOCATION_T":"地址對位","LOCATION_X":179428,"LOCATION_Y":2514545},"geometry":{"points":[[120.32100340786545,22.728112070410162]]}},{"attributes":{"OBJECTID":317,"STATION_NA":"茂盛機車行","COUNTY_NA":"高雄市","ZIPCODE":"811","ADDRESS":"811高雄市楠梓區旗楠路50號","TEL":"07-3510913","LICENSE_NO":"E58","OWNER":"康金正","LOCATION_T":"地址對位","LOCATION_X":180334,"LOCATION_Y":2514928},"geometry":{"points":[[120.32980659416567,22.731607998099896]]}},{"attributes":{"OBJECTID":318,"STATION_NA":"久揚車業有限公司","COUNTY_NA":"高雄市","ZIPCODE":"811","ADDRESS":"811高雄市楠梓區旗楠路88號","TEL":"07-3515083","LICENSE_NO":"E59","OWNER":"巫三龍","LOCATION_T":"地址對位","LOCATION_X":180362,"LOCATION_Y":2514967},"geometry":{"points":[[120.33007747943617,22.73196134172824]]}},{"attributes":{"OBJECTID":319,"STATION_NA":"興東峰車業有限公司","COUNTY_NA":"高雄市","ZIPCODE":"804","ADDRESS":"804高雄市鼓山區龍德路245號","TEL":"07-55535955","LICENSE_NO":"E60","OWNER":"?明峰","LOCATION_T":"地址對位","LOCATION_X":176984,"LOCATION_Y":2506348},"geometry":{"points":[[120.29758615402591,22.653983533073205]]}},{"attributes":{"OBJECTID":320,"STATION_NA":"南榮機車行","COUNTY_NA":"高雄市","ZIPCODE":"803","ADDRESS":"803高雄市鹽埕區七賢三路191號","TEL":"07-5511286","LICENSE_NO":"E71","OWNER":"李恆雄","LOCATION_T":"地址對位","LOCATION_X":175461,"LOCATION_Y":2503499},"geometry":{"points":[[120.2829010534039,22.628189652368249]]}},{"attributes":{"OBJECTID":321,"STATION_NA":"全能車業有限公司","COUNTY_NA":"高雄市","ZIPCODE":"803","ADDRESS":"803高雄市鹽埕區大成街80號","TEL":"07-5311911","LICENSE_NO":"E72","OWNER":"劉永能","LOCATION_T":"地址對位","LOCATION_X":176040,"LOCATION_Y":2502820},"geometry":{"points":[[120.28856502641209,22.622082869032134]]}},{"attributes":{"OBJECTID":322,"STATION_NA":"新世紀車業有限公司","COUNTY_NA":"高雄市","ZIPCODE":"803","ADDRESS":"803高雄市鹽埕區北斗街43號","TEL":"07-5519127","LICENSE_NO":"E73","OWNER":"劉陳瞻敏","LOCATION_T":"地址對位","LOCATION_X":175446,"LOCATION_Y":2503945},"geometry":{"points":[[120.28273427620346,22.632216681409336]]}},{"attributes":{"OBJECTID":323,"STATION_NA":"永坤車業行","COUNTY_NA":"高雄市","ZIPCODE":"807","ADDRESS":"807高雄市三民區九如一路113號","TEL":"07-3867680","LICENSE_NO":"E74","OWNER":"吳坤德","LOCATION_T":"地址對位","LOCATION_X":181452,"LOCATION_Y":2504402},"geometry":{"points":[[120.34114361690735,22.636595163623017]]}},{"attributes":{"OBJECTID":324,"STATION_NA":"久如車業行","COUNTY_NA":"高雄市","ZIPCODE":"807","ADDRESS":"807高雄市三民區九如一路496號","TEL":"07-3843443","LICENSE_NO":"E75","OWNER":"周德陽","LOCATION_T":"地址對位","LOCATION_X":180129,"LOCATION_Y":2504712},"geometry":{"points":[[120.32825856054734,22.639340810760807]]}},{"attributes":{"OBJECTID":325,"STATION_NA":"晉立車業有限公司","COUNTY_NA":"高雄市","ZIPCODE":"807","ADDRESS":"807高雄市三民區九如二路158號","TEL":"07-3110705","LICENSE_NO":"E76","OWNER":"黃榮章","LOCATION_T":"地址對位","LOCATION_X":178112,"LOCATION_Y":2504903},"geometry":{"points":[[120.30862657392866,22.640981877239927]]}},{"attributes":{"OBJECTID":326,"STATION_NA":"東峰機車行","COUNTY_NA":"高雄市","ZIPCODE":"807","ADDRESS":"807高雄市三民區九如二路416號","TEL":"07-3121778","LICENSE_NO":"E77","OWNER":"徐才忠","LOCATION_T":"地址對位","LOCATION_X":177268,"LOCATION_Y":2504980},"geometry":{"points":[[120.30041185563501,22.641641617037113]]}},{"attributes":{"OBJECTID":327,"STATION_NA":"名展車業有限公司","COUNTY_NA":"高雄市","ZIPCODE":"807","ADDRESS":"807高雄市三民區十全一路62號1樓","TEL":"07-3121361","LICENSE_NO":"E78","OWNER":"張豐極","LOCATION_T":"地址對位","LOCATION_X":178487,"LOCATION_Y":2505338},"geometry":{"points":[[120.31225538587691,22.644925925348286]]}},{"attributes":{"OBJECTID":328,"STATION_NA":"晟大機車行","COUNTY_NA":"高雄市","ZIPCODE":"807","ADDRESS":"807高雄市三民區大裕路73號","TEL":"07-3819017","LICENSE_NO":"E79","OWNER":"劉麗玉","LOCATION_T":"地址對位","LOCATION_X":180157,"LOCATION_Y":2506442},"geometry":{"points":[[120.328454807158,22.654964811255674]]}},{"attributes":{"OBJECTID":329,"STATION_NA":"新峰車業行","COUNTY_NA":"高雄市","ZIPCODE":"807","ADDRESS":"807高雄市三民區大豐二路342號","TEL":"07-3817511","LICENSE_NO":"E80","OWNER":"劉家兆","LOCATION_T":"地址對位","LOCATION_X":180750,"LOCATION_Y":2505476},"geometry":{"points":[[120.33426698729041,22.646265555499014]]}},{"attributes":{"OBJECTID":330,"STATION_NA":"建泰機車行","COUNTY_NA":"高雄市","ZIPCODE":"807","ADDRESS":"807高雄市三民區中華二路68號","TEL":"07-3128833","LICENSE_NO":"E81","OWNER":"陳明德","LOCATION_T":"地址對位","LOCATION_X":176426,"LOCATION_Y":2504826},"geometry":{"points":[[120.2922272491634,22.640214994809327]]}},{"attributes":{"OBJECTID":331,"STATION_NA":"大誠機車行","COUNTY_NA":"高雄市","ZIPCODE":"807","ADDRESS":"807高雄市三民區建工路269號","TEL":"07-3810490","LICENSE_NO":"E83","OWNER":"許宗賢","LOCATION_T":"地址對位","LOCATION_X":180593,"LOCATION_Y":2506294},"geometry":{"points":[[120.33270364034756,22.653646148028574]]}},{"attributes":{"OBJECTID":332,"STATION_NA":"德利車業有限公司","COUNTY_NA":"高雄市","ZIPCODE":"807","ADDRESS":"807高雄市三民區建工路666號1樓","TEL":"07-3822547","LICENSE_NO":"E84","OWNER":"李秀凰","LOCATION_T":"地址對位","LOCATION_X":179444,"LOCATION_Y":2505793},"geometry":{"points":[[120.32154612300442,22.649074633281653]]}},{"attributes":{"OBJECTID":333,"STATION_NA":"鏈甄企業有限公司","COUNTY_NA":"高雄市","ZIPCODE":"807","ADDRESS":"807高雄市三民區建國一路471號","TEL":"07-2239913","LICENSE_NO":"E85","OWNER":"包榮和","LOCATION_T":"地址對位","LOCATION_X":178833,"LOCATION_Y":2504294},"geometry":{"points":[[120.31566846137812,22.635512420394075]]}},{"attributes":{"OBJECTID":334,"STATION_NA":"金裕興車業有限公司","COUNTY_NA":"高雄市","ZIPCODE":"807","ADDRESS":"807高雄市三民區建國二路72號","TEL":"07-2232051","LICENSE_NO":"E86","OWNER":"陳金得","LOCATION_T":"地址對位","LOCATION_X":178299,"LOCATION_Y":2504548},"geometry":{"points":[[120.3104619030962,22.637783866900826]]}},{"attributes":{"OBJECTID":335,"STATION_NA":"源暉企業行","COUNTY_NA":"高雄市","ZIPCODE":"807","ADDRESS":"807高雄市三民區建國三路316-1號","TEL":"07-2912118","LICENSE_NO":"E87","OWNER":"簡坤源","LOCATION_T":"地址對位","LOCATION_X":175950,"LOCATION_Y":2504287},"geometry":{"points":[[120.28762139813395,22.635326980131151]]}},{"attributes":{"OBJECTID":336,"STATION_NA":"玄光車業有限公司","COUNTY_NA":"高雄市","ZIPCODE":"807","ADDRESS":"807高雄市三民區建國三路403號","TEL":"07-2311510","LICENSE_NO":"E88","OWNER":"夏瑞鴻","LOCATION_T":"地址對位","LOCATION_X":176395,"LOCATION_Y":2504390},"geometry":{"points":[[120.29194579599033,22.636276291350768]]}},{"attributes":{"OBJECTID":337,"STATION_NA":"金發機車行","COUNTY_NA":"高雄市","ZIPCODE":"807","ADDRESS":"807高雄市三民區建興路95號","TEL":"07-3835665","LICENSE_NO":"E89","OWNER":"蔡嫦惠","LOCATION_T":"地址對位","LOCATION_X":180155,"LOCATION_Y":2505071},"geometry":{"points":[[120.32849571491261,22.642583850376781]]}},{"attributes":{"OBJECTID":338,"STATION_NA":"宗賢機車行","COUNTY_NA":"高雄市","ZIPCODE":"807","ADDRESS":"807高雄市三民區義華路312號","TEL":"07-3861815","LICENSE_NO":"E90","OWNER":"王勝賢","LOCATION_T":"地址對位","LOCATION_X":180844,"LOCATION_Y":2505190},"geometry":{"points":[[120.33519404344507,22.643686641787223]]}},{"attributes":{"OBJECTID":339,"STATION_NA":"永強機車行","COUNTY_NA":"高雄市","ZIPCODE":"807","ADDRESS":"807高雄市三民區鼎山街545號","TEL":"07-3862418","LICENSE_NO":"E91","OWNER":"陳良益","LOCATION_T":"地址對位","LOCATION_X":179104,"LOCATION_Y":2506140},"geometry":{"points":[[120.31822255803462,22.652194153946983]]}},{"attributes":{"OBJECTID":340,"STATION_NA":"國群機車行","COUNTY_NA":"高雄市","ZIPCODE":"807","ADDRESS":"807高雄市三民區鼎中路723號1樓","TEL":"07-3462816","LICENSE_NO":"E93","OWNER":"吳春霖","LOCATION_T":"地址對位","LOCATION_X":179435,"LOCATION_Y":2508521},"geometry":{"points":[[120.32133754043399,22.673709873429207]]}},{"attributes":{"OBJECTID":341,"STATION_NA":"進峰車業有限公司","COUNTY_NA":"高雄市","ZIPCODE":"807","ADDRESS":"807高雄市三民區察哈爾二街282號","TEL":"07-3228968","LICENSE_NO":"E94","OWNER":"楊邱銀足","LOCATION_T":"地址對位","LOCATION_X":176977,"LOCATION_Y":2505706},"geometry":{"points":[[120.29754746634516,22.648185524493204]]}},{"attributes":{"OBJECTID":342,"STATION_NA":"鈦鑫車業行","COUNTY_NA":"高雄市","ZIPCODE":"812","ADDRESS":"812高雄市小港區二苓里二苓路312號","TEL":"07-8070266","LICENSE_NO":"E95","OWNER":"廖武昌","LOCATION_T":"地址對位","LOCATION_X":181954,"LOCATION_Y":2496538},"geometry":{"points":[[120.34636274701076,22.565596069407846]]}},{"attributes":{"OBJECTID":343,"STATION_NA":"來興機車行","COUNTY_NA":"高雄市","ZIPCODE":"812","ADDRESS":"812高雄市小港區孔鳳路499號","TEL":"07-7910615","LICENSE_NO":"E96","OWNER":"李來欽","LOCATION_T":"地址對位","LOCATION_X":183219,"LOCATION_Y":2498394},"geometry":{"points":[[120.3585863189346,22.582407506501706]]}},{"attributes":{"OBJECTID":344,"STATION_NA":"三楓車業行","COUNTY_NA":"高雄市","ZIPCODE":"813","ADDRESS":"813高雄市左營區左營大路202號","TEL":"07-5829292","LICENSE_NO":"E97","OWNER":"唐慶復","LOCATION_T":"地址對位","LOCATION_X":176182,"LOCATION_Y":2509750},"geometry":{"points":[[120.2896257121497,22.684672117534188]]}},{"attributes":{"OBJECTID":345,"STATION_NA":"上鈴車業有限公司","COUNTY_NA":"高雄市","ZIPCODE":"813","ADDRESS":"813高雄市左營區左營大路838號","TEL":"07-5833879","LICENSE_NO":"E98","OWNER":"謝文發","LOCATION_T":"地址對位","LOCATION_X":177296,"LOCATION_Y":2510893},"geometry":{"points":[[120.30041489116456,22.69504189571439]]}},{"attributes":{"OBJECTID":346,"STATION_NA":"久聖車業有限公司","COUNTY_NA":"高雄市","ZIPCODE":"813","ADDRESS":"813高雄市左營區忠信路2號","TEL":"07-5815832","LICENSE_NO":"E99","OWNER":"楊全坤","LOCATION_T":"地址對位","LOCATION_X":175942,"LOCATION_Y":2508912},"geometry":{"points":[[120.28732894422656,22.677093943710737]]}},{"attributes":{"OBJECTID":347,"STATION_NA":"車中寶車業行","COUNTY_NA":"高雄市","ZIPCODE":"801","ADDRESS":"801高雄市前金區中華三路210號","TEL":"07-2821888","LICENSE_NO":"EA0","OWNER":"王智弘","LOCATION_T":"地址對位","LOCATION_X":176665,"LOCATION_Y":2504040},"geometry":{"points":[[120.29458860241972,22.633127111567813]]}},{"attributes":{"OBJECTID":348,"STATION_NA":"俊典企業有限公司","COUNTY_NA":"高雄市","ZIPCODE":"801","ADDRESS":"801高雄市前金區中華三路225號之4","TEL":"07-2213717","LICENSE_NO":"EA1","OWNER":"張清安","LOCATION_T":"地址對位","LOCATION_X":176605,"LOCATION_Y":2504100},"geometry":{"points":[[120.29400214102127,22.633666387248809]]}},{"attributes":{"OBJECTID":349,"STATION_NA":"聯宏機車行","COUNTY_NA":"高雄市","ZIPCODE":"801","ADDRESS":"801高雄市前金區成功一路315號","TEL":"07-2150876","LICENSE_NO":"EA2","OWNER":"謝榮祥","LOCATION_T":"地址對位","LOCATION_X":176602,"LOCATION_Y":2502941},"geometry":{"points":[[120.29402634407064,22.623199723034848]]}},{"attributes":{"OBJECTID":350,"STATION_NA":"大裕車業有限公司","COUNTY_NA":"高雄市","ZIPCODE":"801","ADDRESS":"801高雄市前金區新田路249號","TEL":"07-2413737","LICENSE_NO":"EA3","OWNER":"郭慧君","LOCATION_T":"地址對位","LOCATION_X":177119,"LOCATION_Y":2502661},"geometry":{"points":[[120.29906835788385,22.620693200575275]]}},{"attributes":{"OBJECTID":351,"STATION_NA":"錦良機車行","COUNTY_NA":"高雄市","ZIPCODE":"806","ADDRESS":"806高雄市前鎮區一心一路192號","TEL":"07-7215593","LICENSE_NO":"EA4","OWNER":"劉錦池","LOCATION_T":"地址對位","LOCATION_X":179292,"LOCATION_Y":2501156},"geometry":{"points":[[120.32027340823575,22.607193317478139]]}},{"attributes":{"OBJECTID":352,"STATION_NA":"銀馬機車有限公司","COUNTY_NA":"高雄市","ZIPCODE":"806","ADDRESS":"806高雄市前鎮區一心二路18號","TEL":"07-3314454","LICENSE_NO":"EA5","OWNER":"劉義煌","LOCATION_T":"地址對位","LOCATION_X":178481,"LOCATION_Y":2501545},"geometry":{"points":[[120.31236749458215,22.610672481514463]]}},{"attributes":{"OBJECTID":353,"STATION_NA":"君毅車業有限公司","COUNTY_NA":"高雄市","ZIPCODE":"806","ADDRESS":"806高雄市前鎮區中華五路995號","TEL":"07-3384219","LICENSE_NO":"EA6","OWNER":"陳漢郎","LOCATION_T":"地址對位","LOCATION_X":177811,"LOCATION_Y":2500665},"geometry":{"points":[[120.30589026382458,22.602697310807944]]}},{"attributes":{"OBJECTID":354,"STATION_NA":"富新機車有限公司","COUNTY_NA":"高雄市","ZIPCODE":"806","ADDRESS":"806高雄市前鎮區英明一路48號","TEL":"07-7715647","LICENSE_NO":"EA7","OWNER":"蔡錦上","LOCATION_T":"地址對位","LOCATION_X":179734,"LOCATION_Y":2501452},"geometry":{"points":[[120.32455963950851,22.60988467004476]]}},{"attributes":{"OBJECTID":355,"STATION_NA":"凱合機車行","COUNTY_NA":"高雄市","ZIPCODE":"806","ADDRESS":"806高雄市前鎮區瑞隆路152號","TEL":"07-7114769","LICENSE_NO":"EA8","OWNER":"林瑞訓","LOCATION_T":"地址對位","LOCATION_X":180921,"LOCATION_Y":2501012},"geometry":{"points":[[120.3361248177212,22.605959621720309]]}},{"attributes":{"OBJECTID":356,"STATION_NA":"光惠車業行","COUNTY_NA":"高雄市","ZIPCODE":"802","ADDRESS":"802高雄市苓雅區三多二路210號","TEL":"07-7618461","LICENSE_NO":"EA9","OWNER":"方啟洲","LOCATION_T":"地址對位","LOCATION_X":179224,"LOCATION_Y":2502460},"geometry":{"points":[[120.31955402645067,22.618966513531991]]}},{"attributes":{"OBJECTID":357,"STATION_NA":"聯大機車有限公司","COUNTY_NA":"高雄市","ZIPCODE":"802","ADDRESS":"802高雄市苓雅區三多三路12號","TEL":"07-3342629","LICENSE_NO":"EB0","OWNER":"黃翰烈","LOCATION_T":"地址對位","LOCATION_X":178616,"LOCATION_Y":2502266},"geometry":{"points":[[120.31364833085348,22.617189242555455]]}},{"attributes":{"OBJECTID":358,"STATION_NA":"瑞益車業行","COUNTY_NA":"高雄市","ZIPCODE":"806","ADDRESS":"802高雄市苓雅區三多三路13號","TEL":"07-3335227","LICENSE_NO":"EB1","OWNER":"石明鳳","LOCATION_T":"地址對位","LOCATION_X":178641,"LOCATION_Y":2502237},"geometry":{"points":[[120.31389281303478,22.61692840104347]]}},{"attributes":{"OBJECTID":359,"STATION_NA":"泰瑋機車行","COUNTY_NA":"高雄市","ZIPCODE":"802","ADDRESS":"802高雄市苓雅區大順三路5號","TEL":"07-2246246","LICENSE_NO":"EB2","OWNER":"翁敬祥","LOCATION_T":"地址對位","LOCATION_X":179603,"LOCATION_Y":2503696},"geometry":{"points":[[120.32318610829412,22.630144077350309]]}},{"attributes":{"OBJECTID":360,"STATION_NA":"晏欣車業有限公司","COUNTY_NA":"高雄市","ZIPCODE":"802","ADDRESS":"802高雄市苓雅區中正一路177號1樓","TEL":"07-7214333","LICENSE_NO":"EB3","OWNER":"鄭良慶","LOCATION_T":"地址對位","LOCATION_X":180317,"LOCATION_Y":2503518},"geometry":{"points":[[120.33014004525941,22.628565982128297]]}},{"attributes":{"OBJECTID":361,"STATION_NA":"旭鴻車業有限公司","COUNTY_NA":"高雄市","ZIPCODE":"802","ADDRESS":"802高雄市苓雅區四維二路28號","TEL":"07-7613567","LICENSE_NO":"EB4","OWNER":"方政男","LOCATION_T":"地址對位","LOCATION_X":179589,"LOCATION_Y":2502998},"geometry":{"points":[[120.32308083117523,22.623840121668568]]}},{"attributes":{"OBJECTID":362,"STATION_NA":"順友車業有限公司","COUNTY_NA":"高雄市","ZIPCODE":"802","ADDRESS":"802高雄市苓雅區正言路19號","TEL":"07-7139131","LICENSE_NO":"EB5","OWNER":"方謝月麗","LOCATION_T":"地址對位","LOCATION_X":180262,"LOCATION_Y":2503693},"geometry":{"points":[[120.32959729864149,22.630144086810638]]}},{"attributes":{"OBJECTID":363,"STATION_NA":"勝億興業有限公司","COUNTY_NA":"高雄市","ZIPCODE":"802","ADDRESS":"802高雄市苓雅區昇平街169號","TEL":"07-3318828","LICENSE_NO":"EB6","OWNER":"陳皓峰","LOCATION_T":"地址對位","LOCATION_X":176642,"LOCATION_Y":2502196},"geometry":{"points":[[120.29444974962399,22.616473602983742]]}},{"attributes":{"OBJECTID":364,"STATION_NA":"龍興機車行","COUNTY_NA":"高雄市","ZIPCODE":"802","ADDRESS":"802高雄市苓雅區林森二路49號","TEL":"07-3347227","LICENSE_NO":"EB7","OWNER":"黃振龍","LOCATION_T":"地址對位","LOCATION_X":177962,"LOCATION_Y":2502353},"geometry":{"points":[[120.30728263961119,22.617947450052647]]}},{"attributes":{"OBJECTID":365,"STATION_NA":"祥泰機車行","COUNTY_NA":"高雄市","ZIPCODE":"802","ADDRESS":"802高雄市苓雅區武昌路74號1樓","TEL":"07-7715400","LICENSE_NO":"EB8","OWNER":"蘇黃富美","LOCATION_T":"地址對位","LOCATION_X":180733,"LOCATION_Y":2502414},"geometry":{"points":[[120.33423517597548,22.618613104284716]]}},{"attributes":{"OBJECTID":366,"STATION_NA":"銘昌機車有限公司","COUNTY_NA":"高雄市","ZIPCODE":"802","ADDRESS":"802高雄市苓雅區武慶三路46號","TEL":"07-7217776","LICENSE_NO":"EB9","OWNER":"劉懿德","LOCATION_T":"地址對位","LOCATION_X":180510,"LOCATION_Y":2502498},"geometry":{"points":[[120.33206222362107,22.61936260305562]]}},{"attributes":{"OBJECTID":367,"STATION_NA":"漢昌機車行","COUNTY_NA":"高雄市","ZIPCODE":"802","ADDRESS":"802高雄市苓雅區武慶三路128號","TEL":"07-7519062","LICENSE_NO":"EC0","OWNER":"郭漢忠","LOCATION_T":"地址對位","LOCATION_X":180484,"LOCATION_Y":2502695},"geometry":{"points":[[120.33180068732999,22.621140582690249]]}},{"attributes":{"OBJECTID":368,"STATION_NA":"展飛機車行","COUNTY_NA":"高雄市","ZIPCODE":"802","ADDRESS":"802高雄市苓雅區青年二路79號","TEL":"07-3326968","LICENSE_NO":"EC1","OWNER":"陳信男","LOCATION_T":"地址對位","LOCATION_X":177130,"LOCATION_Y":2502461},"geometry":{"points":[[120.29918451409128,22.618887543188954]]}},{"attributes":{"OBJECTID":369,"STATION_NA":"資弘機車行","COUNTY_NA":"高雄市","ZIPCODE":"802","ADDRESS":"802高雄市苓雅區建國一路12號","TEL":"07-7498156","LICENSE_NO":"EC2","OWNER":"林瑰儒","LOCATION_T":"地址對位","LOCATION_X":181223,"LOCATION_Y":2503654},"geometry":{"points":[[120.33894809436698,22.629831003962856]]}},{"attributes":{"OBJECTID":370,"STATION_NA":"宏基機車行","COUNTY_NA":"高雄市","ZIPCODE":"802","ADDRESS":"802高雄市苓雅區建國一路137號","TEL":"07-7229392","LICENSE_NO":"EC3","OWNER":"張文偉","LOCATION_T":"地址對位","LOCATION_X":180425,"LOCATION_Y":2503899},"geometry":{"points":[[120.33117402168726,22.632011067672533]]}},{"attributes":{"OBJECTID":371,"STATION_NA":"旭雄車行","COUNTY_NA":"高雄市","ZIPCODE":"802","ADDRESS":"802高雄市苓雅區福安路476號","TEL":"07-7256011","LICENSE_NO":"EC4","OWNER":"鄭長裕","LOCATION_T":"地址對位","LOCATION_X":179721,"LOCATION_Y":2503544},"geometry":{"points":[[120.32434078522785,22.628776289981712]]}},{"attributes":{"OBJECTID":372,"STATION_NA":"興水機車行","COUNTY_NA":"高雄市","ZIPCODE":"802","ADDRESS":"802高雄市苓雅區憲政路7號","TEL":"07-7172771","LICENSE_NO":"EC5","OWNER":"張文正","LOCATION_T":"地址對位","LOCATION_X":180106,"LOCATION_Y":2504168},"geometry":{"points":[[120.32805874731682,22.634427226793303]]}},{"attributes":{"OBJECTID":373,"STATION_NA":"大勇機車行","COUNTY_NA":"高雄市","ZIPCODE":"800","ADDRESS":"800高雄市新興區七賢一路6號","TEL":"07-2236671","LICENSE_NO":"EC6","OWNER":"周秋松","LOCATION_T":"地址對位","LOCATION_X":178909,"LOCATION_Y":2504096},"geometry":{"points":[[120.31641669639694,22.633727528495132]]}},{"attributes":{"OBJECTID":374,"STATION_NA":"維慶企業有限公司","COUNTY_NA":"高雄市","ZIPCODE":"800","ADDRESS":"800高雄市新興區七賢二路105號","TEL":"07-2863339","LICENSE_NO":"EC7","OWNER":"蘇三泰","LOCATION_T":"地址對位","LOCATION_X":177034,"LOCATION_Y":2504113},"geometry":{"points":[[120.29817500663685,22.633802088480618]]}},{"attributes":{"OBJECTID":375,"STATION_NA":"誠峰輪業有限公司","COUNTY_NA":"高雄市","ZIPCODE":"800","ADDRESS":"800高雄市新興區和平一路263號","TEL":"07-2228188","LICENSE_NO":"EC8","OWNER":"詹寶珠","LOCATION_T":"地址對位","LOCATION_X":178974,"LOCATION_Y":2503921},"geometry":{"points":[[120.31705687657197,22.632149878324061]]}},{"attributes":{"OBJECTID":376,"STATION_NA":"億昌機車行","COUNTY_NA":"高雄市","ZIPCODE":"800","ADDRESS":"800高雄市新興區和平一路269號","TEL":"07-2239522","LICENSE_NO":"EC9","OWNER":"蔡榮宗","LOCATION_T":"地址對位","LOCATION_X":178969,"LOCATION_Y":2503936},"geometry":{"points":[[120.3170075590254,22.632285130603048]]}},{"attributes":{"OBJECTID":377,"STATION_NA":"上正機車行","COUNTY_NA":"高雄市","ZIPCODE":"800","ADDRESS":"800高雄市新興區忠孝一路5號","TEL":"07-2419173","LICENSE_NO":"ED0","OWNER":"王賢聖","LOCATION_T":"地址對位","LOCATION_X":177956,"LOCATION_Y":2502804},"geometry":{"points":[[120.30720387220812,22.622020013100304]]}},{"attributes":{"OBJECTID":378,"STATION_NA":"銅城實業有限公司","COUNTY_NA":"高雄市","ZIPCODE":"800","ADDRESS":"800高雄市新興區林森一路11號","TEL":"07-2912315","LICENSE_NO":"ED1","OWNER":"林銅城","LOCATION_T":"地址對位","LOCATION_X":177762,"LOCATION_Y":2502929},"geometry":{"points":[[120.30531102965432,22.623140672476083]]}},{"attributes":{"OBJECTID":379,"STATION_NA":"東義車業行","COUNTY_NA":"高雄市","ZIPCODE":"811","ADDRESS":"811高雄市楠梓區右昌街761號","TEL":"07-3616880","LICENSE_NO":"ED2","OWNER":"李仁欣","LOCATION_T":"地址對位","LOCATION_X":175559,"LOCATION_Y":2513548},"geometry":{"points":[[120.2833857696066,22.718944802303309]]}},{"attributes":{"OBJECTID":380,"STATION_NA":"後昌有限公司","COUNTY_NA":"高雄市","ZIPCODE":"811","ADDRESS":"811高雄市楠梓區後昌路992號","TEL":"07-3627812","LICENSE_NO":"ED3","OWNER":"林義陣","LOCATION_T":"地址對位","LOCATION_X":176572,"LOCATION_Y":2513178},"geometry":{"points":[[120.2932634885464,22.715646893899489]]}},{"attributes":{"OBJECTID":381,"STATION_NA":"允源車業有限公司","COUNTY_NA":"高雄市","ZIPCODE":"811","ADDRESS":"811高雄市楠梓區後昌路1097號","TEL":"07-3627231","LICENSE_NO":"ED4","OWNER":"陳文賢","LOCATION_T":"地址對位","LOCATION_X":176457,"LOCATION_Y":2513371},"geometry":{"points":[[120.29213518477273,22.71738496117673]]}},{"attributes":{"OBJECTID":382,"STATION_NA":"新展機車行","COUNTY_NA":"高雄市","ZIPCODE":"811","ADDRESS":"811高雄市楠梓區樂群路89號1F","TEL":"07-3642937","LICENSE_NO":"ED5","OWNER":"陳欽全","LOCATION_T":"地址對位","LOCATION_X":177012,"LOCATION_Y":2513324},"geometry":{"points":[[120.29753974241201,22.716984157202823]]}},{"attributes":{"OBJECTID":383,"STATION_NA":"瑾慶實業有限公司","COUNTY_NA":"高雄市","ZIPCODE":"804","ADDRESS":"804高雄市鼓山區九如四路902號","TEL":"07-5311218","LICENSE_NO":"ED6","OWNER":"胡劉月麗","LOCATION_T":"地址對位","LOCATION_X":175104,"LOCATION_Y":2506370},"geometry":{"points":[[120.27929343206756,22.654101364535745]]}},{"attributes":{"OBJECTID":384,"STATION_NA":"昌興車業有限公司","COUNTY_NA":"高雄市","ZIPCODE":"804","ADDRESS":"804高雄市鼓山區九如四路2015號","TEL":"07-5834681","LICENSE_NO":"ED7","OWNER":"黃文昌","LOCATION_T":"地址對位","LOCATION_X":175788,"LOCATION_Y":2507964},"geometry":{"points":[[120.28587438661664,22.668526090249909]]}},{"attributes":{"OBJECTID":385,"STATION_NA":"益明車業有限公司","COUNTY_NA":"高雄市","ZIPCODE":"807","ADDRESS":"807高雄市三民區博愛一路347號","TEL":"07-3224223","LICENSE_NO":"ED8","OWNER":"洪明庭","LOCATION_T":"地址對位","LOCATION_X":177564,"LOCATION_Y":2505937},"geometry":{"points":[[120.30324807541972,22.65029649251359]]}},{"attributes":{"OBJECTID":386,"STATION_NA":"光發機車行","COUNTY_NA":"高雄市","ZIPCODE":"804","ADDRESS":"804高雄市鼓山區明誠三路742號","TEL":"07-5530016","LICENSE_NO":"ED9","OWNER":"黃蒼海","LOCATION_T":"地址對位","LOCATION_X":176539,"LOCATION_Y":2507164},"geometry":{"points":[[120.29321887967242,22.661333660282651]]}},{"attributes":{"OBJECTID":387,"STATION_NA":"駿發車業行","COUNTY_NA":"高雄市","ZIPCODE":"804","ADDRESS":"804高雄市鼓山區鼓山三路42-10號","TEL":"07-5219440","LICENSE_NO":"EE0","OWNER":"謝水旺","LOCATION_T":"地址對位","LOCATION_X":174757,"LOCATION_Y":2506320},"geometry":{"points":[[120.27591961241417,22.653634678401307]]}},{"attributes":{"OBJECTID":388,"STATION_NA":"在發機車行","COUNTY_NA":"高雄市","ZIPCODE":"805","ADDRESS":"805高雄市旗津區旗津二路379號","TEL":"07-5717549","LICENSE_NO":"EE1","OWNER":"黃在","LOCATION_T":"地址對位","LOCATION_X":176554,"LOCATION_Y":2498013},"geometry":{"points":[[120.29378626312035,22.578694303633064]]}},{"attributes":{"OBJECTID":389,"STATION_NA":"金宏車業行","COUNTY_NA":"高雄市","ZIPCODE":"803","ADDRESS":"803高雄市鹽埕區富野路75號","TEL":"07-5318626","LICENSE_NO":"EE2","OWNER":"黃錦鳳","LOCATION_T":"地址對位","LOCATION_X":175566,"LOCATION_Y":2503482},"geometry":{"points":[[120.28392327909185,22.628040685135012]]}},{"attributes":{"OBJECTID":390,"STATION_NA":"銘汰車業行","COUNTY_NA":"台北縣","ZIPCODE":"220","ADDRESS":"220台北縣板橋市光武街26號","TEL":"02-22521132","LICENSE_NO":"F16","OWNER":"林明德","LOCATION_T":"地址對位","LOCATION_X":296369,"LOCATION_Y":2768915},"geometry":{"points":[[121.4676945580615,25.025747832646736]]}},{"attributes":{"OBJECTID":391,"STATION_NA":"連勝車業股份有限公司","COUNTY_NA":"台北縣","ZIPCODE":"220","ADDRESS":"220台北縣板橋市雙十路二段67號","TEL":"02-22537420","LICENSE_NO":"F17","OWNER":"蔡木和","LOCATION_T":"地址對位","LOCATION_X":297232,"LOCATION_Y":2769017},"geometry":{"points":[[121.47624938568572,25.026641713367511]]}},{"attributes":{"OBJECTID":392,"STATION_NA":"通天車業有限公司","COUNTY_NA":"台北縣","ZIPCODE":"220","ADDRESS":"220台北縣板橋市實踐路171號","TEL":"02-29546051","LICENSE_NO":"F18","OWNER":"陳寬錢","LOCATION_T":"地址對位","LOCATION_X":296051,"LOCATION_Y":2766479},"geometry":{"points":[[121.46446041765871,25.003765858421495]]}},{"attributes":{"OBJECTID":393,"STATION_NA":"錕達車業有公司","COUNTY_NA":"台北縣","ZIPCODE":"220","ADDRESS":"220台北縣板橋市重慶路349號","TEL":"02-29547370","LICENSE_NO":"F19","OWNER":"邱陳麗花","LOCATION_T":"地址對位","LOCATION_X":296030,"LOCATION_Y":2765839},"geometry":{"points":[[121.46423064700521,24.997988806872954]]}},{"attributes":{"OBJECTID":394,"STATION_NA":"奉吉輪業有限公司","COUNTY_NA":"台北縣","ZIPCODE":"220","ADDRESS":"220台北縣板橋市文化路二段119號","TEL":"02-22536196","LICENSE_NO":"F20","OWNER":"胡倉仁","LOCATION_T":"地址對位","LOCATION_X":296559,"LOCATION_Y":2769008},"geometry":{"points":[[121.46958043635237,25.026581538090969]]}},{"attributes":{"OBJECTID":395,"STATION_NA":"協泰車業有限公司","COUNTY_NA":"台北縣","ZIPCODE":"220","ADDRESS":"220台北縣板橋市民族路93號","TEL":"02-29616060","LICENSE_NO":"F21","OWNER":"陳銘賢","LOCATION_T":"地址對位","LOCATION_X":296262,"LOCATION_Y":2767011},"geometry":{"points":[[121.46656897013769,25.008562087735928]]}},{"attributes":{"OBJECTID":396,"STATION_NA":"驥剛實業有限公司","COUNTY_NA":"台北縣","ZIPCODE":"220","ADDRESS":"220台北縣板橋市英士路17號","TEL":"02-22583816","LICENSE_NO":"F22","OWNER":"李吳春葩","LOCATION_T":"地址對位","LOCATION_X":295676,"LOCATION_Y":2768772},"geometry":{"points":[[121.4608229527925,25.024478107546262]]}},{"attributes":{"OBJECTID":397,"STATION_NA":"世揚車業有限公司","COUNTY_NA":"台北縣","ZIPCODE":"235","ADDRESS":"235台北縣中和市景平路337號","TEL":"02-29424490","LICENSE_NO":"F23","OWNER":"顏風榮","LOCATION_T":"地址對位","LOCATION_X":300198,"LOCATION_Y":2765326},"geometry":{"points":[[121.50550308536846,24.993223453727492]]}},{"attributes":{"OBJECTID":398,"STATION_NA":"弘揚車業有限公司","COUNTY_NA":"台北縣","ZIPCODE":"235","ADDRESS":"235台北縣中和市興南路二段107號","TEL":"02-29477777","LICENSE_NO":"F24","OWNER":"吳銘頂","LOCATION_T":"地址對位","LOCATION_X":300236,"LOCATION_Y":2764347},"geometry":{"points":[[121.5058437301378,24.984384367360384]]}},{"attributes":{"OBJECTID":399,"STATION_NA":"緯鴻車業有限公司","COUNTY_NA":"台北縣","ZIPCODE":"238","ADDRESS":"238台北縣樹林鎮保安二街102號","TEL":"02-26831786","LICENSE_NO":"F26","OWNER":"呂瑞進","LOCATION_T":"地址對位","LOCATION_X":291821,"LOCATION_Y":2765568},"geometry":{"points":[[121.42252498365382,24.9956657439037]]}},{"attributes":{"OBJECTID":400,"STATION_NA":"東元車業有限公司","COUNTY_NA":"台北縣","ZIPCODE":"235","ADDRESS":"235台北縣中和市中山路三段28號","TEL":"02-22239852","LICENSE_NO":"F27","OWNER":"周貴忠","LOCATION_T":"地址對位","LOCATION_X":297535,"LOCATION_Y":2766753},"geometry":{"points":[[121.47917206003021,25.006193105953006]]}}]}