{"displayFieldName":"STATION_NA","fieldAliases":{"OBJECTID":"OBJECTID","STATION_NA":"STATION_NA","COUNTY_NA":"COUNTY_NA","ZIPCODE":"ZIPCODE","ADDRESS":"ADDRESS","TEL":"TEL","LICENSE_NO":"LICENSE_NO","OWNER":"OWNER","LOCATION_T":"LOCATION_T","LOCATION_X":"LOCATION_X","LOCATION_Y":"LOCATION_Y"},"geometryType":"esriGeometryMultipoint","spatialReference":{"wkid":104137},"fields":[{"name":"OBJECTID","type":"esriFieldTypeOID","alias":"OBJECTID"},{"name":"STATION_NA","type":"esriFieldTypeString","alias":"STATION_NA","length":30},{"name":"COUNTY_NA","type":"esriFieldTypeString","alias":"COUNTY_NA","length":6},{"name":"ZIPCODE","type":"esriFieldTypeString","alias":"ZIPCODE","length":4},{"name":"ADDRESS","type":"esriFieldTypeString","alias":"ADDRESS","length":40},{"name":"TEL","type":"esriFieldTypeString","alias":"TEL","length":11},{"name":"LICENSE_NO","type":"esriFieldTypeString","alias":"LICENSE_NO","length":3},{"name":"OWNER","type":"esriFieldTypeString","alias":"OWNER","length":10},{"name":"LOCATION_T","type":"esriFieldTypeString","alias":"LOCATION_T","length":10},{"name":"LOCATION_X","type":"esriFieldTypeDouble","alias":"LOCATION_X"},{"name":"LOCATION_Y","type":"esriFieldTypeDouble","alias":"LOCATION_Y"}],"features":[{"attributes":{"OBJECTID":801,"STATION_NA":"鍵興機車行","COUNTY_NA":"桃園縣","ZIPCODE":"320","ADDRESS":"320桃園縣中壢市忠孝路114號","TEL":"03-4556879","LICENSE_NO":"HA2","OWNER":"呂芳銓","LOCATION_T":"地址對位","LOCATION_X":274993,"LOCATION_Y":2763272},"geometry":{"points":[[121.25577681452579,24.975320638564135]]}},{"attributes":{"OBJECTID":802,"STATION_NA":"聯合機車行","COUNTY_NA":"桃園縣","ZIPCODE":"320","ADDRESS":"320桃園縣中壢市莒光路97號","TEL":"03-4661297","LICENSE_NO":"HA3","OWNER":"陳福興","LOCATION_T":"地址對位","LOCATION_X":273040,"LOCATION_Y":2760629},"geometry":{"points":[[121.23638700867745,24.951490195517554]]}},{"attributes":{"OBJECTID":803,"STATION_NA":"盛達機車行","COUNTY_NA":"桃園縣","ZIPCODE":"320","ADDRESS":"320桃園縣中壢市華勛街268號","TEL":"03-4566372","LICENSE_NO":"HA4","OWNER":"黃慶生","LOCATION_T":"地址對位","LOCATION_X":275452,"LOCATION_Y":2760291},"geometry":{"points":[[121.26026650372295,24.948398127504518]]}},{"attributes":{"OBJECTID":804,"STATION_NA":"億昌機車行","COUNTY_NA":"桃園縣","ZIPCODE":"320","ADDRESS":"320桃園縣中壢市華勛街327號1F","TEL":"03-4661765","LICENSE_NO":"HA5","OWNER":"林美玉","LOCATION_T":"地址對位","LOCATION_X":275450,"LOCATION_Y":2760155},"geometry":{"points":[[121.26024411022222,24.947170250202308]]}},{"attributes":{"OBJECTID":805,"STATION_NA":"三帝車業有限公司","COUNTY_NA":"桃園縣","ZIPCODE":"320","ADDRESS":"320桃園縣中壢市新生路193號","TEL":"03-4220180","LICENSE_NO":"HA6","OWNER":"馮輝仁","LOCATION_T":"地址對位","LOCATION_X":271652,"LOCATION_Y":2761765},"geometry":{"points":[[121.22266021847561,24.96176858951009]]}},{"attributes":{"OBJECTID":806,"STATION_NA":"昇輝機車行","COUNTY_NA":"桃園縣","ZIPCODE":"320","ADDRESS":"320桃園縣中壢市新生路三吉公寓21號","TEL":"03-4532920","LICENSE_NO":"HA7","OWNER":"楊竣文","LOCATION_T":"地址對位","LOCATION_X":271613,"LOCATION_Y":2761350},"geometry":{"points":[[121.22226718668227,24.958022191824256]]}},{"attributes":{"OBJECTID":807,"STATION_NA":"星銘機車行","COUNTY_NA":"桃園縣","ZIPCODE":"320","ADDRESS":"320桃園縣中壢市新明路52號","TEL":"03-4926910","LICENSE_NO":"HA8","OWNER":"詹益銘","LOCATION_T":"地址對位","LOCATION_X":270880,"LOCATION_Y":2761384},"geometry":{"points":[[121.21500841040053,24.958340061419669]]}},{"attributes":{"OBJECTID":808,"STATION_NA":"志揚機車行","COUNTY_NA":"桃園縣","ZIPCODE":"320","ADDRESS":"320桃園縣中壢市榮民路155號","TEL":"03-4559031","LICENSE_NO":"HA9","OWNER":"吳明霞","LOCATION_T":"地址對位","LOCATION_X":275527,"LOCATION_Y":2762346},"geometry":{"points":[[121.26104836522488,24.966950812461956]]}},{"attributes":{"OBJECTID":809,"STATION_NA":"晟峰車業行","COUNTY_NA":"桃園縣","ZIPCODE":"320","ADDRESS":"320桃園縣中壢市福州二街479號1F","TEL":"03-4528239","LICENSE_NO":"HB0","OWNER":"余佳峰","LOCATION_T":"地址對位","LOCATION_X":272762,"LOCATION_Y":2762504},"geometry":{"points":[[121.23366609956921,24.968423660639754]]}},{"attributes":{"OBJECTID":810,"STATION_NA":"侑昇機車行","COUNTY_NA":"桃園縣","ZIPCODE":"320","ADDRESS":"320桃園縣中壢市興仁路2段703號","TEL":"03-4557318","LICENSE_NO":"HB1","OWNER":"石朝日","LOCATION_T":"地址對位","LOCATION_X":275912,"LOCATION_Y":2761160},"geometry":{"points":[[121.26483856212801,24.956235978334124]]}},{"attributes":{"OBJECTID":811,"STATION_NA":"亨威機車行","COUNTY_NA":"桃園縣","ZIPCODE":"320","ADDRESS":"320桃園縣中壢市龍崗路2段101號1F","TEL":"03-4581300","LICENSE_NO":"HB2","OWNER":"朱春園","LOCATION_T":"地址對位","LOCATION_X":272355,"LOCATION_Y":2760002},"geometry":{"points":[[121.22959283237262,24.945839869489092]]}},{"attributes":{"OBJECTID":812,"STATION_NA":"裕成機車行","COUNTY_NA":"桃園縣","ZIPCODE":"320","ADDRESS":"320桃園縣中壢市龍崗路3段126號","TEL":"03-4584215","LICENSE_NO":"HB3","OWNER":"邱榮裕","LOCATION_T":"地址對位","LOCATION_X":272685,"LOCATION_Y":2758981},"geometry":{"points":[[121.2328430765354,24.936616193473355]]}},{"attributes":{"OBJECTID":813,"STATION_NA":"天王星機車行","COUNTY_NA":"桃園縣","ZIPCODE":"324","ADDRESS":"324桃園縣平鎮市中豐路山頂段234號","TEL":"03-4690642","LICENSE_NO":"HB4","OWNER":"李助興","LOCATION_T":"地址對位","LOCATION_X":270457,"LOCATION_Y":2754766},"geometry":{"points":[[121.21071452146226,24.898592277523601]]}},{"attributes":{"OBJECTID":814,"STATION_NA":"銓驛車業行","COUNTY_NA":"桃園縣","ZIPCODE":"324","ADDRESS":"324桃園縣平鎮市中豐路南勢一段161號1樓","TEL":"03-4693840","LICENSE_NO":"HB5","OWNER":"沈士源","LOCATION_T":"地址對位","LOCATION_X":270493,"LOCATION_Y":2757185},"geometry":{"points":[[121.21110961666847,24.920432838649237]]}},{"attributes":{"OBJECTID":815,"STATION_NA":"聖昌車業行","COUNTY_NA":"桃園縣","ZIPCODE":"324","ADDRESS":"324桃園縣平鎮市中豐路南勢二段264號","TEL":"03-4392681","LICENSE_NO":"HB6","OWNER":"董永祥","LOCATION_T":"地址對位","LOCATION_X":270453,"LOCATION_Y":2756257},"geometry":{"points":[[121.21069878984346,24.912054506731401]]}},{"attributes":{"OBJECTID":816,"STATION_NA":"國珍機車行","COUNTY_NA":"桃園縣","ZIPCODE":"324","ADDRESS":"324桃園縣平鎮市中豐路莊敬段47號","TEL":"03-4692792","LICENSE_NO":"HB7","OWNER":"湯國珍","LOCATION_T":"地址對位","LOCATION_X":270578,"LOCATION_Y":2755570},"geometry":{"points":[[121.21192523200803,24.905849846371652]]}},{"attributes":{"OBJECTID":817,"STATION_NA":"聖協車業行","COUNTY_NA":"桃園縣","ZIPCODE":"324","ADDRESS":"324桃園縣平鎮市文化街196號","TEL":"03-4010530","LICENSE_NO":"HB8","OWNER":"劉秀美","LOCATION_T":"地址對位","LOCATION_X":269685,"LOCATION_Y":2760721},"geometry":{"points":[[121.2031636747605,24.952370709643446]]}},{"attributes":{"OBJECTID":818,"STATION_NA":"欣泰機車行","COUNTY_NA":"桃園縣","ZIPCODE":"324","ADDRESS":"324桃園縣平鎮市平東路510號","TEL":"03-4508193","LICENSE_NO":"HB9","OWNER":"羅玉春","LOCATION_T":"地址對位","LOCATION_X":273824,"LOCATION_Y":2756387},"geometry":{"points":[[121.24407395845964,24.913177004661819]]}},{"attributes":{"OBJECTID":819,"STATION_NA":"台品機車行","COUNTY_NA":"桃園縣","ZIPCODE":"324","ADDRESS":"324桃園縣平鎮市金陵路244號","TEL":"03-4571075","LICENSE_NO":"HC0","OWNER":"彭品","LOCATION_T":"地址對位","LOCATION_X":271575,"LOCATION_Y":2759881},"geometry":{"points":[[121.22186680041551,24.944759261713283]]}},{"attributes":{"OBJECTID":820,"STATION_NA":"錦宏機車行","COUNTY_NA":"桃園縣","ZIPCODE":"324","ADDRESS":"324桃園縣平鎮市金陵路2段370號","TEL":"03-4585066","LICENSE_NO":"HC1","OWNER":"許武勇","LOCATION_T":"地址對位","LOCATION_X":271890,"LOCATION_Y":2758768},"geometry":{"points":[[121.22496750342872,24.934705271045122]]}},{"attributes":{"OBJECTID":821,"STATION_NA":"華泰機車商行","COUNTY_NA":"桃園縣","ZIPCODE":"324","ADDRESS":"324桃園縣平鎮市南平路125號","TEL":"03-4394053","LICENSE_NO":"HC2","OWNER":"傅傳謙","LOCATION_T":"地址對位","LOCATION_X":270172,"LOCATION_Y":2757056},"geometry":{"points":[[121.20792948482421,24.919272598471178]]}},{"attributes":{"OBJECTID":822,"STATION_NA":"維興機車行","COUNTY_NA":"桃園縣","ZIPCODE":"324","ADDRESS":"324桃園縣平鎮市陸橋南路113號","TEL":"03-4642335","LICENSE_NO":"HC3","OWNER":"倪鐘","LOCATION_T":"地址對位","LOCATION_X":268172,"LOCATION_Y":2757539},"geometry":{"points":[[121.1881353748747,24.923659917872207]]}},{"attributes":{"OBJECTID":823,"STATION_NA":"協旺機車行","COUNTY_NA":"桃園縣","ZIPCODE":"324","ADDRESS":"324桃園縣平鎮市龍南路15號","TEL":"03-4501693","LICENSE_NO":"HC4","OWNER":"李衍炎","LOCATION_T":"地址對位","LOCATION_X":273935,"LOCATION_Y":2757711},"geometry":{"points":[[121.24519722860654,24.925129426127821]]}},{"attributes":{"OBJECTID":824,"STATION_NA":"勝光機車材料行","COUNTY_NA":"桃園縣","ZIPCODE":"324","ADDRESS":"324桃園縣平鎮市龍南路245號","TEL":"03-4506165","LICENSE_NO":"HC5","OWNER":"方麗珍","LOCATION_T":"地址對位","LOCATION_X":274356,"LOCATION_Y":2757490},"geometry":{"points":[[121.24936139297316,24.923127092617975]]}},{"attributes":{"OBJECTID":825,"STATION_NA":"弘順車業有限公司","COUNTY_NA":"桃園縣","ZIPCODE":"330","ADDRESS":"330桃園縣桃園市中山路770號","TEL":"03-3787293","LICENSE_NO":"HC6","OWNER":"李景登","LOCATION_T":"地址對位","LOCATION_X":278638,"LOCATION_Y":2765046},"geometry":{"points":[[121.29191716619854,24.991270152973524]]}},{"attributes":{"OBJECTID":826,"STATION_NA":"正漢機車行","COUNTY_NA":"桃園縣","ZIPCODE":"330","ADDRESS":"330桃園縣桃園市介壽路53號","TEL":"03-3629643","LICENSE_NO":"HC7","OWNER":"許永霖","LOCATION_T":"地址對位","LOCATION_X":280533,"LOCATION_Y":2764352},"geometry":{"points":[[121.31067314019668,24.984966184660763]]}},{"attributes":{"OBJECTID":827,"STATION_NA":"翔富車業有限公司","COUNTY_NA":"桃園縣","ZIPCODE":"330","ADDRESS":"330桃園縣桃園市民生路418號","TEL":"03-3325786","LICENSE_NO":"HC8","OWNER":"許李金秋","LOCATION_T":"地址對位","LOCATION_X":280619,"LOCATION_Y":2765850},"geometry":{"points":[[121.31155924824317,24.998488919355516]]}},{"attributes":{"OBJECTID":828,"STATION_NA":"建榮機車行","COUNTY_NA":"桃園縣","ZIPCODE":"330","ADDRESS":"330桃園縣桃園市永安路685號","TEL":"03-3264988","LICENSE_NO":"HC9","OWNER":"胡碧貞","LOCATION_T":"地址對位","LOCATION_X":278698,"LOCATION_Y":2766743},"geometry":{"points":[[121.29254767865814,25.006590317831161]]}},{"attributes":{"OBJECTID":829,"STATION_NA":"錫興車行","COUNTY_NA":"桃園縣","ZIPCODE":"330","ADDRESS":"330桃園縣桃園市自強路226號1F","TEL":"03-3349430","LICENSE_NO":"HD0","OWNER":"連錫周","LOCATION_T":"地址對位","LOCATION_X":281224,"LOCATION_Y":2766117},"geometry":{"points":[[121.31755898269185,25.000886670493212]]}},{"attributes":{"OBJECTID":830,"STATION_NA":"宏興機車行","COUNTY_NA":"桃園縣","ZIPCODE":"330","ADDRESS":"330桃園縣桃園市春日路820號","TEL":"03-3261973","LICENSE_NO":"HD1","OWNER":"曾長煌","LOCATION_T":"地址對位","LOCATION_X":280433,"LOCATION_Y":2767637},"geometry":{"points":[[121.30975714221211,25.014626824208374]]}},{"attributes":{"OBJECTID":831,"STATION_NA":"新順發車業有限公司","COUNTY_NA":"桃園縣","ZIPCODE":"330","ADDRESS":"330桃園縣桃園市桃鶯路153號1F","TEL":"03-3617481","LICENSE_NO":"HD2","OWNER":"徐王美英","LOCATION_T":"地址對位","LOCATION_X":281296,"LOCATION_Y":2764463},"geometry":{"points":[[121.31823349273419,24.985952224997998]]}},{"attributes":{"OBJECTID":832,"STATION_NA":"政輪機車行","COUNTY_NA":"桃園縣","ZIPCODE":"330","ADDRESS":"330桃園縣桃園市桃鶯路361-3號","TEL":"03-3619235","LICENSE_NO":"HD3","OWNER":"黃李阿碧","LOCATION_T":"地址對位","LOCATION_X":281462,"LOCATION_Y":2763872},"geometry":{"points":[[121.31986382575994,24.980612968707256]]}},{"attributes":{"OBJECTID":833,"STATION_NA":"大家輪業行","COUNTY_NA":"桃園縣","ZIPCODE":"330","ADDRESS":"330桃園縣桃園市廈門街17號","TEL":"03-3357453","LICENSE_NO":"HD4","OWNER":"洪張桂鑾","LOCATION_T":"地址對位","LOCATION_X":279418,"LOCATION_Y":2765412},"geometry":{"points":[[121.29965183750667,24.99455912208709]]}},{"attributes":{"OBJECTID":834,"STATION_NA":"億鑫機車行","COUNTY_NA":"桃園縣","ZIPCODE":"330","ADDRESS":"330桃園縣桃園市龍安里國豐七街189號","TEL":"03-3793249","LICENSE_NO":"HD5","OWNER":"陳木堅","LOCATION_T":"地址對位","LOCATION_X":277029,"LOCATION_Y":2765124},"geometry":{"points":[[121.27597993618873,24.992004974714707]]}},{"attributes":{"OBJECTID":835,"STATION_NA":"建信機車行","COUNTY_NA":"桃園縣","ZIPCODE":"327","ADDRESS":"327桃園縣新屋鄉東明村中山西路1段565號","TEL":"03-4772908","LICENSE_NO":"HD6","OWNER":"姜仁鑑","LOCATION_T":"地址對位","LOCATION_X":257557,"LOCATION_Y":2763353},"geometry":{"points":[[121.08307212303437,24.976246734174655]]}},{"attributes":{"OBJECTID":836,"STATION_NA":"福泰輪業有限公司","COUNTY_NA":"桃園縣","ZIPCODE":"327","ADDRESS":"327桃園縣新屋鄉新屋村中山路254號","TEL":"03-4772075","LICENSE_NO":"HD7","OWNER":"徐華仁","LOCATION_T":"地址對位","LOCATION_X":260043,"LOCATION_Y":2762982},"geometry":{"points":[[121.1076951749821,24.972881806383445]]}},{"attributes":{"OBJECTID":837,"STATION_NA":"中興機車行","COUNTY_NA":"桃園縣","ZIPCODE":"327","ADDRESS":"327桃園縣新屋鄉新屋村中興路59號","TEL":"03-4774956","LICENSE_NO":"HD8","OWNER":"沈鳳千","LOCATION_T":"地址對位","LOCATION_X":259550,"LOCATION_Y":2762820},"geometry":{"points":[[121.1028104893858,24.971422496962486]]}},{"attributes":{"OBJECTID":838,"STATION_NA":"宇晟車業行","COUNTY_NA":"桃園縣","ZIPCODE":"326","ADDRESS":"326桃園縣楊梅鎮民族路5段185號","TEL":"03-4905272","LICENSE_NO":"HD9","OWNER":"賀志仁","LOCATION_T":"地址對位","LOCATION_X":266886,"LOCATION_Y":2761440},"geometry":{"points":[[121.17545450391928,24.958897557202327]]}},{"attributes":{"OBJECTID":839,"STATION_NA":"裕豐輪業行","COUNTY_NA":"桃園縣","ZIPCODE":"326","ADDRESS":"326桃園縣楊梅鎮永美路155號","TEL":"03-4822558","LICENSE_NO":"HE0","OWNER":"張瑞勇","LOCATION_T":"地址對位","LOCATION_X":267884,"LOCATION_Y":2757160},"geometry":{"points":[[121.18527861203864,24.920241457553782]]}},{"attributes":{"OBJECTID":840,"STATION_NA":"長盛機車行","COUNTY_NA":"桃園縣","ZIPCODE":"326","ADDRESS":"326桃園縣楊梅鎮信義街40號","TEL":"03-4723265","LICENSE_NO":"HE1","OWNER":"劉廷清","LOCATION_T":"地址對位","LOCATION_X":257643,"LOCATION_Y":2758822},"geometry":{"points":[[121.08389580609276,24.935336631967697]]}},{"attributes":{"OBJECTID":841,"STATION_NA":"崇富機車行","COUNTY_NA":"桃園縣","ZIPCODE":"326","ADDRESS":"326桃園縣楊梅鎮信義街157號","TEL":"03-4727987","LICENSE_NO":"HE2","OWNER":"彭士育","LOCATION_T":"地址對位","LOCATION_X":257583,"LOCATION_Y":2758925},"geometry":{"points":[[121.08330230217115,24.936266910102873]]}},{"attributes":{"OBJECTID":842,"STATION_NA":"俊峰車業行","COUNTY_NA":"桃園縣","ZIPCODE":"326","ADDRESS":"326桃園縣楊梅鎮楊新路160號1F","TEL":"03-4783422","LICENSE_NO":"HE3","OWNER":"張俊堂","LOCATION_T":"地址對位","LOCATION_X":263672,"LOCATION_Y":2756424},"geometry":{"points":[[121.14356951909302,24.913641399672191]]}},{"attributes":{"OBJECTID":843,"STATION_NA":"偉寬機車行","COUNTY_NA":"桃園縣","ZIPCODE":"325","ADDRESS":"325桃園縣龍潭鄉中山村北龍路105號","TEL":"03-4799542","LICENSE_NO":"HE4","OWNER":"黃文寬","LOCATION_T":"地址對位","LOCATION_X":270729,"LOCATION_Y":2751150},"geometry":{"points":[[121.2133484224188,24.86593999031998]]}},{"attributes":{"OBJECTID":844,"STATION_NA":"富光機車行","COUNTY_NA":"桃園縣","ZIPCODE":"325","ADDRESS":"325桃園縣龍潭鄉中正村東龍路150號","TEL":"03-4791751","LICENSE_NO":"HE5","OWNER":"徐慶灶","LOCATION_T":"地址對位","LOCATION_X":270907,"LOCATION_Y":2750811},"geometry":{"points":[[121.21510440181726,24.862876681800341]]}},{"attributes":{"OBJECTID":845,"STATION_NA":"吉如機車行","COUNTY_NA":"桃園縣","ZIPCODE":"325","ADDRESS":"325桃園縣龍潭鄉中山村東龍路289號","TEL":"03-4795623","LICENSE_NO":"HE6","OWNER":"黃承隆","LOCATION_T":"地址對位","LOCATION_X":270722,"LOCATION_Y":2751179},"geometry":{"points":[[121.21327961877287,24.866201926046813]]}},{"attributes":{"OBJECTID":846,"STATION_NA":"福隆機車行","COUNTY_NA":"桃園縣","ZIPCODE":"325","ADDRESS":"325桃園縣龍潭鄉龍潭村中正路184號","TEL":"03-4798348","LICENSE_NO":"HE7","OWNER":"魏新星","LOCATION_T":"地址對位","LOCATION_X":272249,"LOCATION_Y":2749381},"geometry":{"points":[[121.22835988485176,24.849945655138878]]}},{"attributes":{"OBJECTID":847,"STATION_NA":"天吉機車行","COUNTY_NA":"桃園縣","ZIPCODE":"333","ADDRESS":"333桃園縣龜山鄉山德村萬壽路2段1307號","TEL":"03-3208613","LICENSE_NO":"HE8","OWNER":"李秀珠","LOCATION_T":"地址對位","LOCATION_X":282220,"LOCATION_Y":2765213},"geometry":{"points":[[121.32740428555893,24.992703293958048]]}},{"attributes":{"OBJECTID":848,"STATION_NA":"慶聯車業行","COUNTY_NA":"桃園縣","ZIPCODE":"333","ADDRESS":"333桃園縣龜山鄉山鶯路150號","TEL":"03-3196435","LICENSE_NO":"HE9","OWNER":"簡茂夫","LOCATION_T":"地址對位","LOCATION_X":281918,"LOCATION_Y":2764761},"geometry":{"points":[[121.32440179539208,24.988629186844253]]}},{"attributes":{"OBJECTID":849,"STATION_NA":"詮億車業有限公司","COUNTY_NA":"桃園縣","ZIPCODE":"333","ADDRESS":"333桃園縣龜山鄉樂善村文德路72號1F","TEL":"03-3277477","LICENSE_NO":"HF0","OWNER":"蔡佩玲","LOCATION_T":"地址對位","LOCATION_X":287583,"LOCATION_Y":2772358},"geometry":{"points":[[121.3807327542947,25.057082531393327]]}},{"attributes":{"OBJECTID":850,"STATION_NA":"德昇機車行","COUNTY_NA":"桃園縣","ZIPCODE":"333","ADDRESS":"333桃園縣龜山鄉龜山村萬壽路2段650號1F","TEL":"03-3293520","LICENSE_NO":"HF1","OWNER":"徐千斐","LOCATION_T":"地址對位","LOCATION_X":284100,"LOCATION_Y":2765964},"geometry":{"points":[[121.34604732264066,24.999440368374781]]}},{"attributes":{"OBJECTID":851,"STATION_NA":"協進機車行","COUNTY_NA":"桃園縣","ZIPCODE":"338","ADDRESS":"338桃園縣蘆竹鄉內厝村南山路2段456號","TEL":"03-3243530","LICENSE_NO":"HF2","OWNER":"張林玉梅","LOCATION_T":"地址對位","LOCATION_X":277975,"LOCATION_Y":2773976},"geometry":{"points":[[121.28553558948219,25.071906796185477]]}},{"attributes":{"OBJECTID":852,"STATION_NA":"南山機車行","COUNTY_NA":"桃園縣","ZIPCODE":"338","ADDRESS":"338桃園縣蘆竹鄉山腳村南山路3段256號","TEL":"03-3243488","LICENSE_NO":"HF3","OWNER":"李周月娥","LOCATION_T":"地址對位","LOCATION_X":278031,"LOCATION_Y":2775333},"geometry":{"points":[[121.28611891453201,25.084156966610113]]}},{"attributes":{"OBJECTID":853,"STATION_NA":"安吉車業行","COUNTY_NA":"桃園縣","ZIPCODE":"338","ADDRESS":"338桃園縣蘆竹鄉南榮村忠孝西路6號","TEL":"03-3212461","LICENSE_NO":"HF4","OWNER":"謝灥生","LOCATION_T":"地址對位","LOCATION_X":278740,"LOCATION_Y":2770967},"geometry":{"points":[[121.29305453955136,25.044725830624301]]}},{"attributes":{"OBJECTID":854,"STATION_NA":"瑞鑫機車行","COUNTY_NA":"桃園縣","ZIPCODE":"338","ADDRESS":"338桃園縣蘆竹鄉新興村大竹路15號","TEL":"03-3412427","LICENSE_NO":"HF5","OWNER":"呂學瑞","LOCATION_T":"地址對位","LOCATION_X":276831,"LOCATION_Y":2767372},"geometry":{"points":[[121.27406319551289,25.012304566411022]]}},{"attributes":{"OBJECTID":855,"STATION_NA":"國昌車業行","COUNTY_NA":"桃園縣","ZIPCODE":"328","ADDRESS":"328桃園縣觀音鄉大同村中山路2段947號","TEL":"03-4981686","LICENSE_NO":"HF6","OWNER":"陳有川","LOCATION_T":"地址對位","LOCATION_X":263493,"LOCATION_Y":2767041},"geometry":{"points":[[121.14191127843003,25.009500223034557]]}},{"attributes":{"OBJECTID":856,"STATION_NA":"新佳明輪業行","COUNTY_NA":"桃園縣","ZIPCODE":"328","ADDRESS":"328桃園縣觀音鄉崙坪村崙坪304號1F","TEL":"03-4984633","LICENSE_NO":"HF7","OWNER":"謝寶珠","LOCATION_T":"地址對位","LOCATION_X":265589,"LOCATION_Y":2765966},"geometry":{"points":[[121.16266457335571,24.999775343106965]]}},{"attributes":{"OBJECTID":857,"STATION_NA":"建鑫輪業行","COUNTY_NA":"桃園縣","ZIPCODE":"328","ADDRESS":"328桃園縣觀音鄉樹林村成功路2段835號1F","TEL":"03-4837330","LICENSE_NO":"HF8","OWNER":"許生來","LOCATION_T":"地址對位","LOCATION_X":260755,"LOCATION_Y":2771432},"geometry":{"points":[[121.11481869186467,25.049165196583612]]}},{"attributes":{"OBJECTID":858,"STATION_NA":"順程機車行","COUNTY_NA":"桃園縣","ZIPCODE":"333","ADDRESS":"333桃園縣龜山鄉山德村山鶯路17號1F","TEL":"03-3207268","LICENSE_NO":"HF9","OWNER":"陳永宏","LOCATION_T":"地址對位","LOCATION_X":281796,"LOCATION_Y":2765074},"geometry":{"points":[[121.32320079487397,24.991457685634085]]}},{"attributes":{"OBJECTID":859,"STATION_NA":"復興機車行","COUNTY_NA":"桃園縣","ZIPCODE":"336","ADDRESS":"336桃園縣復興鄉中正路275號之4","TEL":"03-3822014","LICENSE_NO":"HG0","OWNER":"邱瑞草","LOCATION_T":"中華電信","LOCATION_X":284992,"LOCATION_Y":2746575},"geometry":{"points":[[121.35437591197802,24.824365633368963]]}},{"attributes":{"OBJECTID":860,"STATION_NA":"宏嘉機車行","COUNTY_NA":"嘉義市","ZIPCODE":"600","ADDRESS":"600嘉義市東區興業東路229號","TEL":"05-2284523","LICENSE_NO":"I02","OWNER":"陳粘","LOCATION_T":"地址對位","LOCATION_X":193410,"LOCATION_Y":2596578},"geometry":{"points":[[120.45414440467033,23.46942315196025]]}},{"attributes":{"OBJECTID":861,"STATION_NA":"嘉盈車業股份有限公司","COUNTY_NA":"嘉義市","ZIPCODE":"600","ADDRESS":"600嘉義市西區金山路115號","TEL":"05-2361750","LICENSE_NO":"I03","OWNER":"方澤生","LOCATION_T":"地址對位","LOCATION_X":190270,"LOCATION_Y":2597166},"geometry":{"points":[[120.42338532208346,23.474621872771362]]}},{"attributes":{"OBJECTID":862,"STATION_NA":"嘉雲南機車商行","COUNTY_NA":"嘉義市","ZIPCODE":"600","ADDRESS":"600嘉義市東區民族路408號","TEL":"05-2289988","LICENSE_NO":"I04","OWNER":"翁美莉","LOCATION_T":"地址對位","LOCATION_X":193106,"LOCATION_Y":2597331},"geometry":{"points":[[120.45114062716634,23.476212231889789]]}},{"attributes":{"OBJECTID":863,"STATION_NA":"富達輪業有限公司","COUNTY_NA":"嘉義市","ZIPCODE":"600","ADDRESS":"600嘉義市西區中山路400號","TEL":"05-2230368","LICENSE_NO":"I05","OWNER":"黃正忠","LOCATION_T":"地址對位","LOCATION_X":192538,"LOCATION_Y":2597717},"geometry":{"points":[[120.44556591141072,23.479678223598441]]}},{"attributes":{"OBJECTID":864,"STATION_NA":"寶南車業有限公司","COUNTY_NA":"嘉義市","ZIPCODE":"600","ADDRESS":"600嘉義市東區宣信街173號","TEL":"05-2230448","LICENSE_NO":"I06","OWNER":"李碧蓮","LOCATION_T":"地址對位","LOCATION_X":194115,"LOCATION_Y":2596397},"geometry":{"points":[[120.46105201060502,23.467812778587678]]}},{"attributes":{"OBJECTID":865,"STATION_NA":"慶明機車行","COUNTY_NA":"嘉義市","ZIPCODE":"600","ADDRESS":"600嘉義市西區民族路574號","TEL":"05-2223624","LICENSE_NO":"I07","OWNER":"林裕坤","LOCATION_T":"地址對位","LOCATION_X":192694,"LOCATION_Y":2597294},"geometry":{"points":[[120.44710891616168,23.475863926112563]]}},{"attributes":{"OBJECTID":866,"STATION_NA":"滿金機車行","COUNTY_NA":"嘉義市","ZIPCODE":"600","ADDRESS":"600嘉義市西區民生南路570號","TEL":"05-2350282","LICENSE_NO":"I08","OWNER":"袁芳金","LOCATION_T":"地址對位","LOCATION_X":192302,"LOCATION_Y":2595361},"geometry":{"points":[[120.44334451305525,23.458395173896655]]}},{"attributes":{"OBJECTID":867,"STATION_NA":"南興車業行","COUNTY_NA":"嘉義市","ZIPCODE":"600","ADDRESS":"600嘉義市東區南興路182號","TEL":"05-2227826","LICENSE_NO":"I09","OWNER":"柯炎泓","LOCATION_T":"地址對位","LOCATION_X":193765,"LOCATION_Y":2596253},"geometry":{"points":[[120.45763132644331,23.466500546440237]]}},{"attributes":{"OBJECTID":868,"STATION_NA":"勝快機車有限公司","COUNTY_NA":"嘉義市","ZIPCODE":"600","ADDRESS":"600嘉義市東區吳鳳北路257號","TEL":"05-2242125","LICENSE_NO":"I10","OWNER":"陳余柳霞","LOCATION_T":"地址對位","LOCATION_X":193294,"LOCATION_Y":2597777},"geometry":{"points":[[120.4529644115037,23.480246226210163]]}},{"attributes":{"OBJECTID":869,"STATION_NA":"信芳車業有限公司","COUNTY_NA":"嘉義市","ZIPCODE":"600","ADDRESS":"600嘉義市東區忠孝路131號","TEL":"05-2275128","LICENSE_NO":"I11","OWNER":"方澤生","LOCATION_T":"地址對位","LOCATION_X":193420,"LOCATION_Y":2597774},"geometry":{"points":[[120.45419798678643,23.480223465615712]]}},{"attributes":{"OBJECTID":870,"STATION_NA":"峰基車業有限公司","COUNTY_NA":"嘉義市","ZIPCODE":"600","ADDRESS":"600嘉義市東區忠孝路284-7號","TEL":"05-2771932","LICENSE_NO":"I12","OWNER":"沈文弘","LOCATION_T":"地址對位","LOCATION_X":193393,"LOCATION_Y":2598402},"geometry":{"points":[[120.45391038376921,23.485893446984242]]}},{"attributes":{"OBJECTID":871,"STATION_NA":"正田機車行","COUNTY_NA":"嘉義市","ZIPCODE":"600","ADDRESS":"600嘉義市台林街90號","TEL":"05-2752875","LICENSE_NO":"I13","OWNER":"許正雄","LOCATION_T":"地址對位","LOCATION_X":193462,"LOCATION_Y":2599382},"geometry":{"points":[[120.45454957893824,23.494745333647277]]}},{"attributes":{"OBJECTID":872,"STATION_NA":"德盛機車行","COUNTY_NA":"嘉義市","ZIPCODE":"600","ADDRESS":"600嘉義市民生南路878號","TEL":"05-2851482","LICENSE_NO":"I14","OWNER":"方德成","LOCATION_T":"地址對位","LOCATION_X":191911,"LOCATION_Y":2594896},"geometry":{"points":[[120.43953509039275,23.454182486746813]]}},{"attributes":{"OBJECTID":873,"STATION_NA":"鴻德機車行","COUNTY_NA":"嘉義市","ZIPCODE":"600","ADDRESS":"600嘉義市民國路76號","TEL":"05-2781796","LICENSE_NO":"I15","OWNER":"黃俊霖","LOCATION_T":"地址對位","LOCATION_X":194092,"LOCATION_Y":2597396},"geometry":{"points":[[120.46079029484322,23.476833021748259]]}},{"attributes":{"OBJECTID":874,"STATION_NA":"上大機車企業有限公司","COUNTY_NA":"嘉義市","ZIPCODE":"600","ADDRESS":"600嘉義市民權路157號","TEL":"05-2787418","LICENSE_NO":"I16","OWNER":"蘇啟哲","LOCATION_T":"地址對位","LOCATION_X":194051,"LOCATION_Y":2598157},"geometry":{"points":[[120.46036104611493,23.48370353466656]]}},{"attributes":{"OBJECTID":875,"STATION_NA":"凱輪車業行","COUNTY_NA":"嘉義市","ZIPCODE":"600","ADDRESS":"600嘉義市自由路299號","TEL":"05-2340902","LICENSE_NO":"I17","OWNER":"嚴麗娥","LOCATION_T":"地址對位","LOCATION_X":191213,"LOCATION_Y":2599015},"geometry":{"points":[[120.43254507934108,23.491352524333585]]}},{"attributes":{"OBJECTID":876,"STATION_NA":"富安機車行","COUNTY_NA":"嘉義市","ZIPCODE":"600","ADDRESS":"600嘉義市吳鳳北路234號","TEL":"05-2223086","LICENSE_NO":"I18","OWNER":"王永進","LOCATION_T":"地址對位","LOCATION_X":193330,"LOCATION_Y":2597757},"geometry":{"points":[[120.45331757042516,23.480066863366481]]}},{"attributes":{"OBJECTID":877,"STATION_NA":"志誠機車行","COUNTY_NA":"嘉義市","ZIPCODE":"600","ADDRESS":"600嘉義市吳鳳南路621巷9號","TEL":"05-2391987","LICENSE_NO":"I19","OWNER":"侯志憲","LOCATION_T":"地址對位","LOCATION_X":193964,"LOCATION_Y":2595074},"geometry":{"points":[[120.45962242904437,23.455860963169492]]}},{"attributes":{"OBJECTID":878,"STATION_NA":"銘錫車業有限公司","COUNTY_NA":"嘉義市","ZIPCODE":"600","ADDRESS":"600嘉義市東平里民權路171號","TEL":"05-2782381","LICENSE_NO":"I20","OWNER":"許楊麵","LOCATION_T":"地址對位","LOCATION_X":194008,"LOCATION_Y":2598152},"geometry":{"points":[[120.45994027383732,23.483656926088923]]}},{"attributes":{"OBJECTID":879,"STATION_NA":"百合機車行","COUNTY_NA":"嘉義市","ZIPCODE":"600","ADDRESS":"600嘉義市林森東路273號","TEL":"05-2770352","LICENSE_NO":"I21","OWNER":"林國璽","LOCATION_T":"地址對位","LOCATION_X":194648,"LOCATION_Y":2598848},"geometry":{"points":[[120.46618041191252,23.489963500635199]]}},{"attributes":{"OBJECTID":880,"STATION_NA":"大象機車行","COUNTY_NA":"嘉義市","ZIPCODE":"600","ADDRESS":"600嘉義市芳安路29號","TEL":"05-2225516","LICENSE_NO":"I22","OWNER":"張麗玉","LOCATION_T":"地址對位","LOCATION_X":194497,"LOCATION_Y":2596493},"geometry":{"points":[[120.46478773896843,23.468692567042925]]}},{"attributes":{"OBJECTID":881,"STATION_NA":"建達機車行","COUNTY_NA":"嘉義市","ZIPCODE":"600","ADDRESS":"600嘉義市建成街96號","TEL":"05-2850839","LICENSE_NO":"I23","OWNER":"賴詩建","LOCATION_T":"地址對位","LOCATION_X":191910,"LOCATION_Y":2596721},"geometry":{"points":[[120.43945609366784,23.470662214210037]]}},{"attributes":{"OBJECTID":882,"STATION_NA":"巨豐車業有限公司","COUNTY_NA":"嘉義市","ZIPCODE":"600","ADDRESS":"600嘉義市博愛路一段438號","TEL":"05-2327650","LICENSE_NO":"I24","OWNER":"陳聰明","LOCATION_T":"地址對位","LOCATION_X":192305,"LOCATION_Y":2598449},"geometry":{"points":[[120.44325733892536,23.486280113565016]]}},{"attributes":{"OBJECTID":883,"STATION_NA":"文發車業行","COUNTY_NA":"嘉義市","ZIPCODE":"600","ADDRESS":"600嘉義市博愛路二段399號","TEL":"05-2359126","LICENSE_NO":"I25","OWNER":"張金柱","LOCATION_T":"地址對位","LOCATION_X":191338,"LOCATION_Y":2597154},"geometry":{"points":[[120.43384036965817,23.474551944186427]]}},{"attributes":{"OBJECTID":884,"STATION_NA":"榮盛輪業股份有限公司","COUNTY_NA":"新竹縣","ZIPCODE":"302","ADDRESS":"302新竹縣竹北市三民路190號","TEL":"03-5552238","LICENSE_NO":"J01","OWNER":"黃清金","LOCATION_T":"地址對位","LOCATION_X":250558,"LOCATION_Y":2747518},"geometry":{"points":[[121.01372650748635,24.833299374885037]]}},{"attributes":{"OBJECTID":885,"STATION_NA":"雲集輪業有限公司","COUNTY_NA":"新竹縣","ZIPCODE":"302","ADDRESS":"302新竹縣竹北市中山路493號","TEL":"03-5532868","LICENSE_NO":"J02","OWNER":"范秉增","LOCATION_T":"地址對位","LOCATION_X":250554,"LOCATION_Y":2748091},"geometry":{"points":[[121.01368740310943,24.838472853023024]]}},{"attributes":{"OBJECTID":886,"STATION_NA":"盛茂實業股份有限公司","COUNTY_NA":"新竹縣","ZIPCODE":"310","ADDRESS":"310新竹縣竹東鎮長春路二段109號","TEL":"03-5969911","LICENSE_NO":"J03","OWNER":"黃木麟","LOCATION_T":"地址對位","LOCATION_X":257941,"LOCATION_Y":2737102},"geometry":{"points":[[121.0867058043245,24.739230828515911]]}},{"attributes":{"OBJECTID":887,"STATION_NA":"智翔車業有限公司","COUNTY_NA":"新竹縣","ZIPCODE":"310","ADDRESS":"310新竹縣竹東鎮東寧路三段147號","TEL":"03-5962943","LICENSE_NO":"J04","OWNER":"彭鵬江","LOCATION_T":"地址對位","LOCATION_X":257808,"LOCATION_Y":2737173},"geometry":{"points":[[121.08539139467889,24.739872717547215]]}},{"attributes":{"OBJECTID":888,"STATION_NA":"民祥車業有限公司","COUNTY_NA":"新竹縣","ZIPCODE":"304","ADDRESS":"304新竹縣新豐鄉建興路一段101號","TEL":"03-5593553","LICENSE_NO":"J05","OWNER":"黃津章","LOCATION_T":"地址對位","LOCATION_X":248634,"LOCATION_Y":2751891},"geometry":{"points":[[120.9946890771576,24.872782371613567]]}},{"attributes":{"OBJECTID":889,"STATION_NA":"祥合車業行","COUNTY_NA":"新竹縣","ZIPCODE":"304","ADDRESS":"304新竹縣新豐鄉新興路169號","TEL":"03-5593452","LICENSE_NO":"J06","OWNER":"徐國全","LOCATION_T":"地址對位","LOCATION_X":249282,"LOCATION_Y":2752183},"geometry":{"points":[[121.00110219818244,24.875418763579006]]}},{"attributes":{"OBJECTID":890,"STATION_NA":"高平輪機車行","COUNTY_NA":"新竹縣","ZIPCODE":"303","ADDRESS":"303新竹縣湖口鄉信全街11號","TEL":"03-5992753","LICENSE_NO":"J07","OWNER":"范秉琳","LOCATION_T":"地址對位","LOCATION_X":253433,"LOCATION_Y":2754852},"geometry":{"points":[[121.04219420820509,24.89950985562766]]}},{"attributes":{"OBJECTID":891,"STATION_NA":"金三輪業行","COUNTY_NA":"新竹縣","ZIPCODE":"303","ADDRESS":"303新竹縣湖口鄉中山路二段263號","TEL":"03-5992365","LICENSE_NO":"J08","OWNER":"溫金土","LOCATION_T":"地址對位","LOCATION_X":253837,"LOCATION_Y":2755614},"geometry":{"points":[[121.04619625157657,24.906388395015785]]}},{"attributes":{"OBJECTID":892,"STATION_NA":"新慶輪業有限公司","COUNTY_NA":"新竹縣","ZIPCODE":"305","ADDRESS":"305新竹縣新埔鎮田新里文德路三段168號","TEL":"03-5882228","LICENSE_NO":"J09","OWNER":"胡椿槐","LOCATION_T":"中華電信","LOCATION_X":257044,"LOCATION_Y":2746542},"geometry":{"points":[[121.07789298524855,24.824467088104971]]}},{"attributes":{"OBJECTID":893,"STATION_NA":"豐龍車業有限公司","COUNTY_NA":"新竹縣","ZIPCODE":"312","ADDRESS":"306新竹縣關西鎮中豐路一段367號","TEL":"03-5872009","LICENSE_NO":"J10","OWNER":"彭光龍","LOCATION_T":"地址對位","LOCATION_X":261308,"LOCATION_Y":2734988},"geometry":{"points":[[121.11997419065473,24.720118634372696]]}},{"attributes":{"OBJECTID":894,"STATION_NA":"茂泰輪業有限公司","COUNTY_NA":"新竹縣","ZIPCODE":"302","ADDRESS":"302新竹縣竹北市中山路543號","TEL":"03-5552467","LICENSE_NO":"J14","OWNER":"范秉淦","LOCATION_T":"地址對位","LOCATION_X":250422,"LOCATION_Y":2748094},"geometry":{"points":[[121.01238137277193,24.838500056258006]]}},{"attributes":{"OBJECTID":895,"STATION_NA":"力達車行","COUNTY_NA":"新竹縣","ZIPCODE":"302","ADDRESS":"302新竹縣竹北市中華路357號","TEL":"03-5552699","LICENSE_NO":"J15","OWNER":"林雲酬","LOCATION_T":"地址對位","LOCATION_X":249646,"LOCATION_Y":2747979},"geometry":{"points":[[121.00470346096553,24.837462154315446]]}},{"attributes":{"OBJECTID":896,"STATION_NA":"春信輪業行","COUNTY_NA":"新竹縣","ZIPCODE":"302","ADDRESS":"302新竹縣竹北市中華路49號","TEL":"03-5510168","LICENSE_NO":"J16","OWNER":"鄧鄭瑞蓮","LOCATION_T":"地址對位","LOCATION_X":249070,"LOCATION_Y":2746968},"geometry":{"points":[[120.99900462794666,24.828334083596211]]}},{"attributes":{"OBJECTID":897,"STATION_NA":"勝東機車行","COUNTY_NA":"新竹縣","ZIPCODE":"310","ADDRESS":"310新竹縣竹東鎮東林路29號","TEL":"03-5957358","LICENSE_NO":"J17","OWNER":"劉邦熒","LOCATION_T":"地址對位","LOCATION_X":258205,"LOCATION_Y":2736867},"geometry":{"points":[[121.08931421919188,24.737107310771663]]}},{"attributes":{"OBJECTID":898,"STATION_NA":"昇欣輪業有限公司","COUNTY_NA":"新竹縣","ZIPCODE":"310","ADDRESS":"310新竹縣竹東鎮中豐路一段133號","TEL":"03-5961278","LICENSE_NO":"J18","OWNER":"彭世一","LOCATION_T":"地址對位","LOCATION_X":259015,"LOCATION_Y":2735244},"geometry":{"points":[[121.09731066992548,24.722447928882065]]}},{"attributes":{"OBJECTID":899,"STATION_NA":"東晟車業有限公司","COUNTY_NA":"新竹縣","ZIPCODE":"310","ADDRESS":"310新竹縣竹東鎮東寧路三段110號","TEL":"03-5963415","LICENSE_NO":"J19","OWNER":"黃秀菊","LOCATION_T":"地址對位","LOCATION_X":257926,"LOCATION_Y":2737102},"geometry":{"points":[[121.08655751281589,24.739230923239351]]}},{"attributes":{"OBJECTID":900,"STATION_NA":"明德機車行","COUNTY_NA":"新竹縣","ZIPCODE":"310","ADDRESS":"310新竹縣竹東鎮長春路三段54號","TEL":"03-5958406","LICENSE_NO":"J20","OWNER":"蔡乙辰","LOCATION_T":"地址對位","LOCATION_X":257857,"LOCATION_Y":2737320},"geometry":{"points":[[121.08587671191739,24.741199673961706]]}},{"attributes":{"OBJECTID":901,"STATION_NA":"銘鴻車業行","COUNTY_NA":"新竹縣","ZIPCODE":"310","ADDRESS":"310新竹縣竹東鎮長春路三段60號","TEL":"03-5957396","LICENSE_NO":"J21","OWNER":"謝禮正","LOCATION_T":"地址對位","LOCATION_X":257850,"LOCATION_Y":2737332},"geometry":{"points":[[121.08580758248333,24.741308065038275]]}},{"attributes":{"OBJECTID":902,"STATION_NA":"益誠機車行","COUNTY_NA":"新竹縣","ZIPCODE":"310","ADDRESS":"310新竹縣竹東鎮學前路6號","TEL":"03-5962574","LICENSE_NO":"J22","OWNER":"王忠司","LOCATION_T":"地址對位","LOCATION_X":258156,"LOCATION_Y":2736696},"geometry":{"points":[[121.08882874344982,24.735563688856608]]}},{"attributes":{"OBJECTID":903,"STATION_NA":"乃新企業有限公司","COUNTY_NA":"新竹縣","ZIPCODE":"303","ADDRESS":"303新竹縣湖口鄉中山路二段23號","TEL":"03-5992139","LICENSE_NO":"J23","OWNER":"呂理法","LOCATION_T":"地址對位","LOCATION_X":253480,"LOCATION_Y":2754934},"geometry":{"points":[[121.04265975353893,24.900250060444758]]}},{"attributes":{"OBJECTID":904,"STATION_NA":"信宏機車行","COUNTY_NA":"新竹縣","ZIPCODE":"303","ADDRESS":"303新竹縣湖口鄉中山路二段349號1F","TEL":"03-5993237","LICENSE_NO":"J24","OWNER":"陳在鏜","LOCATION_T":"地址對位","LOCATION_X":254020,"LOCATION_Y":2755733},"geometry":{"points":[[121.04800838741595,24.907462227991299]]}},{"attributes":{"OBJECTID":905,"STATION_NA":"聯全機車行","COUNTY_NA":"新竹縣","ZIPCODE":"303","ADDRESS":"303新竹縣湖口鄉中正路一段154號","TEL":"03-5901734","LICENSE_NO":"J25","OWNER":"溫金雲","LOCATION_T":"地址對位","LOCATION_X":253930,"LOCATION_Y":2754891},"geometry":{"points":[[121.04711437258828,24.899860523582699]]}},{"attributes":{"OBJECTID":906,"STATION_NA":"竹祥實業有限公司","COUNTY_NA":"新竹縣","ZIPCODE":"303","ADDRESS":"303新竹縣湖口鄉孝勢村忠孝路8號","TEL":"03-5992441","LICENSE_NO":"J26","OWNER":"謝金德","LOCATION_T":"地址對位","LOCATION_X":253646,"LOCATION_Y":2755076},"geometry":{"points":[[121.04430355660239,24.901531633957379]]}},{"attributes":{"OBJECTID":907,"STATION_NA":"正富輪業有限公司","COUNTY_NA":"新竹縣","ZIPCODE":"305","ADDRESS":"305新竹縣新埔鎮中正路267號","TEL":"03-5882059","LICENSE_NO":"J27","OWNER":"徐紹達","LOCATION_T":"地址對位","LOCATION_X":257160,"LOCATION_Y":2746911},"geometry":{"points":[[121.07904264347589,24.82779799030147]]}},{"attributes":{"OBJECTID":908,"STATION_NA":"新隆機車行","COUNTY_NA":"新竹縣","ZIPCODE":"304","ADDRESS":"304新竹縣新豐鄉建興路二段764號","TEL":"03-5592847","LICENSE_NO":"J28","OWNER":"許趙勤","LOCATION_T":"中華電信","LOCATION_X":247881,"LOCATION_Y":2754879},"geometry":{"points":[[120.9872340979711,24.89975909584496]]}},{"attributes":{"OBJECTID":909,"STATION_NA":"聯成機車行","COUNTY_NA":"新竹縣","ZIPCODE":"304","ADDRESS":"304新竹縣新豐鄉新興路180號","TEL":"03-5591679","LICENSE_NO":"J29","OWNER":"徐元錦","LOCATION_T":"地址對位","LOCATION_X":248688,"LOCATION_Y":2751428},"geometry":{"points":[[120.99522365024137,24.868602147074203]]}},{"attributes":{"OBJECTID":910,"STATION_NA":"朝鐘機車行","COUNTY_NA":"新竹縣","ZIPCODE":"306","ADDRESS":"306新竹縣關西鎮中山路1號","TEL":"03-5872069","LICENSE_NO":"J30","OWNER":"鍾衣綾","LOCATION_T":"地址對位","LOCATION_X":267177,"LOCATION_Y":2742874},"geometry":{"points":[[121.17808695449365,24.791262427376822]]}},{"attributes":{"OBJECTID":911,"STATION_NA":"全營機車行","COUNTY_NA":"新竹縣","ZIPCODE":"314","ADDRESS":"314新竹縣北埔鄉水石祭村8鄰1號","TEL":"03-5803732","LICENSE_NO":"J31","OWNER":"何孟宗","LOCATION_T":"地址對位","LOCATION_X":255197,"LOCATION_Y":2733098},"geometry":{"points":[[121.05956156104246,24.70309276285591]]}},{"attributes":{"OBJECTID":912,"STATION_NA":"金山機車行","COUNTY_NA":"新竹縣","ZIPCODE":"302","ADDRESS":"302新竹縣竹北市大義里鳳岡路三段116號","TEL":"03-5561337","LICENSE_NO":"J32","OWNER":"曾招治","LOCATION_T":"中華電信","LOCATION_X":245725,"LOCATION_Y":2750857},"geometry":{"points":[[120.96590191779913,24.863442840724399]]}},{"attributes":{"OBJECTID":913,"STATION_NA":"順發機車行","COUNTY_NA":"新竹縣","ZIPCODE":"302","ADDRESS":"302新竹縣竹北市中正西路1140號","TEL":"03-5563988","LICENSE_NO":"J33","OWNER":"彭承傳","LOCATION_T":"地址對位","LOCATION_X":246743,"LOCATION_Y":2748382},"geometry":{"points":[[120.97598044436933,24.841098590990203]]}},{"attributes":{"OBJECTID":914,"STATION_NA":"廣豐車業行","COUNTY_NA":"新竹縣","ZIPCODE":"302","ADDRESS":"302新竹縣竹北市中華路111號","TEL":"03-5558143","LICENSE_NO":"J34","OWNER":"呂芳球","LOCATION_T":"地址對位","LOCATION_X":249198,"LOCATION_Y":2747100},"geometry":{"points":[[121.00027097663779,24.829525894825657]]}},{"attributes":{"OBJECTID":915,"STATION_NA":"達成機車行","COUNTY_NA":"新竹縣","ZIPCODE":"302","ADDRESS":"302新竹縣竹北市竹義里中華路342號","TEL":"03-5553937","LICENSE_NO":"J35","OWNER":"戴秀桃","LOCATION_T":"地址對位","LOCATION_X":249737,"LOCATION_Y":2747840},"geometry":{"points":[[121.00560377901618,24.836207128955007]]}},{"attributes":{"OBJECTID":916,"STATION_NA":"金原機車行","COUNTY_NA":"新竹縣","ZIPCODE":"310","ADDRESS":"310新竹縣竹東鎮大明路163號","TEL":"03-5964166","LICENSE_NO":"J36","OWNER":"賴運土","LOCATION_T":"地址對位","LOCATION_X":258776,"LOCATION_Y":2736754},"geometry":{"points":[[121.09495827541859,24.736083166470063]]}},{"attributes":{"OBJECTID":917,"STATION_NA":"萬通機車行","COUNTY_NA":"新竹縣","ZIPCODE":"310","ADDRESS":"310新竹縣竹東鎮中興路3段406號","TEL":"03-5827373","LICENSE_NO":"J37","OWNER":"傅進祿","LOCATION_T":"地址對位","LOCATION_X":254473,"LOCATION_Y":2741023},"geometry":{"points":[[121.05243605451635,24.774650126444538]]}},{"attributes":{"OBJECTID":918,"STATION_NA":"福興輪業行","COUNTY_NA":"新竹縣","ZIPCODE":"303","ADDRESS":"303新竹縣湖口鄉湖鏡村中正路3段18號","TEL":"03-5690410","LICENSE_NO":"J38","OWNER":"李淑芬","LOCATION_T":"地址對位","LOCATION_X":254427,"LOCATION_Y":2753520},"geometry":{"points":[[121.05202880764217,24.887480811996301]]}},{"attributes":{"OBJECTID":919,"STATION_NA":"連城機車行","COUNTY_NA":"新竹縣","ZIPCODE":"303","ADDRESS":"303新竹縣湖口鄉鳳凰村中華路96號1F","TEL":"03-5982591","LICENSE_NO":"J39","OWNER":"羅月秋","LOCATION_T":"地址對位","LOCATION_X":250325,"LOCATION_Y":2752040},"geometry":{"points":[[121.0114246300582,24.874127241130065]]}},{"attributes":{"OBJECTID":920,"STATION_NA":"振宏行","COUNTY_NA":"新竹縣","ZIPCODE":"305","ADDRESS":"305新竹縣新埔鎮中正路638號","TEL":"03-5882671","LICENSE_NO":"J40","OWNER":"李本宏","LOCATION_T":"地址對位","LOCATION_X":256655,"LOCATION_Y":2746936},"geometry":{"points":[[121.0740466853064,24.828026262571896]]}},{"attributes":{"OBJECTID":921,"STATION_NA":"盛進車業行","COUNTY_NA":"新竹縣","ZIPCODE":"305","ADDRESS":"305新竹縣新埔鎮四座里和平街11號","TEL":"03-5885228","LICENSE_NO":"J41","OWNER":"胡智明","LOCATION_T":"地址對位","LOCATION_X":257212,"LOCATION_Y":2746852},"geometry":{"points":[[121.0795567534429,24.827265043713592]]}},{"attributes":{"OBJECTID":922,"STATION_NA":"進順機車行","COUNTY_NA":"新竹縣","ZIPCODE":"305","ADDRESS":"305新竹縣新埔鎮新民里中正路509號","TEL":"03-5885673","LICENSE_NO":"J42","OWNER":"林國亮","LOCATION_T":"地址對位","LOCATION_X":256583,"LOCATION_Y":2746883},"geometry":{"points":[[121.07333409732146,24.827548111334838]]}},{"attributes":{"OBJECTID":923,"STATION_NA":"福友機車行","COUNTY_NA":"新竹縣","ZIPCODE":"304","ADDRESS":"304新竹縣新豐鄉松林村尚仁街2號","TEL":"03-5598622","LICENSE_NO":"J43","OWNER":"李木清","LOCATION_T":"地址對位","LOCATION_X":248190,"LOCATION_Y":2751235},"geometry":{"points":[[120.99029538269599,24.866859395756951]]}},{"attributes":{"OBJECTID":924,"STATION_NA":"台偉機車行","COUNTY_NA":"新竹縣","ZIPCODE":"304","ADDRESS":"304新竹縣新豐鄉重興村建興路2段716號","TEL":"03-5594289","LICENSE_NO":"J44","OWNER":"黃文順","LOCATION_T":"中華電信","LOCATION_X":247906,"LOCATION_Y":2754757},"geometry":{"points":[[120.98748168450747,24.898657639248704]]}},{"attributes":{"OBJECTID":925,"STATION_NA":"茂輪機車行","COUNTY_NA":"新竹縣","ZIPCODE":"306","ADDRESS":"306新竹縣關西鎮石光里6鄰243巷5號","TEL":"03-5869139","LICENSE_NO":"J45","OWNER":"陳永有","LOCATION_T":"現地調查","LOCATION_X":262364,"LOCATION_Y":2745168},"geometry":{"points":[[121.13050907213025,24.812025790576495]]}},{"attributes":{"OBJECTID":926,"STATION_NA":"源德機車行","COUNTY_NA":"新竹縣","ZIPCODE":"308","ADDRESS":"308新竹縣寶山鄉雙溪村雙園路82號","TEL":"03-5202509","LICENSE_NO":"J46","OWNER":"葉德福","LOCATION_T":"地址對位","LOCATION_X":248195,"LOCATION_Y":2739987},"geometry":{"points":[[120.99035313772359,24.765304423836717]]}},{"attributes":{"OBJECTID":927,"STATION_NA":"信達機車行","COUNTY_NA":"苗栗縣","ZIPCODE":"364","ADDRESS":"364苗栗縣大湖鄉中山路72號","TEL":"037-995220","LICENSE_NO":"K01","OWNER":"鍾少賢","LOCATION_T":"地址對位","LOCATION_X":235695,"LOCATION_Y":2702225},"geometry":{"points":[[120.86710712018748,24.424291223610041]]}},{"attributes":{"OBJECTID":928,"STATION_NA":"宏輪機車行","COUNTY_NA":"苗栗縣","ZIPCODE":"364","ADDRESS":"364苗栗縣大湖鄉中原路24號","TEL":"037-991526","LICENSE_NO":"K02","OWNER":"陳永德","LOCATION_T":"地址對位","LOCATION_X":235537,"LOCATION_Y":2702060},"geometry":{"points":[[120.86555052155992,24.422800033998723]]}},{"attributes":{"OBJECTID":929,"STATION_NA":"泉盛車行","COUNTY_NA":"苗栗縣","ZIPCODE":"363","ADDRESS":"363苗栗縣公館鄉五谷村12鄰51號","TEL":"037-226804","LICENSE_NO":"K03","OWNER":"林隆泉","LOCATION_T":"地址對位","LOCATION_X":231127,"LOCATION_Y":2713569},"geometry":{"points":[[120.8219165155091,24.526670452675933]]}},{"attributes":{"OBJECTID":930,"STATION_NA":"廣達機車行","COUNTY_NA":"苗栗縣","ZIPCODE":"363","ADDRESS":"363苗栗縣公館鄉鶴山村145號","TEL":"037-226700","LICENSE_NO":"K04","OWNER":"彭劉玉英","LOCATION_T":"地址對位","LOCATION_X":231807,"LOCATION_Y":2714577},"geometry":{"points":[[120.82861524185137,24.535779422935054]]}},{"attributes":{"OBJECTID":931,"STATION_NA":"新源和機車行","COUNTY_NA":"苗栗縣","ZIPCODE":"350","ADDRESS":"350苗栗縣竹南鎮大營路236號","TEL":"037-466834","LICENSE_NO":"K05","OWNER":"朱吉章","LOCATION_T":"地址對位","LOCATION_X":236328,"LOCATION_Y":2731446},"geometry":{"points":[[120.87308478361496,24.688132978810646]]}},{"attributes":{"OBJECTID":932,"STATION_NA":"大明輪業商行","COUNTY_NA":"苗栗縣","ZIPCODE":"350","ADDRESS":"350苗栗縣竹南鎮光復路299號","TEL":"037-474700","LICENSE_NO":"K06","OWNER":"陳明芳","LOCATION_T":"地址對位","LOCATION_X":236963,"LOCATION_Y":2731966},"geometry":{"points":[[120.87935583679939,24.692833400598371]]}},{"attributes":{"OBJECTID":933,"STATION_NA":"增興機車行","COUNTY_NA":"苗栗縣","ZIPCODE":"350","ADDRESS":"350苗栗縣竹南鎮光復路80號","TEL":"037-475666","LICENSE_NO":"K07","OWNER":"章文忠","LOCATION_T":"地址對位","LOCATION_X":236968,"LOCATION_Y":2731118},"geometry":{"points":[[120.87941233562252,24.685176820793796]]}},{"attributes":{"OBJECTID":934,"STATION_NA":"名翔車業有限公司","COUNTY_NA":"苗栗縣","ZIPCODE":"350","ADDRESS":"350苗栗縣竹南鎮維新街52號","TEL":"037-624752","LICENSE_NO":"K08","OWNER":"魏金葉","LOCATION_T":"地址對位","LOCATION_X":237253,"LOCATION_Y":2730979},"geometry":{"points":[[120.88222995688814,24.683924086021793]]}},{"attributes":{"OBJECTID":935,"STATION_NA":"昌億機車行","COUNTY_NA":"苗栗縣","ZIPCODE":"369","ADDRESS":"369苗栗縣卓蘭鎮中山路148號","TEL":"04-25892591","LICENSE_NO":"K09","OWNER":"詹文良","LOCATION_T":"地址對位","LOCATION_X":231336,"LOCATION_Y":2689982},"geometry":{"points":[[120.82427074117597,24.313699155050411]]}},{"attributes":{"OBJECTID":936,"STATION_NA":"三鈴機車行","COUNTY_NA":"苗栗縣","ZIPCODE":"360","ADDRESS":"360苗栗縣苗栗市中山路35號","TEL":"037-266662","LICENSE_NO":"K10","OWNER":"黃盈胤","LOCATION_T":"地址對位","LOCATION_X":230693,"LOCATION_Y":2716827},"geometry":{"points":[[120.81759080384451,24.556081687665671]]}},{"attributes":{"OBJECTID":937,"STATION_NA":"昌泰機車行","COUNTY_NA":"苗栗縣","ZIPCODE":"360","ADDRESS":"360苗栗縣苗栗市中山路57號","TEL":"037-262091","LICENSE_NO":"K11","OWNER":"羅春瑛","LOCATION_T":"地址對位","LOCATION_X":231320,"LOCATION_Y":2718190},"geometry":{"points":[[120.82376318106502,24.568395321451611]]}},{"attributes":{"OBJECTID":938,"STATION_NA":"寶山城車業有限公司","COUNTY_NA":"苗栗縣","ZIPCODE":"360","ADDRESS":"360苗栗縣苗栗市中山路625號","TEL":"037-353388","LICENSE_NO":"K12","OWNER":"賴健雄","LOCATION_T":"地址對位","LOCATION_X":230889,"LOCATION_Y":2716895},"geometry":{"points":[[120.81952473170008,24.556697949227889]]}},{"attributes":{"OBJECTID":939,"STATION_NA":"冠慶輪業有限公司","COUNTY_NA":"苗栗縣","ZIPCODE":"360","ADDRESS":"360苗栗縣苗栗市中正路242號","TEL":"037-323126","LICENSE_NO":"K13","OWNER":"范元得","LOCATION_T":"地址對位","LOCATION_X":231335,"LOCATION_Y":2717740},"geometry":{"points":[[120.8239168776359,24.564332502648135]]}},{"attributes":{"OBJECTID":940,"STATION_NA":"隆翔輪業有限公司","COUNTY_NA":"苗栗縣","ZIPCODE":"360","ADDRESS":"360苗栗縣苗栗市中正路60號","TEL":"037-260879","LICENSE_NO":"K14","OWNER":"英文雄","LOCATION_T":"地址對位","LOCATION_X":231371,"LOCATION_Y":2718227},"geometry":{"points":[[120.8242662228357,24.568729970122675]]}},{"attributes":{"OBJECTID":941,"STATION_NA":"瓊安車業行","COUNTY_NA":"苗栗縣","ZIPCODE":"360","ADDRESS":"360苗栗縣苗栗市中正路947號","TEL":"037-331246","LICENSE_NO":"K15","OWNER":"謝煥松","LOCATION_T":"地址對位","LOCATION_X":230539,"LOCATION_Y":2716212},"geometry":{"points":[[120.81607866955002,24.550527095155964]]}},{"attributes":{"OBJECTID":942,"STATION_NA":"苗強車業股份有限公司","COUNTY_NA":"苗栗縣","ZIPCODE":"360","ADDRESS":"360苗栗縣苗栗市至公路348號","TEL":"037-358112","LICENSE_NO":"K16","OWNER":"劉茂浤","LOCATION_T":"地址對位","LOCATION_X":230255,"LOCATION_Y":2717472},"geometry":{"points":[[120.81325852542901,24.561900079078566]]}},{"attributes":{"OBJECTID":943,"STATION_NA":"金昌輪業有限公司","COUNTY_NA":"苗栗縣","ZIPCODE":"360","ADDRESS":"360苗栗縣苗栗市至公路53號","TEL":"037-321952","LICENSE_NO":"K17","OWNER":"黃陳春蘭","LOCATION_T":"地址對位","LOCATION_X":230824,"LOCATION_Y":2716971},"geometry":{"points":[[120.81888210121198,24.557383386484855]]}},{"attributes":{"OBJECTID":944,"STATION_NA":"順興機車行","COUNTY_NA":"苗栗縣","ZIPCODE":"360","ADDRESS":"360苗栗縣苗栗市新東街160號","TEL":"037-355930","LICENSE_NO":"K18","OWNER":"吳進欽","LOCATION_T":"地址對位","LOCATION_X":231100,"LOCATION_Y":2716253},"geometry":{"points":[[120.82161579725611,24.55090385914513]]}},{"attributes":{"OBJECTID":945,"STATION_NA":"宏賢車業有限公司","COUNTY_NA":"苗栗縣","ZIPCODE":"358","ADDRESS":"358苗栗縣苑裡鎮中山路2-4號","TEL":"037-861262","LICENSE_NO":"K19","OWNER":"曾中賢","LOCATION_T":"地址對位","LOCATION_X":214289,"LOCATION_Y":2704987},"geometry":{"points":[[120.65594586897066,24.448896911494352]]}},{"attributes":{"OBJECTID":946,"STATION_NA":"明興機車行","COUNTY_NA":"苗栗縣","ZIPCODE":"358","ADDRESS":"358苗栗縣苑裡鎮中山路99號","TEL":"037-861425","LICENSE_NO":"K20","OWNER":"阮明珍","LOCATION_T":"地址對位","LOCATION_X":213729,"LOCATION_Y":2704069},"geometry":{"points":[[120.65044500357273,24.44059548403602]]}},{"attributes":{"OBJECTID":947,"STATION_NA":"大雷車業有限公司","COUNTY_NA":"苗栗縣","ZIPCODE":"357","ADDRESS":"357苗栗縣通宵鎮中山路207號","TEL":"037-755175","LICENSE_NO":"K22","OWNER":"古義明","LOCATION_T":"地址對位","LOCATION_X":216594,"LOCATION_Y":2709613},"geometry":{"points":[[120.67857564998937,24.49071484727147]]}},{"attributes":{"OBJECTID":948,"STATION_NA":"金祥機車行","COUNTY_NA":"苗栗縣","ZIPCODE":"357","ADDRESS":"357苗栗縣通宵鎮坪頂路23號","TEL":"037-753669","LICENSE_NO":"K23","OWNER":"鄒素芬","LOCATION_T":"地址對位","LOCATION_X":216434,"LOCATION_Y":2708138},"geometry":{"points":[[120.67703081155111,24.477393704683664]]}},{"attributes":{"OBJECTID":949,"STATION_NA":"永宏機車行","COUNTY_NA":"苗栗縣","ZIPCODE":"351","ADDRESS":"351苗栗縣頭份鎮中正一路74號","TEL":"037-672746","LICENSE_NO":"K24","OWNER":"吳煥榮","LOCATION_T":"地址對位","LOCATION_X":241661,"LOCATION_Y":2731260},"geometry":{"points":[[120.92578893402634,24.686489705725368]]}},{"attributes":{"OBJECTID":950,"STATION_NA":"增欣企業股份有限公司","COUNTY_NA":"苗栗縣","ZIPCODE":"351","ADDRESS":"351苗栗縣頭份鎮中華路1012號","TEL":"037-663313","LICENSE_NO":"K25","OWNER":"章阿胎","LOCATION_T":"地址對位","LOCATION_X":240025,"LOCATION_Y":2731331},"geometry":{"points":[[120.90962141232799,24.687121830015865]]}},{"attributes":{"OBJECTID":951,"STATION_NA":"范氏大車業有限公司","COUNTY_NA":"苗栗縣","ZIPCODE":"351","ADDRESS":"351苗栗縣頭份鎮中華路790號","TEL":"037-668581","LICENSE_NO":"K26","OWNER":"范東春","LOCATION_T":"地址對位","LOCATION_X":239414,"LOCATION_Y":2730720},"geometry":{"points":[[120.90358745060668,24.681601245186204]]}},{"attributes":{"OBJECTID":952,"STATION_NA":"有翔車業有限公司","COUNTY_NA":"苗栗縣","ZIPCODE":"351","ADDRESS":"351苗栗縣頭份鎮中華路802號","TEL":"037-663407","LICENSE_NO":"K27","OWNER":"林維鴻","LOCATION_T":"地址對位","LOCATION_X":239438,"LOCATION_Y":2730740},"geometry":{"points":[[120.90382448505423,24.68178198499745]]}},{"attributes":{"OBJECTID":953,"STATION_NA":"木森機車行","COUNTY_NA":"苗栗縣","ZIPCODE":"351","ADDRESS":"351苗栗縣頭份鎮信東路172號","TEL":"037-666055","LICENSE_NO":"K28","OWNER":"葉木森","LOCATION_T":"地址對位","LOCATION_X":239945,"LOCATION_Y":2731737},"geometry":{"points":[[120.90882810177644,24.690787122604608]]}},{"attributes":{"OBJECTID":954,"STATION_NA":"全輪機車行","COUNTY_NA":"苗栗縣","ZIPCODE":"352","ADDRESS":"352苗栗縣三灣鄉三灣村中正路198號","TEL":"037-831038","LICENSE_NO":"K32","OWNER":"傅阿蘭","LOCATION_T":"地址對位","LOCATION_X":244745,"LOCATION_Y":2727661},"geometry":{"points":[[120.95627554203298,24.654005858146032]]}},{"attributes":{"OBJECTID":955,"STATION_NA":"建龍機車行","COUNTY_NA":"苗栗縣","ZIPCODE":"363","ADDRESS":"363苗栗縣公館鄉玉谷村5鄰107號","TEL":"037-225979","LICENSE_NO":"K33","OWNER":"傅學龍","LOCATION_T":"地址對位","LOCATION_X":231930,"LOCATION_Y":2712736},"geometry":{"points":[[120.82985168922097,24.519158391476736]]}},{"attributes":{"OBJECTID":956,"STATION_NA":"進成機車行","COUNTY_NA":"苗栗縣","ZIPCODE":"363","ADDRESS":"363苗栗縣公館鄉館中村近光路105號","TEL":"037-223827","LICENSE_NO":"K34","OWNER":"曾國榮","LOCATION_T":"地址對位","LOCATION_X":231665,"LOCATION_Y":2710966},"geometry":{"points":[[120.82725830027242,24.503173866479553]]}},{"attributes":{"OBJECTID":957,"STATION_NA":"德明機車行","COUNTY_NA":"苗栗縣","ZIPCODE":"363","ADDRESS":"363苗栗縣公館鄉館中村通明路40-2號","TEL":"037-225767","LICENSE_NO":"K35","OWNER":"曾俊雄","LOCATION_T":"中華電信","LOCATION_X":231475,"LOCATION_Y":2710985},"geometry":{"points":[[120.82538323821625,24.503343234311224]]}},{"attributes":{"OBJECTID":958,"STATION_NA":"順鎰機車行","COUNTY_NA":"苗栗縣","ZIPCODE":"350","ADDRESS":"350苗栗縣竹南鎮中美里西門路17-5號","TEL":"037-461862","LICENSE_NO":"K36","OWNER":"陳嘉慧","LOCATION_T":"中華電信","LOCATION_X":235279,"LOCATION_Y":2730800},"geometry":{"points":[[120.86272420257201,24.682290849363113]]}},{"attributes":{"OBJECTID":959,"STATION_NA":"益昇機車行","COUNTY_NA":"苗栗縣","ZIPCODE":"350","ADDRESS":"350苗栗縣竹南鎮正南里24鄰大營路80號","TEL":"037-460193","LICENSE_NO":"K37","OWNER":"古成亮","LOCATION_T":"地址對位","LOCATION_X":236343,"LOCATION_Y":2730897},"geometry":{"points":[[120.8732378100766,24.68317616295057]]}},{"attributes":{"OBJECTID":960,"STATION_NA":"通川實業有限公司","COUNTY_NA":"苗栗縣","ZIPCODE":"350","ADDRESS":"350苗栗縣竹南鎮光復路316號1F","TEL":"037-474693","LICENSE_NO":"K38","OWNER":"陳中和","LOCATION_T":"地址對位","LOCATION_X":236996,"LOCATION_Y":2731757},"geometry":{"points":[[120.87968371736631,24.690946602516281]]}},{"attributes":{"OBJECTID":961,"STATION_NA":"益豐機車行","COUNTY_NA":"苗栗縣","ZIPCODE":"350","ADDRESS":"350苗栗縣竹南鎮光復路392號","TEL":"037-476613","LICENSE_NO":"K39","OWNER":"彭秀菊","LOCATION_T":"地址對位","LOCATION_X":236996,"LOCATION_Y":2731946},"geometry":{"points":[[120.87968214014313,24.692653091272224]]}},{"attributes":{"OBJECTID":962,"STATION_NA":"騰翔機車行","COUNTY_NA":"苗栗縣","ZIPCODE":"353","ADDRESS":"353苗栗縣南庄鄉中正路82號","TEL":"037-822222","LICENSE_NO":"K40","OWNER":"黃謝鳳姮","LOCATION_T":"地址對位","LOCATION_X":249072,"LOCATION_Y":2721773},"geometry":{"points":[[120.99902691834481,24.600848776336406]]}},{"attributes":{"OBJECTID":963,"STATION_NA":"宜昌輪業有限公司","COUNTY_NA":"苗栗縣","ZIPCODE":"356","ADDRESS":"356苗栗縣後龍鎮中山路22號","TEL":"037-722338","LICENSE_NO":"K41","OWNER":"柳宗澤","LOCATION_T":"地址對位","LOCATION_X":227813,"LOCATION_Y":2723439},"geometry":{"points":[[120.7890613819427,24.615743719098177]]}},{"attributes":{"OBJECTID":964,"STATION_NA":"展銓輪業有限公司","COUNTY_NA":"苗栗縣","ZIPCODE":"356","ADDRESS":"356苗栗縣後龍鎮中華路60-6號","TEL":"037-726881","LICENSE_NO":"K42","OWNER":"林德欽","LOCATION_T":"地址對位","LOCATION_X":227896,"LOCATION_Y":2723535},"geometry":{"points":[[120.78987971510864,24.61661162946481]]}},{"attributes":{"OBJECTID":965,"STATION_NA":"楓城機車行","COUNTY_NA":"苗栗縣","ZIPCODE":"356","ADDRESS":"356苗栗縣後龍鎮中華路60-16號","TEL":"037-722600","LICENSE_NO":"K43","OWNER":"林慶城","LOCATION_T":"地址對位","LOCATION_X":227848,"LOCATION_Y":2723533},"geometry":{"points":[[120.78940565922719,24.616592914507205]]}},{"attributes":{"OBJECTID":966,"STATION_NA":"明輪機車行","COUNTY_NA":"苗栗縣","ZIPCODE":"356","ADDRESS":"356苗栗縣後龍鎮成功路116號","TEL":"037-727543","LICENSE_NO":"K44","OWNER":"楊珠蓮","LOCATION_T":"地址對位","LOCATION_X":228144,"LOCATION_Y":2723330},"geometry":{"points":[[120.79233217224808,24.614764090875799]]}},{"attributes":{"OBJECTID":967,"STATION_NA":"茂昌車業有限公司","COUNTY_NA":"苗栗縣","ZIPCODE":"360","ADDRESS":"360苗栗縣苗栗市中正路1324號","TEL":"037-320854","LICENSE_NO":"K45","OWNER":"劉茂浤","LOCATION_T":"地址對位","LOCATION_X":230605,"LOCATION_Y":2715312},"geometry":{"points":[[120.81674193712533,24.542401850428639]]}},{"attributes":{"OBJECTID":968,"STATION_NA":"益昌車行","COUNTY_NA":"苗栗縣","ZIPCODE":"360","ADDRESS":"360苗栗縣苗栗市中華路194號","TEL":"037-272581","LICENSE_NO":"K46","OWNER":"周金蓮","LOCATION_T":"地址對位","LOCATION_X":231446,"LOCATION_Y":2719051},"geometry":{"points":[[120.82499650250395,24.57617060398794]]}},{"attributes":{"OBJECTID":969,"STATION_NA":"冠榮機車行","COUNTY_NA":"苗栗縣","ZIPCODE":"360","ADDRESS":"360苗栗縣苗栗市至公路136號","TEL":"037-320697","LICENSE_NO":"K47","OWNER":"曾淑觀","LOCATION_T":"地址對位","LOCATION_X":229961,"LOCATION_Y":2717346},"geometry":{"points":[[120.81035788129928,24.560758863431452]]}},{"attributes":{"OBJECTID":970,"STATION_NA":"尚銳機車行","COUNTY_NA":"苗栗縣","ZIPCODE":"360","ADDRESS":"360苗栗縣苗栗市信義街17號","TEL":"037-359290","LICENSE_NO":"K48","OWNER":"陳昭華","LOCATION_T":"地址對位","LOCATION_X":230472,"LOCATION_Y":2716233},"geometry":{"points":[[120.81541703237343,24.550715900530815]]}},{"attributes":{"OBJECTID":971,"STATION_NA":"永興車業行","COUNTY_NA":"苗栗縣","ZIPCODE":"360","ADDRESS":"360苗栗縣苗栗市為公路161號","TEL":"037-270102","LICENSE_NO":"K49","OWNER":"謝文輝","LOCATION_T":"地址對位","LOCATION_X":231609,"LOCATION_Y":2718468},"geometry":{"points":[[120.82661294480091,24.570908623988025]]}},{"attributes":{"OBJECTID":972,"STATION_NA":"錦達機車行","COUNTY_NA":"苗栗縣","ZIPCODE":"358","ADDRESS":"358苗栗縣苑裡鎮山腳里山腳167號","TEL":"037-740467","LICENSE_NO":"K50","OWNER":"洪淑美","LOCATION_T":"中華電信","LOCATION_X":217311,"LOCATION_Y":2701216},"geometry":{"points":[[120.68583667178596,24.414912645074118]]}},{"attributes":{"OBJECTID":973,"STATION_NA":"全順機車行","COUNTY_NA":"苗栗縣","ZIPCODE":"358","ADDRESS":"358苗栗縣苑裡鎮田心里田心77-1號","TEL":"037-853818","LICENSE_NO":"K51","OWNER":"吳淑芬","LOCATION_T":"中華電信","LOCATION_X":214165,"LOCATION_Y":2701639},"geometry":{"points":[[120.65480441090271,24.418664485761465]]}},{"attributes":{"OBJECTID":974,"STATION_NA":"東昌機車行","COUNTY_NA":"苗栗縣","ZIPCODE":"358","ADDRESS":"358苗栗縣苑裡鎮社苓里9鄰106號","TEL":"037-742062","LICENSE_NO":"K52","OWNER":"王秀茂","LOCATION_T":"現地調查","LOCATION_X":216202,"LOCATION_Y":2699541},"geometry":{"points":[[120.67493990621159,24.399766482031293]]}},{"attributes":{"OBJECTID":975,"STATION_NA":"明村機車行","COUNTY_NA":"苗栗縣","ZIPCODE":"358","ADDRESS":"358苗栗縣苑裡鎮建國路5號1F","TEL":"037-865530","LICENSE_NO":"K53","OWNER":"羅明村","LOCATION_T":"地址對位","LOCATION_X":214377,"LOCATION_Y":2704254},"geometry":{"points":[[120.65683160124487,24.442280476025424]]}},{"attributes":{"OBJECTID":976,"STATION_NA":"啟超機車行","COUNTY_NA":"苗栗縣","ZIPCODE":"357","ADDRESS":"357苗栗縣通霄鎮中山路122號","TEL":"037-752072","LICENSE_NO":"K54","OWNER":"陳俊槐","LOCATION_T":"地址對位","LOCATION_X":216584,"LOCATION_Y":2709423},"geometry":{"points":[[120.67848132670797,24.48899911697832]]}},{"attributes":{"OBJECTID":977,"STATION_NA":"永信機車行","COUNTY_NA":"苗栗縣","ZIPCODE":"357","ADDRESS":"357苗栗縣通霄鎮中山路135號","TEL":"037-751927","LICENSE_NO":"K55","OWNER":"林錦恭","LOCATION_T":"地址對位","LOCATION_X":216270,"LOCATION_Y":2708529},"geometry":{"points":[[120.67540390372542,24.480920700750872]]}},{"attributes":{"OBJECTID":978,"STATION_NA":"永達車業行","COUNTY_NA":"苗栗縣","ZIPCODE":"357","ADDRESS":"357苗栗縣通霄鎮中正路147號","TEL":"037-753378","LICENSE_NO":"K56","OWNER":"張永源","LOCATION_T":"地址對位","LOCATION_X":216619,"LOCATION_Y":2709675},"geometry":{"points":[[120.67882089337989,24.491275157305534]]}},{"attributes":{"OBJECTID":979,"STATION_NA":"鴻億輪業行","COUNTY_NA":"苗栗縣","ZIPCODE":"357","ADDRESS":"357苗栗縣通霄鎮信義路55號","TEL":"037-754889","LICENSE_NO":"K57","OWNER":"張淑姿","LOCATION_T":"地址對位","LOCATION_X":216697,"LOCATION_Y":2709278},"geometry":{"points":[[120.67959951982236,24.487692200671805]]}},{"attributes":{"OBJECTID":980,"STATION_NA":"永亨輪業有限公司","COUNTY_NA":"苗栗縣","ZIPCODE":"357","ADDRESS":"357苗栗縣通霄鎮南和路一段5號","TEL":"037-756888","LICENSE_NO":"K58","OWNER":"林錦洲","LOCATION_T":"地址對位","LOCATION_X":216961,"LOCATION_Y":2709209},"geometry":{"points":[[120.68220575377644,24.48707452584225]]}},{"attributes":{"OBJECTID":981,"STATION_NA":"宏晟機車行","COUNTY_NA":"苗栗縣","ZIPCODE":"366","ADDRESS":"366苗栗縣銅鑼鄉銅鑼村中正路50號","TEL":"037-980909","LICENSE_NO":"K59","OWNER":"賴玉宏","LOCATION_T":"地址對位","LOCATION_X":227594,"LOCATION_Y":2708938},"geometry":{"points":[[120.78711828184767,24.484810405273265]]}},{"attributes":{"OBJECTID":982,"STATION_NA":"合興機車行","COUNTY_NA":"苗栗縣","ZIPCODE":"366","ADDRESS":"366苗栗縣銅鑼鄉銅鑼村中正路64號","TEL":"037-981165","LICENSE_NO":"K60","OWNER":"邱徐月娥","LOCATION_T":"地址對位","LOCATION_X":227594,"LOCATION_Y":2708976},"geometry":{"points":[[120.78711770446972,24.485153533899904]]}},{"attributes":{"OBJECTID":983,"STATION_NA":"金泰機車行","COUNTY_NA":"苗栗縣","ZIPCODE":"351","ADDRESS":"351苗栗縣頭份鎮中正一路22號","TEL":"037-675959","LICENSE_NO":"K61","OWNER":"黃文星","LOCATION_T":"地址對位","LOCATION_X":241520,"LOCATION_Y":2731326},"geometry":{"points":[[120.92439520920695,24.687084924549442]]}},{"attributes":{"OBJECTID":984,"STATION_NA":"東祥機車行","COUNTY_NA":"苗栗縣","ZIPCODE":"351","ADDRESS":"351苗栗縣頭份鎮中正二路5號","TEL":"037-666891","LICENSE_NO":"K62","OWNER":"吳建輝","LOCATION_T":"地址對位","LOCATION_X":243183,"LOCATION_Y":2730823},"geometry":{"points":[[120.94083112178978,24.682550686643186]]}},{"attributes":{"OBJECTID":985,"STATION_NA":"華峰車業有限公司","COUNTY_NA":"苗栗縣","ZIPCODE":"351","ADDRESS":"351苗栗縣頭份鎮中華路886號","TEL":"037-663218","LICENSE_NO":"K64","OWNER":"徐錦標","LOCATION_T":"地址對位","LOCATION_X":239630,"LOCATION_Y":2730884},"geometry":{"points":[[120.90572089985113,24.683083397385435]]}},{"attributes":{"OBJECTID":986,"STATION_NA":"良友機車行","COUNTY_NA":"苗栗縣","ZIPCODE":"351","ADDRESS":"351苗栗縣頭份鎮建國路191號1F","TEL":"037-664004","LICENSE_NO":"K65","OWNER":"徐文良","LOCATION_T":"地址對位","LOCATION_X":239894,"LOCATION_Y":2732351},"geometry":{"points":[[120.90831992503082,24.696330625295509]]}},{"attributes":{"OBJECTID":987,"STATION_NA":"華興機車行","COUNTY_NA":"苗栗縣","ZIPCODE":"362","ADDRESS":"362苗栗縣頭屋鄉頭屋村14鄰尖豐路68號","TEL":"037-250573","LICENSE_NO":"K66","OWNER":"羅煥華","LOCATION_T":"地址對位","LOCATION_X":234229,"LOCATION_Y":2718990},"geometry":{"points":[[120.85247461860756,24.575649234194785]]}},{"attributes":{"OBJECTID":988,"STATION_NA":"信益機車行","COUNTY_NA":"苗栗縣","ZIPCODE":"367","ADDRESS":"苗栗縣三義鄉中正路43號","TEL":" ","LICENSE_NO":"K67","OWNER":"張淞鈞","LOCATION_T":"地址對位","LOCATION_X":226216,"LOCATION_Y":2701742},"geometry":{"points":[[120.77363768883059,24.419821366489241]]}},{"attributes":{"OBJECTID":989,"STATION_NA":"幸鑫商行有限公司","COUNTY_NA":"台中縣","ZIPCODE":"420","ADDRESS":"420台中縣豐原市市前街123號","TEL":"04-25222615","LICENSE_NO":"L01","OWNER":"謝欽幸","LOCATION_T":"地址對位","LOCATION_X":220295,"LOCATION_Y":2683057},"geometry":{"points":[[120.71562645537239,24.251008517295599]]}},{"attributes":{"OBJECTID":990,"STATION_NA":"佳陸車業有限公司","COUNTY_NA":"台中縣","ZIPCODE":"420","ADDRESS":"420台中縣豐原市中山路230號","TEL":"04-25264886","LICENSE_NO":"L02","OWNER":"蔡亨利","LOCATION_T":"地址對位","LOCATION_X":220077,"LOCATION_Y":2682077},"geometry":{"points":[[120.71349908298201,24.242155506956717]]}},{"attributes":{"OBJECTID":991,"STATION_NA":"通陽車業股份有限公司","COUNTY_NA":"台中縣","ZIPCODE":"420","ADDRESS":"420台中縣豐原市圓環東路550號","TEL":"04-25264698","LICENSE_NO":"L03","OWNER":"陳良安","LOCATION_T":"地址對位","LOCATION_X":221466,"LOCATION_Y":2682733},"geometry":{"points":[[120.72716430890441,24.248103576578085]]}},{"attributes":{"OBJECTID":992,"STATION_NA":"台一機車行","COUNTY_NA":"台中縣","ZIPCODE":"420","ADDRESS":"420台中縣豐原市成功路34號","TEL":"04-25264895","LICENSE_NO":"L04","OWNER":"張欽鄧","LOCATION_T":"地址對位","LOCATION_X":219937,"LOCATION_Y":2682103},"geometry":{"points":[[120.71211996680785,24.242387718192692]]}},{"attributes":{"OBJECTID":993,"STATION_NA":"東生機車行","COUNTY_NA":"台中縣","ZIPCODE":"420","ADDRESS":"420台中縣豐原市永康路5號","TEL":"04-25227673","LICENSE_NO":"L05","OWNER":"吳玉盛","LOCATION_T":"地址對位","LOCATION_X":221565,"LOCATION_Y":2682282},"geometry":{"points":[[120.72814770045038,24.244032905864739]]}},{"attributes":{"OBJECTID":994,"STATION_NA":"富群車業股份有限公司","COUNTY_NA":"台中縣","ZIPCODE":"429","ADDRESS":"429台中縣神岡鄉社口村中山路432-1號","TEL":"04-25611225","LICENSE_NO":"L06","OWNER":"王朝明","LOCATION_T":"地址對位","LOCATION_X":217428,"LOCATION_Y":2682677},"geometry":{"points":[[120.6874009756164,24.247522166072603]]}},{"attributes":{"OBJECTID":995,"STATION_NA":"新東機車行","COUNTY_NA":"台中縣","ZIPCODE":"429","ADDRESS":"429台中縣神岡鄉中山路41號","TEL":"04-25233458","LICENSE_NO":"L07","OWNER":"劉洪貴美","LOCATION_T":"地址對位","LOCATION_X":218528,"LOCATION_Y":2682769},"geometry":{"points":[[120.69823141080013,24.248374881748081]]}},{"attributes":{"OBJECTID":996,"STATION_NA":"元春機車行","COUNTY_NA":"台中縣","ZIPCODE":"429","ADDRESS":"429台中縣神岡鄉中山路1186號","TEL":"04-25624106","LICENSE_NO":"L08","OWNER":"宋迎春","LOCATION_T":"地址對位","LOCATION_X":215639,"LOCATION_Y":2683742},"geometry":{"points":[[120.66975904212033,24.257099912508298]]}},{"attributes":{"OBJECTID":997,"STATION_NA":"昆明機車行","COUNTY_NA":"台中縣","ZIPCODE":"423","ADDRESS":"423台中縣東勢鎮豐勢路346號","TEL":"04-25872680","LICENSE_NO":"L09","OWNER":"許耀焜","LOCATION_T":"地址對位","LOCATION_X":231880,"LOCATION_Y":2683338},"geometry":{"points":[[120.82971191854175,24.253714434692206]]}},{"attributes":{"OBJECTID":998,"STATION_NA":"泉宏機車行","COUNTY_NA":"台中縣","ZIPCODE":"423","ADDRESS":"423台中縣東勢鎮東關街640-12號","TEL":"04-25873033","LICENSE_NO":"L10","OWNER":"朱家泉","LOCATION_T":"中華電信","LOCATION_X":232154,"LOCATION_Y":2682434},"geometry":{"points":[[120.83242111352101,24.24555495282226]]}},{"attributes":{"OBJECTID":999,"STATION_NA":"信泰機車行","COUNTY_NA":"台中縣","ZIPCODE":"420","ADDRESS":"423台中縣東勢鎮豐勢路621號","TEL":"04-25875776","LICENSE_NO":"L11","OWNER":"張  群","LOCATION_T":"地址對位","LOCATION_X":222254,"LOCATION_Y":2684101},"geometry":{"points":[[120.73489912008455,24.260469323262978]]}},{"attributes":{"OBJECTID":1000,"STATION_NA":"元富機車有限公司","COUNTY_NA":"台中縣","ZIPCODE":"427","ADDRESS":"427台中縣潭子鄉中山路一段328號","TEL":"04-25336959","LICENSE_NO":"L12","OWNER":"廖建雄","LOCATION_T":"地址對位","LOCATION_X":218971,"LOCATION_Y":2676878},"geometry":{"points":[[120.70271632292545,24.195189312078973]]}}]}