{"displayFieldName":"STATION_NA","fieldAliases":{"OBJECTID":"OBJECTID","STATION_NA":"STATION_NA","COUNTY_NA":"COUNTY_NA","ZIPCODE":"ZIPCODE","ADDRESS":"ADDRESS","TEL":"TEL","LICENSE_NO":"LICENSE_NO","OWNER":"OWNER","LOCATION_T":"LOCATION_T","LOCATION_X":"LOCATION_X","LOCATION_Y":"LOCATION_Y"},"geometryType":"esriGeometryMultipoint","spatialReference":{"wkid":104137},"fields":[{"name":"OBJECTID","type":"esriFieldTypeOID","alias":"OBJECTID"},{"name":"STATION_NA","type":"esriFieldTypeString","alias":"STATION_NA","length":30},{"name":"COUNTY_NA","type":"esriFieldTypeString","alias":"COUNTY_NA","length":6},{"name":"ZIPCODE","type":"esriFieldTypeString","alias":"ZIPCODE","length":4},{"name":"ADDRESS","type":"esriFieldTypeString","alias":"ADDRESS","length":40},{"name":"TEL","type":"esriFieldTypeString","alias":"TEL","length":11},{"name":"LICENSE_NO","type":"esriFieldTypeString","alias":"LICENSE_NO","length":3},{"name":"OWNER","type":"esriFieldTypeString","alias":"OWNER","length":10},{"name":"LOCATION_T","type":"esriFieldTypeString","alias":"LOCATION_T","length":10},{"name":"LOCATION_X","type":"esriFieldTypeDouble","alias":"LOCATION_X"},{"name":"LOCATION_Y","type":"esriFieldTypeDouble","alias":"LOCATION_Y"}],"features":[{"attributes":{"OBJECTID":1001,"STATION_NA":"大龍機車行","COUNTY_NA":"台中縣","ZIPCODE":"427","ADDRESS":"427台中縣潭子鄉中山路二段578號","TEL":"04-25325585","LICENSE_NO":"L13","OWNER":"江素蘭","LOCATION_T":"地址對位","LOCATION_X":219357,"LOCATION_Y":2679602},"geometry":{"points":[[120.70645972254972,24.219793223839112]]}},{"attributes":{"OBJECTID":1002,"STATION_NA":"大明輪業商行","COUNTY_NA":"台中縣","ZIPCODE":"427","ADDRESS":"427台中縣潭子鄉潭子街二段59號","TEL":"04-25367072","LICENSE_NO":"L14","OWNER":"陳張蕊","LOCATION_T":"地址對位","LOCATION_X":219392,"LOCATION_Y":2678799},"geometry":{"points":[[120.70682080677237,24.212543013953578]]}},{"attributes":{"OBJECTID":1003,"STATION_NA":"坤發機車行","COUNTY_NA":"台中縣","ZIPCODE":"427","ADDRESS":"427台中縣潭子鄉中山路二段570號","TEL":"04-25323403","LICENSE_NO":"L15","OWNER":"江金陣","LOCATION_T":"地址對位","LOCATION_X":219353,"LOCATION_Y":2679596},"geometry":{"points":[[120.70642046282541,24.219738967306117]]}},{"attributes":{"OBJECTID":1004,"STATION_NA":"祥僑輪業有限公司","COUNTY_NA":"台中縣","ZIPCODE":"411","ADDRESS":"411台中縣太平市建興路24號","TEL":"04-22795057","LICENSE_NO":"L16","OWNER":"傅金福","LOCATION_T":"地址對位","LOCATION_X":221081,"LOCATION_Y":2669746},"geometry":{"points":[[120.72362633545522,24.130831496397516]]}},{"attributes":{"OBJECTID":1005,"STATION_NA":"全陽輪業有限公司","COUNTY_NA":"台中縣","ZIPCODE":"411","ADDRESS":"411台中縣太平市中興東路5號","TEL":"04-22774568","LICENSE_NO":"L17","OWNER":"林金堆","LOCATION_T":"地址對位","LOCATION_X":220589,"LOCATION_Y":2669596},"geometry":{"points":[[120.71878867952732,24.129468362958026]]}},{"attributes":{"OBJECTID":1006,"STATION_NA":"旺泰益車業有限公司","COUNTY_NA":"台中縣","ZIPCODE":"428","ADDRESS":"428台中縣大雅鄉中清路一段333號","TEL":"04-25664073","LICENSE_NO":"L18","OWNER":"陳永旺","LOCATION_T":"地址對位","LOCATION_X":213517,"LOCATION_Y":2679446},"geometry":{"points":[[120.64896561658058,24.218261545883507]]}},{"attributes":{"OBJECTID":1007,"STATION_NA":"吉富機車行","COUNTY_NA":"台中縣","ZIPCODE":"428","ADDRESS":"428台中縣大雅鄉中清路二段108號","TEL":"04-25668239","LICENSE_NO":"L19","OWNER":"張金真","LOCATION_T":"地址對位","LOCATION_X":213436,"LOCATION_Y":2679976},"geometry":{"points":[[120.64815506705376,24.223045285335267]]}},{"attributes":{"OBJECTID":1008,"STATION_NA":"霧峰伯祥車業有限公司","COUNTY_NA":"台中縣","ZIPCODE":"413","ADDRESS":"413台中縣霧峰鄉本鄉村林森路910號","TEL":"04-23325586","LICENSE_NO":"L20","OWNER":"陳麗真","LOCATION_T":"地址對位","LOCATION_X":218339,"LOCATION_Y":2662973},"geometry":{"points":[[120.69679323604254,24.069626243180835]]}},{"attributes":{"OBJECTID":1009,"STATION_NA":"振森輪業有限公司","COUNTY_NA":"台中縣","ZIPCODE":"413","ADDRESS":"413台中縣霧峰鄉中正路669號","TEL":"04-23394245","LICENSE_NO":"L21","OWNER":"黃永森","LOCATION_T":"地址對位","LOCATION_X":218424,"LOCATION_Y":2661699},"geometry":{"points":[[120.6976556256956,24.058124508524354]]}},{"attributes":{"OBJECTID":1010,"STATION_NA":"誠豐車行有限公司","COUNTY_NA":"台中縣","ZIPCODE":"413","ADDRESS":"413台中縣霧峰鄉中正路1157號","TEL":"04-23393151","LICENSE_NO":"L22","OWNER":"黃碧梧","LOCATION_T":"地址對位","LOCATION_X":218588,"LOCATION_Y":2663078},"geometry":{"points":[[120.69923973636956,24.070579068097572]]}},{"attributes":{"OBJECTID":1011,"STATION_NA":"復輪達輪業有限公司","COUNTY_NA":"台中縣","ZIPCODE":"414","ADDRESS":"414台中縣烏日鄉中山路一段395號","TEL":"04-23377117","LICENSE_NO":"L23","OWNER":"薛國禎","LOCATION_T":"地址對位","LOCATION_X":212439,"LOCATION_Y":2667204},"geometry":{"points":[[120.63866510386039,24.10770384319801]]}},{"attributes":{"OBJECTID":1012,"STATION_NA":"新萬來輪業有限公司","COUNTY_NA":"台中縣","ZIPCODE":"412","ADDRESS":"412台中縣大里市益民路二段337號","TEL":"04-24818355","LICENSE_NO":"L24","OWNER":"賴張秋月","LOCATION_T":"地址對位","LOCATION_X":217016,"LOCATION_Y":2667816},"geometry":{"points":[[120.68367517663931,24.113328577560889]]}},{"attributes":{"OBJECTID":1013,"STATION_NA":"偉達車業有限公司","COUNTY_NA":"台中縣","ZIPCODE":"412","ADDRESS":"412台中縣大里市中興路二段612號","TEL":"04-22860003","LICENSE_NO":"L25","OWNER":"張順良","LOCATION_T":"地址對位","LOCATION_X":217635,"LOCATION_Y":2668062},"geometry":{"points":[[120.68975913097971,24.115562052867602]]}},{"attributes":{"OBJECTID":1014,"STATION_NA":"宏勝機車行","COUNTY_NA":"台中縣","ZIPCODE":"412","ADDRESS":"412台中縣大里市塗城路622號","TEL":"04-24951666","LICENSE_NO":"L26","OWNER":"黃德風","LOCATION_T":"地址對位","LOCATION_X":218702,"LOCATION_Y":2665128},"geometry":{"points":[[120.70031783600044,24.089091172576595]]}},{"attributes":{"OBJECTID":1015,"STATION_NA":"和昌機車行","COUNTY_NA":"台中縣","ZIPCODE":"412","ADDRESS":"412台中縣大里市塗城路329號","TEL":"04-24950375","LICENSE_NO":"L27","OWNER":"楊振和","LOCATION_T":"地址對位","LOCATION_X":219756,"LOCATION_Y":2664793},"geometry":{"points":[[120.7106912837764,24.086086048603352]]}},{"attributes":{"OBJECTID":1016,"STATION_NA":"幸福車行","COUNTY_NA":"台中縣","ZIPCODE":"412","ADDRESS":"412台中縣大里市中興路一段203號","TEL":"04-24921726","LICENSE_NO":"L28","OWNER":"胡萬水","LOCATION_T":"地址對位","LOCATION_X":217953,"LOCATION_Y":2665248},"geometry":{"points":[[120.6929484077635,24.090160291122082]]}},{"attributes":{"OBJECTID":1017,"STATION_NA":"新建隆車業行","COUNTY_NA":"台中縣","ZIPCODE":"436","ADDRESS":"436台中縣清水鎮中華路530號","TEL":"04-26237181","LICENSE_NO":"L29","OWNER":"陳功興","LOCATION_T":"地址對位","LOCATION_X":205720,"LOCATION_Y":2685822},"geometry":{"points":[[120.57200743320145,24.275638856739121]]}},{"attributes":{"OBJECTID":1018,"STATION_NA":"吉雄輪業商行","COUNTY_NA":"台中縣","ZIPCODE":"436","ADDRESS":"436台中縣清水鎮海濱路111之1號","TEL":"04-26225643","LICENSE_NO":"L30","OWNER":"林吉雄","LOCATION_T":"地址對位","LOCATION_X":205383,"LOCATION_Y":2685402},"geometry":{"points":[[120.568700716994,24.271837238442309]]}},{"attributes":{"OBJECTID":1019,"STATION_NA":"金財車業有限公司","COUNTY_NA":"台中縣","ZIPCODE":"436","ADDRESS":"436台中縣清水鎮中山路96號","TEL":"04-26222763","LICENSE_NO":"L31","OWNER":"蔣政諭","LOCATION_T":"地址對位","LOCATION_X":206010,"LOCATION_Y":2684865},"geometry":{"points":[[120.57489259329023,24.267005594498972]]}},{"attributes":{"OBJECTID":1020,"STATION_NA":"德源輪業有限公司","COUNTY_NA":"台中縣","ZIPCODE":"436","ADDRESS":"436台中縣清水鎮中山路396-29號","TEL":"04-26234558","LICENSE_NO":"L32","OWNER":"劉炯同","LOCATION_T":"地址對位","LOCATION_X":206346,"LOCATION_Y":2685946},"geometry":{"points":[[120.57816992094489,24.276775420501089]]}},{"attributes":{"OBJECTID":1021,"STATION_NA":"光倫車業有限公司","COUNTY_NA":"台中縣","ZIPCODE":"421","ADDRESS":"421台中縣后里鄉墩東村民生路187號","TEL":"04-25562602","LICENSE_NO":"L33","OWNER":"張榮達","LOCATION_T":"地址對位","LOCATION_X":220184,"LOCATION_Y":2689128},"geometry":{"points":[[120.71441298779516,24.305821825224161]]}},{"attributes":{"OBJECTID":1022,"STATION_NA":"良發車業有限公司","COUNTY_NA":"台中縣","ZIPCODE":"435","ADDRESS":"435台中縣梧棲鎮居仁街350巷16號","TEL":"04-26563950","LICENSE_NO":"L34","OWNER":"吳常鶯","LOCATION_T":"地址對位","LOCATION_X":201596,"LOCATION_Y":2684108},"geometry":{"points":[[120.5314427883425,24.260043159515103]]}},{"attributes":{"OBJECTID":1023,"STATION_NA":"新輪車業行","COUNTY_NA":"台中縣","ZIPCODE":"433","ADDRESS":"433台中縣沙鹿鎮鎮南路二段413號","TEL":"04-26357655","LICENSE_NO":"L35","OWNER":"王清提","LOCATION_T":"地址對位","LOCATION_X":205144,"LOCATION_Y":2680707},"geometry":{"points":[[120.56649048489115,24.22943744661578]]}},{"attributes":{"OBJECTID":1024,"STATION_NA":"成建機車行","COUNTY_NA":"台中縣","ZIPCODE":"434","ADDRESS":"434台中縣龍井鄉中央路一段262號","TEL":"04-26397373","LICENSE_NO":"L36","OWNER":"陳見財","LOCATION_T":"地址對位","LOCATION_X":200771,"LOCATION_Y":2677783},"geometry":{"points":[[120.52353177020015,24.20290654582363]]}},{"attributes":{"OBJECTID":1025,"STATION_NA":"志誠車業行","COUNTY_NA":"台中縣","ZIPCODE":"432","ADDRESS":"432台中縣大肚鄉沙田路二段752號","TEL":"04-26980057","LICENSE_NO":"L37","OWNER":"何錫蓮","LOCATION_T":"地址對位","LOCATION_X":202924,"LOCATION_Y":2672311},"geometry":{"points":[[120.54490320348147,24.153565319852508]]}},{"attributes":{"OBJECTID":1026,"STATION_NA":"國暐輪業有限公司","COUNTY_NA":"台中縣","ZIPCODE":"439","ADDRESS":"439台中縣大安鄉海墘村大安港路1105號","TEL":"04-26861320","LICENSE_NO":"L38","OWNER":"黃  進","LOCATION_T":"地址對位","LOCATION_X":207433,"LOCATION_Y":2697228},"geometry":{"points":[[120.5885497488146,24.37867063923596]]}},{"attributes":{"OBJECTID":1027,"STATION_NA":"永傳輪業有限公司","COUNTY_NA":"台中縣","ZIPCODE":"437","ADDRESS":"437台中縣大甲鎮中山路一段896號","TEL":"04-26882233","LICENSE_NO":"L39","OWNER":"劉永傳","LOCATION_T":"地址對位","LOCATION_X":211400,"LOCATION_Y":2693882},"geometry":{"points":[[120.62774414453726,24.348561194572184]]}},{"attributes":{"OBJECTID":1028,"STATION_NA":"明德機車行","COUNTY_NA":"台中縣","ZIPCODE":"437","ADDRESS":"437台中縣大甲鎮順天路44號","TEL":"04-26875618","LICENSE_NO":"L40","OWNER":"吳彥霖","LOCATION_T":"地址對位","LOCATION_X":210733,"LOCATION_Y":2693249},"geometry":{"points":[[120.62118770291346,24.342829471597941]]}},{"attributes":{"OBJECTID":1029,"STATION_NA":"新益機車行","COUNTY_NA":"台中縣","ZIPCODE":"437","ADDRESS":"437台中縣大甲鎮信義路275號","TEL":"04-26862103","LICENSE_NO":"L41","OWNER":"張明媚","LOCATION_T":"地址對位","LOCATION_X":210753,"LOCATION_Y":2694333},"geometry":{"points":[[120.62135565729348,24.352617367280796]]}},{"attributes":{"OBJECTID":1030,"STATION_NA":"億豐機車行","COUNTY_NA":"台中縣","ZIPCODE":"437","ADDRESS":"437台中縣大甲鎮中山路一段1243號","TEL":"04-26876607","LICENSE_NO":"L44","OWNER":"蔡木火","LOCATION_T":"地址對位","LOCATION_X":211780,"LOCATION_Y":2694625},"geometry":{"points":[[120.63146965027065,24.355279052458343]]}},{"attributes":{"OBJECTID":1031,"STATION_NA":"久田機車行","COUNTY_NA":"台中縣","ZIPCODE":"437","ADDRESS":"437台中縣大甲鎮中山路一段1265號","TEL":"04-26876183","LICENSE_NO":"L45","OWNER":"鄭漢慶","LOCATION_T":"地址對位","LOCATION_X":211862,"LOCATION_Y":2694677},"geometry":{"points":[[120.63227646271119,24.355750549544556]]}},{"attributes":{"OBJECTID":1032,"STATION_NA":"三富輪業行","COUNTY_NA":"台中縣","ZIPCODE":"437","ADDRESS":"437台中縣大甲鎮順天路5號","TEL":"04-26877986","LICENSE_NO":"L47","OWNER":"莊萬富","LOCATION_T":"地址對位","LOCATION_X":210648,"LOCATION_Y":2693188},"geometry":{"points":[[120.62035168737494,24.342276567019898]]}},{"attributes":{"OBJECTID":1033,"STATION_NA":"吉源機車行","COUNTY_NA":"台中縣","ZIPCODE":"432","ADDRESS":"432台中縣大肚鄉沙田路三段89號","TEL":"04-26992960","LICENSE_NO":"L48","OWNER":"何敏川","LOCATION_T":"地址對位","LOCATION_X":202816,"LOCATION_Y":2672619},"geometry":{"points":[[120.54383051655543,24.156343053991517]]}},{"attributes":{"OBJECTID":1034,"STATION_NA":"草湖機車行","COUNTY_NA":"台中縣","ZIPCODE":"412","ADDRESS":"412台中縣大里市中興路一段153號","TEL":"04-24938848","LICENSE_NO":"L49","OWNER":"謝玉樹","LOCATION_T":"地址對位","LOCATION_X":218325,"LOCATION_Y":2664666},"geometry":{"points":[[120.69661967036768,24.084912485566175]]}},{"attributes":{"OBJECTID":1035,"STATION_NA":"盛偉車業有限公司","COUNTY_NA":"台中縣","ZIPCODE":"412","ADDRESS":"412台中縣大里市中興路一段344號1F","TEL":"04-24939526","LICENSE_NO":"L50","OWNER":"林日景","LOCATION_T":"地址對位","LOCATION_X":217935,"LOCATION_Y":2665350},"geometry":{"points":[[120.69276916431072,24.09108091562511]]}},{"attributes":{"OBJECTID":1036,"STATION_NA":"嘉信機車行","COUNTY_NA":"台中縣","ZIPCODE":"412","ADDRESS":"412台中縣大里市仁化路529號","TEL":"04-24914745","LICENSE_NO":"L51","OWNER":"林姝蓉","LOCATION_T":"地址對位","LOCATION_X":218648,"LOCATION_Y":2665915},"geometry":{"points":[[120.69977008288279,24.096196116354381]]}},{"attributes":{"OBJECTID":1037,"STATION_NA":"德寶機車行","COUNTY_NA":"台中縣","ZIPCODE":"412","ADDRESS":"412台中縣大里市成功路397號1F","TEL":"04-24952714","LICENSE_NO":"L52","OWNER":"黃德寶","LOCATION_T":"地址對位","LOCATION_X":218942,"LOCATION_Y":2665074},"geometry":{"points":[[120.70267950541539,24.088608128958583]]}},{"attributes":{"OBJECTID":1038,"STATION_NA":"正雍車業有限公司","COUNTY_NA":"台中縣","ZIPCODE":"412","ADDRESS":"412台中縣大里市長興一街20號","TEL":"04-24064356","LICENSE_NO":"L53","OWNER":"陳雨源","LOCATION_T":"地址對位","LOCATION_X":216569,"LOCATION_Y":2666216},"geometry":{"points":[[120.67931403388279,24.098872966555344]]}},{"attributes":{"OBJECTID":1039,"STATION_NA":"瑞欣機車行","COUNTY_NA":"台中縣","ZIPCODE":"412","ADDRESS":"412台中縣大里市益民路二段330號","TEL":"04-24811150","LICENSE_NO":"L54","OWNER":"林素桂","LOCATION_T":"地址對位","LOCATION_X":217047,"LOCATION_Y":2667717},"geometry":{"points":[[120.68398234329713,24.112435318063078]]}},{"attributes":{"OBJECTID":1040,"STATION_NA":"松岳車業有限公司","COUNTY_NA":"台中縣","ZIPCODE":"412","ADDRESS":"412台中縣大里市塗城路491號1F","TEL":"04-24925080","LICENSE_NO":"L55","OWNER":"藍月英","LOCATION_T":"地址對位","LOCATION_X":219323,"LOCATION_Y":2664911},"geometry":{"points":[[120.70643018106028,24.087143499535642]]}},{"attributes":{"OBJECTID":1041,"STATION_NA":"正成車行","COUNTY_NA":"台中縣","ZIPCODE":"428","ADDRESS":"428台中縣大雅鄉中清路二段59號","TEL":"04-25662066","LICENSE_NO":"L56","OWNER":"張正雄","LOCATION_T":"地址對位","LOCATION_X":213423,"LOCATION_Y":2679832},"geometry":{"points":[[120.64803061909925,24.221744761985178]]}},{"attributes":{"OBJECTID":1042,"STATION_NA":"太三車業有限公司","COUNTY_NA":"台中縣","ZIPCODE":"428","ADDRESS":"428台中縣大雅鄉民生路三段115號","TEL":"04-25660150","LICENSE_NO":"L57","OWNER":"張謝麗卿","LOCATION_T":"地址對位","LOCATION_X":214508,"LOCATION_Y":2680896},"geometry":{"points":[[120.65868790501007,24.231376713590564]]}},{"attributes":{"OBJECTID":1043,"STATION_NA":"源順機車行","COUNTY_NA":"台中縣","ZIPCODE":"411","ADDRESS":"411台中縣太平市中山路二段134號","TEL":"04-23931236","LICENSE_NO":"L58","OWNER":"彭秋鳳","LOCATION_T":"地址對位","LOCATION_X":222190,"LOCATION_Y":2671764},"geometry":{"points":[[120.7344994793319,24.149071752042985]]}},{"attributes":{"OBJECTID":1044,"STATION_NA":"鴻騏車行","COUNTY_NA":"台中縣","ZIPCODE":"411","ADDRESS":"411台中縣太平市中山路三段134號","TEL":"04-23910738","LICENSE_NO":"L59","OWNER":"王嘉正","LOCATION_T":"地址對位","LOCATION_X":220562,"LOCATION_Y":2671763},"geometry":{"points":[[120.71847977271322,24.149034186017371]]}},{"attributes":{"OBJECTID":1045,"STATION_NA":"尚億機車行","COUNTY_NA":"台中縣","ZIPCODE":"411","ADDRESS":"411台中縣太平市中山路四段158號","TEL":"04-23951611","LICENSE_NO":"L60","OWNER":"沈西村","LOCATION_T":"地址對位","LOCATION_X":219061,"LOCATION_Y":2671686},"geometry":{"points":[[120.70371139209307,24.148311202192907]]}},{"attributes":{"OBJECTID":1046,"STATION_NA":"嘉欣機車行","COUNTY_NA":"台中縣","ZIPCODE":"411","ADDRESS":"411台中縣太平市光興路1438號","TEL":"04-22704770","LICENSE_NO":"L61","OWNER":"林秋輝","LOCATION_T":"地址對位","LOCATION_X":222082,"LOCATION_Y":2668380},"geometry":{"points":[[120.73350058856271,24.11851497912777]]}},{"attributes":{"OBJECTID":1047,"STATION_NA":"直興輪業有限公司","COUNTY_NA":"台中縣","ZIPCODE":"411","ADDRESS":"411台中縣太平市長億路60號","TEL":"04-22709869","LICENSE_NO":"L62","OWNER":"何重金","LOCATION_T":"地址對位","LOCATION_X":220610,"LOCATION_Y":2668313},"geometry":{"points":[[120.71902079804271,24.117884298832948]]}},{"attributes":{"OBJECTID":1048,"STATION_NA":"吉隆輪業商行","COUNTY_NA":"台中縣","ZIPCODE":"411","ADDRESS":"411台中縣太平市新平路二段93號","TEL":"04-22777726","LICENSE_NO":"L63","OWNER":"陳桂妹","LOCATION_T":"地址對位","LOCATION_X":220201,"LOCATION_Y":2670563},"geometry":{"points":[[120.71495176976823,24.138192483911574]]}},{"attributes":{"OBJECTID":1049,"STATION_NA":"葳晟車業有限公司","COUNTY_NA":"台中縣","ZIPCODE":"421","ADDRESS":"421台中縣后里鄉三豐路38-10號","TEL":"04-25562020","LICENSE_NO":"L64","OWNER":"周榮傑","LOCATION_T":"地址對位","LOCATION_X":221072,"LOCATION_Y":2688540},"geometry":{"points":[[120.72317296126651,24.30052916917867]]}},{"attributes":{"OBJECTID":1050,"STATION_NA":"三豐車業有限公司","COUNTY_NA":"台中縣","ZIPCODE":"421","ADDRESS":"421台中縣后里鄉三豐路38-4號","TEL":"04-25564851","LICENSE_NO":"L65","OWNER":"謝春月","LOCATION_T":"地址對位","LOCATION_X":221074,"LOCATION_Y":2688518},"geometry":{"points":[[120.72319308971413,24.300330559079267]]}},{"attributes":{"OBJECTID":1051,"STATION_NA":"福聯輪業有限公司","COUNTY_NA":"台中縣","ZIPCODE":"421","ADDRESS":"421台中縣后里鄉文明路101號","TEL":"04-25560960","LICENSE_NO":"L66","OWNER":"陳瑚","LOCATION_T":"地址對位","LOCATION_X":220469,"LOCATION_Y":2689226},"geometry":{"points":[[120.71721889252828,24.306712124341296]]}},{"attributes":{"OBJECTID":1052,"STATION_NA":"永益機車行","COUNTY_NA":"台中縣","ZIPCODE":"421","ADDRESS":"421台中縣后里鄉甲后路699號","TEL":"04-25565042","LICENSE_NO":"L67","OWNER":"王文財","LOCATION_T":"地址對位","LOCATION_X":219700,"LOCATION_Y":2689679},"geometry":{"points":[[120.70963336196358,24.310787757646075]]}},{"attributes":{"OBJECTID":1053,"STATION_NA":"高輪機車行","COUNTY_NA":"台中縣","ZIPCODE":"433","ADDRESS":"433台中縣沙鹿鎮沙田路71號","TEL":"04-26625123","LICENSE_NO":"L68","OWNER":"林金葉","LOCATION_T":"地址對位","LOCATION_X":204331,"LOCATION_Y":2681175},"geometry":{"points":[[120.55847070636327,24.233640271971876]]}},{"attributes":{"OBJECTID":1054,"STATION_NA":"吳金龍機車行","COUNTY_NA":"台中縣","ZIPCODE":"433","ADDRESS":"433台中縣沙鹿鎮鎮南路二段243號","TEL":"04-26355604","LICENSE_NO":"L70","OWNER":"賴秀琴","LOCATION_T":"地址對位","LOCATION_X":205350,"LOCATION_Y":2680037},"geometry":{"points":[[120.56853939478447,24.223393459903829]]}},{"attributes":{"OBJECTID":1055,"STATION_NA":"坤晁車業有限公司","COUNTY_NA":"台中縣","ZIPCODE":"423","ADDRESS":"423台中縣東勢鎮豐勢路300號","TEL":"04-25873066","LICENSE_NO":"L71","OWNER":"劉坤兆","LOCATION_T":"地址對位","LOCATION_X":231904,"LOCATION_Y":2683211},"geometry":{"points":[[120.82994980955118,24.252567982104825]]}},{"attributes":{"OBJECTID":1056,"STATION_NA":"永明機車行","COUNTY_NA":"台中縣","ZIPCODE":"423","ADDRESS":"423台中縣東勢鎮豐勢路304號","TEL":"04-25872789","LICENSE_NO":"L72","OWNER":"劉敏芝","LOCATION_T":"地址對位","LOCATION_X":231903,"LOCATION_Y":2683220},"geometry":{"points":[[120.82993985339326,24.252649237866262]]}},{"attributes":{"OBJECTID":1057,"STATION_NA":"永鴻輪業商行","COUNTY_NA":"台中縣","ZIPCODE":"414","ADDRESS":"414台中縣烏日鄉中山路二段162號","TEL":"04-23371718","LICENSE_NO":"L73","OWNER":"黃陳菊雲","LOCATION_T":"地址對位","LOCATION_X":211014,"LOCATION_Y":2667070},"geometry":{"points":[[120.62465100067588,24.10646028369236]]}},{"attributes":{"OBJECTID":1058,"STATION_NA":"萬豐機車行","COUNTY_NA":"台中縣","ZIPCODE":"429","ADDRESS":"429台中縣神岡鄉中山路1303號","TEL":"04-25623702","LICENSE_NO":"L74","OWNER":"王萬福","LOCATION_T":"地址對位","LOCATION_X":215117,"LOCATION_Y":2683843},"geometry":{"points":[[120.66461576425834,24.258000033265709]]}},{"attributes":{"OBJECTID":1059,"STATION_NA":"華南輪業行","COUNTY_NA":"台中縣","ZIPCODE":"429","ADDRESS":"429台中縣神岡鄉民生路32-1號","TEL":"04-25625275","LICENSE_NO":"L75","OWNER":"陳啟崇","LOCATION_T":"地址對位","LOCATION_X":216792,"LOCATION_Y":2682463},"geometry":{"points":[[120.68114259672484,24.245576520883663]]}},{"attributes":{"OBJECTID":1060,"STATION_NA":"良安機車有限公司","COUNTY_NA":"台中縣","ZIPCODE":"435","ADDRESS":"435台中縣梧棲鎮民生街93號","TEL":"04-26563267","LICENSE_NO":"L76","OWNER":"陳黃淑蘭","LOCATION_T":"地址對位","LOCATION_X":201346,"LOCATION_Y":2683469},"geometry":{"points":[[120.52900190951969,24.254265589228712]]}},{"attributes":{"OBJECTID":1061,"STATION_NA":"祥益機車行","COUNTY_NA":"台中縣","ZIPCODE":"435","ADDRESS":"435台中縣梧棲鎮中棲路一段525巷32號","TEL":"04-26560098","LICENSE_NO":"L77","OWNER":"鄭秀滿","LOCATION_T":"地址對位","LOCATION_X":203080,"LOCATION_Y":2682449},"geometry":{"points":[[120.54611151134054,24.245107590186993]]}},{"attributes":{"OBJECTID":1062,"STATION_NA":"東昌機車行","COUNTY_NA":"台中縣","ZIPCODE":"435","ADDRESS":"435台中縣梧棲鎮中棲路一段670號","TEL":"04-26565688","LICENSE_NO":"L78","OWNER":"蔡武次","LOCATION_T":"地址對位","LOCATION_X":202799,"LOCATION_Y":2682740},"geometry":{"points":[[120.54333494396813,24.24772687617887]]}},{"attributes":{"OBJECTID":1063,"STATION_NA":"大展機車行","COUNTY_NA":"台中縣","ZIPCODE":"435","ADDRESS":"435台中縣梧棲鎮文昌路551號","TEL":"04-26561349","LICENSE_NO":"L79","OWNER":"阮秀足","LOCATION_T":"地址對位","LOCATION_X":202192,"LOCATION_Y":2682455},"geometry":{"points":[[120.53736670433605,24.245135301321785]]}},{"attributes":{"OBJECTID":1064,"STATION_NA":"金倫車業有限公司","COUNTY_NA":"台中縣","ZIPCODE":"436","ADDRESS":"436台中縣清水鎮五權路28號","TEL":"04-26261919","LICENSE_NO":"L80","OWNER":"陳鄭雲雀","LOCATION_T":"地址對位","LOCATION_X":205540,"LOCATION_Y":2685908},"geometry":{"points":[[120.57023181297158,24.27641046061931]]}},{"attributes":{"OBJECTID":1065,"STATION_NA":"華陽機車行","COUNTY_NA":"台中縣","ZIPCODE":"436","ADDRESS":"436台中縣清水鎮海濱路257-2號","TEL":"04-26265185","LICENSE_NO":"L81","OWNER":"陳釵","LOCATION_T":"地址對位","LOCATION_X":203970,"LOCATION_Y":2686313},"geometry":{"points":[[120.55475437480708,24.280023504878002]]}},{"attributes":{"OBJECTID":1066,"STATION_NA":"興松機車行","COUNTY_NA":"台中縣","ZIPCODE":"426","ADDRESS":"426台中縣新社鄉新社村興安路39號","TEL":"04-25817668","LICENSE_NO":"L82","OWNER":"許丙松","LOCATION_T":"地址對位","LOCATION_X":229801,"LOCATION_Y":2682039},"geometry":{"points":[[120.80925483091757,24.241961003413866]]}},{"attributes":{"OBJECTID":1067,"STATION_NA":"岱億機車行","COUNTY_NA":"台中縣","ZIPCODE":"427","ADDRESS":"427台中縣潭子鄉中山路一段272號","TEL":"04-25320819","LICENSE_NO":"L83","OWNER":"王秀月","LOCATION_T":"地址對位","LOCATION_X":218976,"LOCATION_Y":2676631},"geometry":{"points":[[120.70277073575113,24.192959170989962]]}},{"attributes":{"OBJECTID":1068,"STATION_NA":"協昌機車行","COUNTY_NA":"台中縣","ZIPCODE":"427","ADDRESS":"427台中縣潭子鄉中山路二段465號","TEL":"04-25321495","LICENSE_NO":"L84","OWNER":"陳萬順","LOCATION_T":"地址對位","LOCATION_X":219210,"LOCATION_Y":2679105},"geometry":{"points":[[120.70502269596354,24.215302628904421]]}},{"attributes":{"OBJECTID":1069,"STATION_NA":"忠興輪業行","COUNTY_NA":"台中縣","ZIPCODE":"427","ADDRESS":"427台中縣潭子鄉雅潭路二段222號","TEL":"04-25320808","LICENSE_NO":"L85","OWNER":"廖進忠","LOCATION_T":"地址對位","LOCATION_X":217904,"LOCATION_Y":2679194},"geometry":{"points":[[120.69216303042597,24.216080647581794]]}},{"attributes":{"OBJECTID":1070,"STATION_NA":"德旺機車行","COUNTY_NA":"台中縣","ZIPCODE":"434","ADDRESS":"434台中縣龍井鄉中央路一段212巷24弄2號","TEL":"04-26395039","LICENSE_NO":"L86","OWNER":"徐秋旺","LOCATION_T":"地址對位","LOCATION_X":200883,"LOCATION_Y":2677619},"geometry":{"points":[[120.52463987716898,24.201429269086013]]}},{"attributes":{"OBJECTID":1071,"STATION_NA":"發成機車行","COUNTY_NA":"台中縣","ZIPCODE":"434","ADDRESS":"434台中縣龍井鄉新興路79號","TEL":"04-26315844","LICENSE_NO":"L87","OWNER":"陳月雲","LOCATION_T":"地址對位","LOCATION_X":207027,"LOCATION_Y":2675419},"geometry":{"points":[[120.58518722155964,24.181742789311091]]}},{"attributes":{"OBJECTID":1072,"STATION_NA":"全德機車行","COUNTY_NA":"台中縣","ZIPCODE":"420","ADDRESS":"420台中縣豐原市文賢街201號","TEL":"04-25226691","LICENSE_NO":"L88","OWNER":"王德雄","LOCATION_T":"地址對位","LOCATION_X":220170,"LOCATION_Y":2683760},"geometry":{"points":[[120.71438158669453,24.257353913744332]]}},{"attributes":{"OBJECTID":1073,"STATION_NA":"福山輪業行","COUNTY_NA":"台中縣","ZIPCODE":"420","ADDRESS":"420台中縣豐原市成功路263號","TEL":"04-25270081","LICENSE_NO":"L89","OWNER":"范英璋","LOCATION_T":"地址對位","LOCATION_X":219457,"LOCATION_Y":2682591},"geometry":{"points":[[120.70738345212956,24.246785305980261]]}},{"attributes":{"OBJECTID":1074,"STATION_NA":"海讌車業有限公司","COUNTY_NA":"台中縣","ZIPCODE":"420","ADDRESS":"420台中縣豐原市忠孝街95號","TEL":"04-25266045","LICENSE_NO":"L90","OWNER":"楊吉章","LOCATION_T":"地址對位","LOCATION_X":220324,"LOCATION_Y":2683368},"geometry":{"points":[[120.71590592455998,24.253817182020519]]}},{"attributes":{"OBJECTID":1075,"STATION_NA":"桐林機車行","COUNTY_NA":"台中縣","ZIPCODE":"420","ADDRESS":"420台中縣豐原市圓環東路209號","TEL":"04-25263572","LICENSE_NO":"L91","OWNER":"尤桐林","LOCATION_T":"地址對位","LOCATION_X":220870,"LOCATION_Y":2682230},"geometry":{"points":[[120.72130487481998,24.243551264823736]]}},{"attributes":{"OBJECTID":1076,"STATION_NA":"萬國輪業商行","COUNTY_NA":"台中縣","ZIPCODE":"420","ADDRESS":"420台中縣豐原市豐東路24-1號","TEL":"04-25226307","LICENSE_NO":"L92","OWNER":"周秀玲","LOCATION_T":"地址對位","LOCATION_X":221607,"LOCATION_Y":2682436},"geometry":{"points":[[120.72855839474431,24.245424193262725]]}},{"attributes":{"OBJECTID":1077,"STATION_NA":"東億機車零件社","COUNTY_NA":"台中縣","ZIPCODE":"420","ADDRESS":"420台中縣豐原市豐勢路二段3號","TEL":"04-25272648","LICENSE_NO":"L93","OWNER":"邱志忠","LOCATION_T":"地址對位","LOCATION_X":222360,"LOCATION_Y":2684155},"geometry":{"points":[[120.73594207872318,24.260958687551966]]}},{"attributes":{"OBJECTID":1078,"STATION_NA":"佳億機車行","COUNTY_NA":"台中縣","ZIPCODE":"437","ADDRESS":"437台中縣大甲鎮中山路一段596號","TEL":"04-26860866","LICENSE_NO":"L94","OWNER":"劉佳興","LOCATION_T":"地址對位","LOCATION_X":210672,"LOCATION_Y":2693137},"geometry":{"points":[[120.6205895754411,24.341816695426552]]}},{"attributes":{"OBJECTID":1079,"STATION_NA":"順盛機車行","COUNTY_NA":"台中縣","ZIPCODE":"437","ADDRESS":"437台中縣大甲鎮西岐里順帆路92之2號","TEL":"04-26812254","LICENSE_NO":"L95","OWNER":"鄭文欽","LOCATION_T":"地址對位","LOCATION_X":211567,"LOCATION_Y":2701787},"geometry":{"points":[[120.62918162857098,24.419940337831921]]}},{"attributes":{"OBJECTID":1080,"STATION_NA":"豐正機車行","COUNTY_NA":"台中縣","ZIPCODE":"437","ADDRESS":"437台中縣大甲鎮順天路30號","TEL":"04-26875957","LICENSE_NO":"L96","OWNER":"周翰聰","LOCATION_T":"地址對位","LOCATION_X":210717,"LOCATION_Y":2693223},"geometry":{"points":[[120.62103072330808,24.342594315453731]]}},{"attributes":{"OBJECTID":1081,"STATION_NA":"上弘車業有限公司","COUNTY_NA":"台中縣","ZIPCODE":"437","ADDRESS":"437台中縣大甲鎮黎明路3-1號","TEL":"04-26820888","LICENSE_NO":"L97","OWNER":"林銘淵","LOCATION_T":"地址對位","LOCATION_X":214064,"LOCATION_Y":2698576},"geometry":{"points":[[120.65388360371018,24.391006574058963]]}},{"attributes":{"OBJECTID":1082,"STATION_NA":"佳和輪業有限公司","COUNTY_NA":"台中縣","ZIPCODE":"437","ADDRESS":"437台中縣大甲鎮興安路54-1號","TEL":"04-26866153","LICENSE_NO":"L98","OWNER":"王鵬","LOCATION_T":"地址對位","LOCATION_X":210171,"LOCATION_Y":2693786},"geometry":{"points":[[120.61563468477303,24.347663771265236]]}},{"attributes":{"OBJECTID":1083,"STATION_NA":"吉昌機車行","COUNTY_NA":"台中縣","ZIPCODE":"437","ADDRESS":"437台中縣大甲鎮信義路105號","TEL":"04-26873190","LICENSE_NO":"L99","OWNER":"孟曾吉","LOCATION_T":"地址對位","LOCATION_X":210585,"LOCATION_Y":2693887},"geometry":{"points":[[120.61971198416998,24.348586200510677]]}},{"attributes":{"OBJECTID":1084,"STATION_NA":"欣昌機車行","COUNTY_NA":"台中縣","ZIPCODE":"439","ADDRESS":"439台中縣大安鄉中山南路458號","TEL":"04-26712353","LICENSE_NO":"LA0","OWNER":"蔡裕騫","LOCATION_T":"地址對位","LOCATION_X":207011,"LOCATION_Y":2694004},"geometry":{"points":[[120.58448561059694,24.34954808783289]]}},{"attributes":{"OBJECTID":1085,"STATION_NA":"永任機車行","COUNTY_NA":"台中縣","ZIPCODE":"432","ADDRESS":"432台中縣大肚鄉王田村沙田路一段77號","TEL":"04-26933568","LICENSE_NO":"LA1","OWNER":"李國鐘","LOCATION_T":"地址對位","LOCATION_X":206205,"LOCATION_Y":2668392},"geometry":{"points":[[120.57730641500551,24.118273532900382]]}},{"attributes":{"OBJECTID":1086,"STATION_NA":"永甦機車行","COUNTY_NA":"台中縣","ZIPCODE":"432","ADDRESS":"432台中縣大肚鄉蔗　村遊園路二段89號","TEL":"04-26911683","LICENSE_NO":"LA2","OWNER":"陳何麗紅","LOCATION_T":"地址對位","LOCATION_X":206471,"LOCATION_Y":2674211},"geometry":{"points":[[120.57975079326187,24.170820961985406]]}},{"attributes":{"OBJECTID":1087,"STATION_NA":"春成機車行","COUNTY_NA":"台中縣","ZIPCODE":"412","ADDRESS":"412台中縣大里市大元村國中路310號","TEL":"04-24064006","LICENSE_NO":"LA3","OWNER":"劉江泉","LOCATION_T":"地址對位","LOCATION_X":216546,"LOCATION_Y":2665844},"geometry":{"points":[[120.67909620399257,24.095513665557753]]}},{"attributes":{"OBJECTID":1088,"STATION_NA":"勝達機車行","COUNTY_NA":"台中縣","ZIPCODE":"412","ADDRESS":"412台中縣大里市中興路一段268號1F","TEL":"04-24934221","LICENSE_NO":"LA4","OWNER":"林妙齡","LOCATION_T":"地址對位","LOCATION_X":218329,"LOCATION_Y":2664832},"geometry":{"points":[[120.69665548147178,24.08641141405716]]}},{"attributes":{"OBJECTID":1089,"STATION_NA":"吉發機車行","COUNTY_NA":"台中縣","ZIPCODE":"412","ADDRESS":"412台中縣大里市內新里中興路二段552號","TEL":"04-24860171","LICENSE_NO":"LA5","OWNER":"余林碧霜","LOCATION_T":"地址對位","LOCATION_X":217652,"LOCATION_Y":2667874},"geometry":{"points":[[120.68993048683851,24.113864916433897]]}},{"attributes":{"OBJECTID":1090,"STATION_NA":"泰興車行","COUNTY_NA":"台中縣","ZIPCODE":"412","ADDRESS":"412台中縣大里市中興路二段866號","TEL":"04-24866789","LICENSE_NO":"LA6","OWNER":"劉明潭","LOCATION_T":"地址對位","LOCATION_X":217295,"LOCATION_Y":2668716},"geometry":{"points":[[120.68639987077927,24.121460342893474]]}},{"attributes":{"OBJECTID":1091,"STATION_NA":"大暉輪業有限公司","COUNTY_NA":"台中縣","ZIPCODE":"412","ADDRESS":"412台中縣大里市仁化村仁化路392號","TEL":"04-24919956","LICENSE_NO":"LA7","OWNER":"林秀香","LOCATION_T":"地址對位","LOCATION_X":219297,"LOCATION_Y":2665855},"geometry":{"points":[[120.70615493159112,24.095666585744372]]}},{"attributes":{"OBJECTID":1092,"STATION_NA":"太山輪業商行","COUNTY_NA":"台中縣","ZIPCODE":"412","ADDRESS":"412台中縣大里市東里路18號1F","TEL":"04-24061489","LICENSE_NO":"LA8","OWNER":"周晉弘","LOCATION_T":"地址對位","LOCATION_X":216497,"LOCATION_Y":2665993},"geometry":{"points":[[120.67861087096487,24.096858004026014]]}},{"attributes":{"OBJECTID":1093,"STATION_NA":"高士車業行","COUNTY_NA":"台中縣","ZIPCODE":"412","ADDRESS":"412台中縣大里市國光路2段386號1F","TEL":"04-24820061","LICENSE_NO":"LA9","OWNER":"張永順","LOCATION_T":"地址對位","LOCATION_X":216674,"LOCATION_Y":2667310},"geometry":{"points":[[120.68032220334258,24.108752941545511]]}},{"attributes":{"OBJECTID":1094,"STATION_NA":"昌隆機車行","COUNTY_NA":"台中縣","ZIPCODE":"428","ADDRESS":"428台中縣大雅鄉中清路一段200號","TEL":"04-25660637","LICENSE_NO":"LB0","OWNER":"楊清田","LOCATION_T":"地址對位","LOCATION_X":213605,"LOCATION_Y":2679014},"geometry":{"points":[[120.64984261123385,24.214362821420792]]}},{"attributes":{"OBJECTID":1095,"STATION_NA":"志昌機車行","COUNTY_NA":"台中縣","ZIPCODE":"411","ADDRESS":"411台中縣太平市大源2街30號","TEL":"04-23927705","LICENSE_NO":"LB1","OWNER":"張基深","LOCATION_T":"地址對位","LOCATION_X":221188,"LOCATION_Y":2671297},"geometry":{"points":[[120.72464880160454,24.144837716058078]]}},{"attributes":{"OBJECTID":1096,"STATION_NA":"宏威機車行","COUNTY_NA":"台中縣","ZIPCODE":"411","ADDRESS":"411台中縣太平市中山路二段67號","TEL":"04-23925968","LICENSE_NO":"LB2","OWNER":"陳書聖","LOCATION_T":"地址對位","LOCATION_X":222095,"LOCATION_Y":2671546},"geometry":{"points":[[120.73356879159246,24.147101748936269]]}},{"attributes":{"OBJECTID":1097,"STATION_NA":"成龍機車行","COUNTY_NA":"台中縣","ZIPCODE":"411","ADDRESS":"411台中縣太平市中山路二段175號","TEL":"04-23933028","LICENSE_NO":"LB3","OWNER":"彭新龍","LOCATION_T":"地址對位","LOCATION_X":222147,"LOCATION_Y":2671806},"geometry":{"points":[[120.7340755631228,24.1494502497846]]}},{"attributes":{"OBJECTID":1098,"STATION_NA":"信豪機車行","COUNTY_NA":"台中縣","ZIPCODE":"411","ADDRESS":"411台中縣太平市中山路二段539號1F","TEL":"04-23923923","LICENSE_NO":"LB4","OWNER":"張春花","LOCATION_T":"地址對位","LOCATION_X":221209,"LOCATION_Y":2671808},"geometry":{"points":[[120.72484544814976,24.1494520391165]]}},{"attributes":{"OBJECTID":1099,"STATION_NA":"永久機車行","COUNTY_NA":"台中縣","ZIPCODE":"411","ADDRESS":"411台中縣太平市中山路三段180號","TEL":"04-23918375","LICENSE_NO":"LB5","OWNER":"劉永欽","LOCATION_T":"地址對位","LOCATION_X":220433,"LOCATION_Y":2671745},"geometry":{"points":[[120.71721075581625,24.148869328323972]]}},{"attributes":{"OBJECTID":1100,"STATION_NA":"建利機車零件廠","COUNTY_NA":"台中縣","ZIPCODE":"411","ADDRESS":"411台中縣太平市中興里太平路628號","TEL":"04-22784369","LICENSE_NO":"LB6","OWNER":"何建堂","LOCATION_T":"地址對位","LOCATION_X":219911,"LOCATION_Y":2669250},"geometry":{"points":[[120.71212517159681,24.12633195450562]]}},{"attributes":{"OBJECTID":1101,"STATION_NA":"三和機車行","COUNTY_NA":"台中縣","ZIPCODE":"411","ADDRESS":"411台中縣太平市中興路89號1F","TEL":"04-22707302","LICENSE_NO":"LB7","OWNER":"林慶河","LOCATION_T":"地址對位","LOCATION_X":220325,"LOCATION_Y":2669374},"geometry":{"points":[[120.71619575519505,24.12745912232975]]}},{"attributes":{"OBJECTID":1102,"STATION_NA":"捍族機車商行","COUNTY_NA":"台中縣","ZIPCODE":"411","ADDRESS":"411台中縣太平市中興東路348號","TEL":"04-22762611","LICENSE_NO":"LB8","OWNER":"王麗端","LOCATION_T":"地址對位","LOCATION_X":221381,"LOCATION_Y":2670073},"geometry":{"points":[[120.72657161515006,24.133789324629689]]}},{"attributes":{"OBJECTID":1103,"STATION_NA":"旭鴻機車行","COUNTY_NA":"台中縣","ZIPCODE":"411","ADDRESS":"411台中縣太平市太平路241號","TEL":"04-22763726","LICENSE_NO":"LB9","OWNER":"柯煌裕","LOCATION_T":"地址對位","LOCATION_X":219681,"LOCATION_Y":2669350},"geometry":{"points":[[120.70986029508309,24.127230638188447]]}},{"attributes":{"OBJECTID":1104,"STATION_NA":"弘盛機車行","COUNTY_NA":"台中縣","ZIPCODE":"411","ADDRESS":"411台中縣太平市光華里大興路187號","TEL":"04-23924109","LICENSE_NO":"LC0","OWNER":"廖文德","LOCATION_T":"地址對位","LOCATION_X":222089,"LOCATION_Y":2672538},"geometry":{"points":[[120.73349096620137,24.156058694304896]]}},{"attributes":{"OBJECTID":1105,"STATION_NA":"正大機車行","COUNTY_NA":"台中縣","ZIPCODE":"411","ADDRESS":"411台中縣太平市光隆村光興路1038號","TEL":"04-22782967","LICENSE_NO":"LC1","OWNER":"陳文南","LOCATION_T":"地址對位","LOCATION_X":221795,"LOCATION_Y":2667599},"geometry":{"points":[[120.73069201131744,24.111458257651464]]}},{"attributes":{"OBJECTID":1106,"STATION_NA":"好馬機車行","COUNTY_NA":"台中縣","ZIPCODE":"411","ADDRESS":"411台中縣太平市宜昌路391號1F","TEL":"04-22704783","LICENSE_NO":"LC2","OWNER":"蔡坤龍","LOCATION_T":"中華電信","LOCATION_X":220095,"LOCATION_Y":2671345},"geometry":{"points":[[120.71389293126953,24.145251481740182]]}},{"attributes":{"OBJECTID":1107,"STATION_NA":"河山機車行","COUNTY_NA":"台中縣","ZIPCODE":"438","ADDRESS":"438台中縣外埔鄉大東村甲后路725號","TEL":"04-26874835","LICENSE_NO":"LC3","OWNER":"古河山","LOCATION_T":"地址對位","LOCATION_X":212372,"LOCATION_Y":2693204},"geometry":{"points":[[120.63734108575696,24.342462167856414]]}},{"attributes":{"OBJECTID":1108,"STATION_NA":"忠益機車行","COUNTY_NA":"台中縣","ZIPCODE":"422","ADDRESS":"422台中縣石岡鄉豐勢路1131號1F","TEL":"04-25722281","LICENSE_NO":"LC4","OWNER":"林浪益","LOCATION_T":"中華電信","LOCATION_X":226471,"LOCATION_Y":2685860},"geometry":{"points":[[120.776403240815,24.276417567589743]]}},{"attributes":{"OBJECTID":1109,"STATION_NA":"光輝機車行","COUNTY_NA":"台中縣","ZIPCODE":"421","ADDRESS":"421台中縣后里鄉三豐路287號","TEL":"04-25562809","LICENSE_NO":"LC5","OWNER":"陳光輝","LOCATION_T":"地址對位","LOCATION_X":220958,"LOCATION_Y":2689392},"geometry":{"points":[[120.72203336251545,24.308220174697915]]}},{"attributes":{"OBJECTID":1110,"STATION_NA":"明輝機車行","COUNTY_NA":"台中縣","ZIPCODE":"421","ADDRESS":"421台中縣后里鄉民生路35號","TEL":"04-25563042","LICENSE_NO":"LC6","OWNER":"郭張戀英","LOCATION_T":"地址對位","LOCATION_X":220432,"LOCATION_Y":2689462},"geometry":{"points":[[120.71684969036045,24.308842413044292]]}},{"attributes":{"OBJECTID":1111,"STATION_NA":"明元機車行","COUNTY_NA":"台中縣","ZIPCODE":"421","ADDRESS":"421台中縣后里鄉厚里村甲后路514號1F","TEL":"04-25564776","LICENSE_NO":"LC7","OWNER":"賴美珠","LOCATION_T":"地址對位","LOCATION_X":220657,"LOCATION_Y":2689537},"geometry":{"points":[[120.7190649867642,24.309523858846674]]}},{"attributes":{"OBJECTID":1112,"STATION_NA":"正峰機車行","COUNTY_NA":"台中縣","ZIPCODE":"421","ADDRESS":"421台中縣后里鄉樂業村甲后路867號1F","TEL":"04-25563651","LICENSE_NO":"LC8","OWNER":"徐基峰","LOCATION_T":"地址對位","LOCATION_X":218040,"LOCATION_Y":2689983},"geometry":{"points":[[120.69327142706659,24.313498957292669]]}},{"attributes":{"OBJECTID":1113,"STATION_NA":"揚益機車行","COUNTY_NA":"台中縣","ZIPCODE":"421","ADDRESS":"421台中縣后里鄉眉山村甲后路989號1F","TEL":"04-25567999","LICENSE_NO":"LC9","OWNER":"徐沈寶霞","LOCATION_T":"地址對位","LOCATION_X":217785,"LOCATION_Y":2690038},"geometry":{"points":[[120.69075772161042,24.313990196910765]]}},{"attributes":{"OBJECTID":1114,"STATION_NA":"內埔機車行","COUNTY_NA":"台中縣","ZIPCODE":"421","ADDRESS":"421台中縣后里鄉墩東村文化路43號","TEL":"04-25563797","LICENSE_NO":"LD0","OWNER":"蔡嘉苓","LOCATION_T":"地址對位","LOCATION_X":220170,"LOCATION_Y":2689278},"geometry":{"points":[[120.71427206383235,24.307175998144199]]}},{"attributes":{"OBJECTID":1115,"STATION_NA":"申瑋車業有限公司","COUNTY_NA":"台中縣","ZIPCODE":"433","ADDRESS":"433台中縣沙鹿鎮中山路477之9號","TEL":"04-26631750","LICENSE_NO":"LD1","OWNER":"林蔡麗玉","LOCATION_T":"地址對位","LOCATION_X":204669,"LOCATION_Y":2682411},"geometry":{"points":[[120.56176048020596,24.244810346017932]]}},{"attributes":{"OBJECTID":1116,"STATION_NA":"大統機車行","COUNTY_NA":"台中縣","ZIPCODE":"433","ADDRESS":"433台中縣沙鹿鎮光華路320號","TEL":"04-26652729","LICENSE_NO":"LD2","OWNER":"王武杉","LOCATION_T":"地址對位","LOCATION_X":205015,"LOCATION_Y":2682087},"geometry":{"points":[[120.5651777085472,24.241894541686449]]}},{"attributes":{"OBJECTID":1117,"STATION_NA":"全營機車行","COUNTY_NA":"台中縣","ZIPCODE":"423","ADDRESS":"423台中縣東勢鎮福隆里東坑路353號","TEL":"04-25881630","LICENSE_NO":"LD3","OWNER":"古志雄","LOCATION_T":"現地調查","LOCATION_X":232889,"LOCATION_Y":2682363},"geometry":{"points":[[120.83965995382172,24.24492172165759]]}},{"attributes":{"OBJECTID":1118,"STATION_NA":"正揚機車行","COUNTY_NA":"台中縣","ZIPCODE":"423","ADDRESS":"423台中縣東勢鎮東崎街350號1F","TEL":"04-25888317","LICENSE_NO":"LD4","OWNER":"李宗穎","LOCATION_T":"地址對位","LOCATION_X":232161,"LOCATION_Y":2683074},"geometry":{"points":[[120.83248242345471,24.251333798389027]]}},{"attributes":{"OBJECTID":1119,"STATION_NA":"昭通機車行","COUNTY_NA":"台中縣","ZIPCODE":"420","ADDRESS":"423台中縣東勢鎮豐勢路574號","TEL":"04-25872851","LICENSE_NO":"LD5","OWNER":"吳昭財","LOCATION_T":"地址對位","LOCATION_X":222181,"LOCATION_Y":2683995},"geometry":{"points":[[120.73418212594686,24.259510986875547]]}},{"attributes":{"OBJECTID":1120,"STATION_NA":"進昌輪業商行","COUNTY_NA":"台中縣","ZIPCODE":"414","ADDRESS":"414台中縣烏日鄉九德村中山路一段409號","TEL":"04-23372265","LICENSE_NO":"LD6","OWNER":"黃勝文","LOCATION_T":"地址對位","LOCATION_X":212410,"LOCATION_Y":2667191},"geometry":{"points":[[120.63838016351454,24.107585791513891]]}},{"attributes":{"OBJECTID":1121,"STATION_NA":"正荃機車行","COUNTY_NA":"台中縣","ZIPCODE":"414","ADDRESS":"414台中縣烏日鄉九德村興祥街105號","TEL":"04-23370717","LICENSE_NO":"LD7","OWNER":"陳建福","LOCATION_T":"地址對位","LOCATION_X":212335,"LOCATION_Y":2667307},"geometry":{"points":[[120.63763943668199,24.108631428322031]]}},{"attributes":{"OBJECTID":1122,"STATION_NA":"榮泰輪業商行","COUNTY_NA":"台中縣","ZIPCODE":"414","ADDRESS":"414台中縣烏日鄉五光村五光路141號1F","TEL":"04-23371714","LICENSE_NO":"LD8","OWNER":"陳麗娜","LOCATION_T":"地址對位","LOCATION_X":214019,"LOCATION_Y":2665767},"geometry":{"points":[[120.65424242190015,24.094764785105777]]}},{"attributes":{"OBJECTID":1123,"STATION_NA":"煌源機車行","COUNTY_NA":"台中縣","ZIPCODE":"414","ADDRESS":"414台中縣烏日鄉溪南路187號","TEL":"04-23353396","LICENSE_NO":"LD9","OWNER":"林源煌","LOCATION_T":"中華電信","LOCATION_X":212847,"LOCATION_Y":2663566},"geometry":{"points":[[120.64276986941555,24.074865188474096]]}},{"attributes":{"OBJECTID":1124,"STATION_NA":"新傑機車行","COUNTY_NA":"台中縣","ZIPCODE":"429","ADDRESS":"429台中縣神岡鄉中山路776-1號","TEL":"04-25621780","LICENSE_NO":"LE0","OWNER":"黃金峰","LOCATION_T":"地址對位","LOCATION_X":216658,"LOCATION_Y":2682847},"geometry":{"points":[[120.67981450613487,24.249041098976239]]}},{"attributes":{"OBJECTID":1125,"STATION_NA":"逢隆機車行","COUNTY_NA":"台中縣","ZIPCODE":"429","ADDRESS":"429台中縣神岡鄉神岡村神岡路44號","TEL":"04-25622555","LICENSE_NO":"LE1","OWNER":"蔡雪芬","LOCATION_T":"地址對位","LOCATION_X":214736,"LOCATION_Y":2683820},"geometry":{"points":[[120.66086398534406,24.25778372067607]]}},{"attributes":{"OBJECTID":1126,"STATION_NA":"宏隆機車行","COUNTY_NA":"台中縣","ZIPCODE":"429","ADDRESS":"429台中縣神岡鄉神岡村神岡路57號","TEL":"04-25616282","LICENSE_NO":"LE2","OWNER":"姚俊旭","LOCATION_T":"地址對位","LOCATION_X":214742,"LOCATION_Y":2683765},"geometry":{"points":[[120.6609243727797,24.257287263679324]]}},{"attributes":{"OBJECTID":1127,"STATION_NA":"和炳車業行","COUNTY_NA":"台中縣","ZIPCODE":"435","ADDRESS":"435台中縣梧棲鎮中和街23號1F","TEL":"04-2656267\/","LICENSE_NO":"LE3","OWNER":"王容禧","LOCATION_T":"地址對位","LOCATION_X":201532,"LOCATION_Y":2683454},"geometry":{"points":[[120.53083417734766,24.254135838430095]]}},{"attributes":{"OBJECTID":1128,"STATION_NA":"伸發車業有限公司","COUNTY_NA":"台中縣","ZIPCODE":"436","ADDRESS":"436台中縣清水鎮中山路183號","TEL":"04-26234222","LICENSE_NO":"LE4","OWNER":"林俊雄","LOCATION_T":"地址對位","LOCATION_X":205968,"LOCATION_Y":2684886},"geometry":{"points":[[120.57447829108918,24.267194072048014]]}},{"attributes":{"OBJECTID":1129,"STATION_NA":"信揮機車行","COUNTY_NA":"台中縣","ZIPCODE":"436","ADDRESS":"436台中縣清水鎮中山路226號1F","TEL":"04-26222032","LICENSE_NO":"LE5","OWNER":"邱汀旺","LOCATION_T":"地址對位","LOCATION_X":206197,"LOCATION_Y":2685394},"geometry":{"points":[[120.57671868650925,24.271787186487188]]}},{"attributes":{"OBJECTID":1130,"STATION_NA":"瑞明車業有限公司","COUNTY_NA":"台中縣","ZIPCODE":"436","ADDRESS":"436台中縣清水鎮中山路306巷5號","TEL":"04-26230615","LICENSE_NO":"LE6","OWNER":"陳大明","LOCATION_T":"地址對位","LOCATION_X":206309,"LOCATION_Y":2685625},"geometry":{"points":[[120.57781500232765,24.27387598742229]]}},{"attributes":{"OBJECTID":1131,"STATION_NA":"鑫輪車業行","COUNTY_NA":"台中縣","ZIPCODE":"436","ADDRESS":"436台中縣清水鎮南社里鰲峰路362-5號","TEL":"04-26271949","LICENSE_NO":"LE7","OWNER":"顏金甲","LOCATION_T":"地址對位","LOCATION_X":204289,"LOCATION_Y":2684835},"geometry":{"points":[[120.55794276629224,24.266686920920783]]}},{"attributes":{"OBJECTID":1132,"STATION_NA":"昌平車行","COUNTY_NA":"台中縣","ZIPCODE":"427","ADDRESS":"427台中縣潭子鄉中山路二段508號","TEL":"04-25328736","LICENSE_NO":"LE8","OWNER":"賴江阿純","LOCATION_T":"地址對位","LOCATION_X":219307,"LOCATION_Y":2679376},"geometry":{"points":[[120.70597209929549,24.217751546612536]]}},{"attributes":{"OBJECTID":1133,"STATION_NA":"侑輪機車行","COUNTY_NA":"台中縣","ZIPCODE":"427","ADDRESS":"427台中縣潭子鄉中山路二段532號","TEL":"04-25323431","LICENSE_NO":"LE9","OWNER":"王秀宜","LOCATION_T":"地址對位","LOCATION_X":219320,"LOCATION_Y":2679436},"geometry":{"points":[[120.7060988513887,24.218293581864806]]}},{"attributes":{"OBJECTID":1134,"STATION_NA":"益新機車行","COUNTY_NA":"台中縣","ZIPCODE":"427","ADDRESS":"427台中縣潭子鄉中山路二段544號","TEL":"04-25327270","LICENSE_NO":"LF0","OWNER":"林秀月","LOCATION_T":"地址對位","LOCATION_X":219326,"LOCATION_Y":2679461},"geometry":{"points":[[120.70615741166409,24.218519438527018]]}},{"attributes":{"OBJECTID":1135,"STATION_NA":"正全宏輪業行","COUNTY_NA":"台中縣","ZIPCODE":"427","ADDRESS":"427台中縣潭子鄉光陽路226號","TEL":"04-25368084","LICENSE_NO":"LF1","OWNER":"詹玖竺","LOCATION_T":"地址對位","LOCATION_X":219763,"LOCATION_Y":2679068},"geometry":{"points":[[120.71046779479369,24.214978969560839]]}},{"attributes":{"OBJECTID":1136,"STATION_NA":"三發機車行","COUNTY_NA":"台中縣","ZIPCODE":"427","ADDRESS":"427台中縣潭子鄉栗林村祥和路126號","TEL":"04-25362199","LICENSE_NO":"LF2","OWNER":"楊凱玲","LOCATION_T":"地址對位","LOCATION_X":219871,"LOCATION_Y":2680711},"geometry":{"points":[[120.71149794768812,24.229816951898766]]}},{"attributes":{"OBJECTID":1137,"STATION_NA":"國洲機車行","COUNTY_NA":"台中縣","ZIPCODE":"427","ADDRESS":"427台中縣潭子鄉祥和路177號","TEL":"04-25373336","LICENSE_NO":"LF3","OWNER":"張陳玉英","LOCATION_T":"地址對位","LOCATION_X":219791,"LOCATION_Y":2680682},"geometry":{"points":[[120.71071083463823,24.229553599767623]]}},{"attributes":{"OBJECTID":1138,"STATION_NA":"東興機車行","COUNTY_NA":"台中縣","ZIPCODE":"427","ADDRESS":"427台中縣潭子鄉雅潭路二段216號1F","TEL":"04-25320948","LICENSE_NO":"LF4","OWNER":"楊淑華","LOCATION_T":"地址對位","LOCATION_X":217918,"LOCATION_Y":2679194},"geometry":{"points":[[120.69230086303413,24.216080931518739]]}},{"attributes":{"OBJECTID":1139,"STATION_NA":"圓通機車行","COUNTY_NA":"台中縣","ZIPCODE":"427","ADDRESS":"427台中縣潭子鄉園通南路187號1F","TEL":"04-25350400","LICENSE_NO":"LF5","OWNER":"陳世豪","LOCATION_T":"地址對位","LOCATION_X":219160,"LOCATION_Y":2678188},"geometry":{"points":[[120.70454947266971,24.207021509660624]]}},{"attributes":{"OBJECTID":1140,"STATION_NA":"永新機車行","COUNTY_NA":"台中縣","ZIPCODE":"427","ADDRESS":"427台中縣潭子鄉潭興路三段128號","TEL":"04-25323580","LICENSE_NO":"LF6","OWNER":"李岱政","LOCATION_T":"地址對位","LOCATION_X":218795,"LOCATION_Y":2678679},"geometry":{"points":[[120.70094591334251,24.211448000644559]]}},{"attributes":{"OBJECTID":1141,"STATION_NA":"江龍機車行","COUNTY_NA":"台中縣","ZIPCODE":"434","ADDRESS":"434台中縣龍井鄉沙田路四段508巷3號","TEL":"04-26352647","LICENSE_NO":"LF7","OWNER":"王枝能","LOCATION_T":"地址對位","LOCATION_X":203045,"LOCATION_Y":2676272},"geometry":{"points":[[120.54596645369811,24.189332811605119]]}},{"attributes":{"OBJECTID":1142,"STATION_NA":"合順機車行","COUNTY_NA":"台中縣","ZIPCODE":"434","ADDRESS":"434台中縣龍井鄉新興路42號","TEL":"04-26321056","LICENSE_NO":"LF8","OWNER":"洪美滿","LOCATION_T":"地址對位","LOCATION_X":207322,"LOCATION_Y":2675342},"geometry":{"points":[[120.58809301760839,24.181055362314726]]}},{"attributes":{"OBJECTID":1143,"STATION_NA":"承旺機車行","COUNTY_NA":"台中縣","ZIPCODE":"434","ADDRESS":"434台中縣龍井鄉新東村新興路51-3號","TEL":"04-26319040","LICENSE_NO":"LF9","OWNER":"王成華","LOCATION_T":"地址對位","LOCATION_X":207197,"LOCATION_Y":2675371},"geometry":{"points":[[120.58686185871117,24.181313901800031]]}},{"attributes":{"OBJECTID":1144,"STATION_NA":"永達車業行","COUNTY_NA":"台中縣","ZIPCODE":"429","ADDRESS":"420台中縣豐原市三角路78號","TEL":"04-25248629","LICENSE_NO":"LG1","OWNER":"劉正鎰","LOCATION_T":"地址對位","LOCATION_X":218600,"LOCATION_Y":2682610},"geometry":{"points":[[120.69894375762293,24.246940546756846]]}},{"attributes":{"OBJECTID":1145,"STATION_NA":"毅泰輪業有限公司","COUNTY_NA":"台中縣","ZIPCODE":"420","ADDRESS":"420台中縣豐原市三豐路21號","TEL":"04-25223538","LICENSE_NO":"LG2","OWNER":"詹李玉美","LOCATION_T":"地址對位","LOCATION_X":220740,"LOCATION_Y":2685006},"geometry":{"points":[[120.71997095492972,24.268614513811244]]}},{"attributes":{"OBJECTID":1146,"STATION_NA":"東光車業有限公司","COUNTY_NA":"台中縣","ZIPCODE":"420","ADDRESS":"420台中縣豐原市三豐路71號","TEL":"04-25233042","LICENSE_NO":"LG3","OWNER":"曾明泉","LOCATION_T":"地址對位","LOCATION_X":220312,"LOCATION_Y":2683275},"geometry":{"points":[[120.71578957998639,24.25297722881238]]}},{"attributes":{"OBJECTID":1147,"STATION_NA":"金瓏機車行","COUNTY_NA":"台中縣","ZIPCODE":"420","ADDRESS":"420台中縣豐原市三豐路783號","TEL":"04-25224680","LICENSE_NO":"LG4","OWNER":"張金滄","LOCATION_T":"地址對位","LOCATION_X":220786,"LOCATION_Y":2684830},"geometry":{"points":[[120.72042741833057,24.26702621087669]]}},{"attributes":{"OBJECTID":1148,"STATION_NA":"大春機車行","COUNTY_NA":"台中縣","ZIPCODE":"420","ADDRESS":"420台中縣豐原市中山路382號","TEL":"04-25268503","LICENSE_NO":"LG5","OWNER":"白文章","LOCATION_T":"地址對位","LOCATION_X":220233,"LOCATION_Y":2682541},"geometry":{"points":[[120.7150260734693,24.246348106754358]]}},{"attributes":{"OBJECTID":1149,"STATION_NA":"東平機車行","COUNTY_NA":"台中縣","ZIPCODE":"420","ADDRESS":"420台中縣豐原市中山路579號","TEL":"04-25243600","LICENSE_NO":"LG6","OWNER":"林良平","LOCATION_T":"地址對位","LOCATION_X":220013,"LOCATION_Y":2683547},"geometry":{"points":[[120.71283964886547,24.255427803820087]]}},{"attributes":{"OBJECTID":1150,"STATION_NA":"定成機車零件廠","COUNTY_NA":"台中縣","ZIPCODE":"420","ADDRESS":"420台中縣豐原市水源路305號","TEL":"04-25228727","LICENSE_NO":"LG7","OWNER":"許文成","LOCATION_T":"地址對位","LOCATION_X":222531,"LOCATION_Y":2683562},"geometry":{"points":[[120.73763694258248,24.255607082462944]]}},{"attributes":{"OBJECTID":1151,"STATION_NA":"茂盛機車行","COUNTY_NA":"台中縣","ZIPCODE":"420","ADDRESS":"420台中縣豐原市西勢路160號","TEL":"04-25261855","LICENSE_NO":"LG8","OWNER":"林慧娟","LOCATION_T":"地址對位","LOCATION_X":219469,"LOCATION_Y":2682349},"geometry":{"points":[[120.7075065265188,24.244600340303851]]}},{"attributes":{"OBJECTID":1152,"STATION_NA":"祥興機車行","COUNTY_NA":"台中縣","ZIPCODE":"420","ADDRESS":"420台中縣豐原市園環北路一段38號","TEL":"04-25272391","LICENSE_NO":"LG9","OWNER":"黃洪員","LOCATION_T":"地址對位","LOCATION_X":220101,"LOCATION_Y":2683565},"geometry":{"points":[[120.71370592366411,24.255591933337385]]}},{"attributes":{"OBJECTID":1153,"STATION_NA":"正興機車行","COUNTY_NA":"台中縣","ZIPCODE":"420","ADDRESS":"420台中縣豐原市園環東路351號","TEL":"04-25232675","LICENSE_NO":"LH0","OWNER":"廖文吉","LOCATION_T":"地址對位","LOCATION_X":221158,"LOCATION_Y":2682423},"geometry":{"points":[[120.72413718298236,24.245299044986499]]}},{"attributes":{"OBJECTID":1154,"STATION_NA":"綸泰企業(股)公司豐原分公司","COUNTY_NA":"台中縣","ZIPCODE":"420","ADDRESS":"420台中縣豐原市圓環南路239號","TEL":"04-25240756","LICENSE_NO":"LH1","OWNER":"陳奕敏","LOCATION_T":"地址對位","LOCATION_X":219615,"LOCATION_Y":2682908},"geometry":{"points":[[120.70893296026445,24.249650666556988]]}},{"attributes":{"OBJECTID":1155,"STATION_NA":"偉昌機車行","COUNTY_NA":"台中縣","ZIPCODE":"420","ADDRESS":"420台中縣豐原市豐陽街58號1F","TEL":"04-25241398","LICENSE_NO":"LH2","OWNER":"梁清助","LOCATION_T":"地址對位","LOCATION_X":221017,"LOCATION_Y":2683000},"geometry":{"points":[[120.72273763815942,24.250506686943449]]}},{"attributes":{"OBJECTID":1156,"STATION_NA":"源龍機車行","COUNTY_NA":"台中縣","ZIPCODE":"420","ADDRESS":"420台中縣豐原市鐮村路561號","TEL":"04-25372222","LICENSE_NO":"LH3","OWNER":"邱國偉","LOCATION_T":"地址對位","LOCATION_X":221189,"LOCATION_Y":2680052},"geometry":{"points":[[120.72448783159599,24.223890016479583]]}},{"attributes":{"OBJECTID":1157,"STATION_NA":"長益車業有限公司","COUNTY_NA":"台中縣","ZIPCODE":"413","ADDRESS":"413台中縣霧峰鄉中正路606號1F","TEL":"04-23397115","LICENSE_NO":"LH4","OWNER":"曾志益","LOCATION_T":"地址對位","LOCATION_X":217911,"LOCATION_Y":2660376},"geometry":{"points":[[120.69263891831702,24.046168638956235]]}},{"attributes":{"OBJECTID":1158,"STATION_NA":"玉豐機車行","COUNTY_NA":"台中縣","ZIPCODE":"413","ADDRESS":"413台中縣霧峰鄉中正路1179號","TEL":"04-23300928","LICENSE_NO":"LH5","OWNER":"謝玉堂","LOCATION_T":"地址對位","LOCATION_X":218589,"LOCATION_Y":2663153},"geometry":{"points":[[120.69924799727711,24.071256279334488]]}},{"attributes":{"OBJECTID":1159,"STATION_NA":"勝鴻機車行","COUNTY_NA":"台中縣","ZIPCODE":"427","ADDRESS":"427台中縣潭子鄉復興路二段114號","TEL":"04-25361488","LICENSE_NO":"LH6","OWNER":"黃祚典","LOCATION_T":"地址對位","LOCATION_X":219401,"LOCATION_Y":2678478},"geometry":{"points":[[120.70691602515544,24.209644683341541]]}},{"attributes":{"OBJECTID":1160,"STATION_NA":"見來機車行","COUNTY_NA":"台中縣","ZIPCODE":"433","ADDRESS":"433台中縣沙鹿鎮沙田路134號","TEL":"04-26628734","LICENSE_NO":"LH7","OWNER":"楊見來","LOCATION_T":"地址對位","LOCATION_X":204437,"LOCATION_Y":2681430},"geometry":{"points":[[120.55950648346781,24.235945820035464]]}},{"attributes":{"OBJECTID":1161,"STATION_NA":"和泰機車行","COUNTY_NA":"南投縣","ZIPCODE":"553","ADDRESS":"553南投縣水里鄉民族路9-10號","TEL":"049-2775171","LICENSE_NO":"M01","OWNER":"林慶鎮","LOCATION_T":"中華電信","LOCATION_X":234664,"LOCATION_Y":2633935},"geometry":{"points":[[120.85761859998773,23.807652571792282]]}},{"attributes":{"OBJECTID":1162,"STATION_NA":"昇益機車行","COUNTY_NA":"南投縣","ZIPCODE":"557","ADDRESS":"557南投縣竹山鎮前山路一段52號","TEL":"049-2643609","LICENSE_NO":"M03","OWNER":"蔡香蘭","LOCATION_T":"地址對位","LOCATION_X":216545,"LOCATION_Y":2628397},"geometry":{"points":[[120.67991951812193,23.7573836203585]]}},{"attributes":{"OBJECTID":1163,"STATION_NA":"國龍機車行","COUNTY_NA":"南投縣","ZIPCODE":"557","ADDRESS":"557南投縣竹山鎮頂林路191號","TEL":"049-2647270","LICENSE_NO":"M04","OWNER":"翁國龍","LOCATION_T":"地址對位","LOCATION_X":216701,"LOCATION_Y":2627492},"geometry":{"points":[[120.6814696077206,23.749215273047323]]}},{"attributes":{"OBJECTID":1164,"STATION_NA":"大唐機車行","COUNTY_NA":"南投縣","ZIPCODE":"557","ADDRESS":"557南投縣竹山鎮集山路一段2264號","TEL":"049-2623072","LICENSE_NO":"M05","OWNER":"林麗珠","LOCATION_T":"地址對位","LOCATION_X":220130,"LOCATION_Y":2633588},"geometry":{"points":[[120.71498457794573,23.804324097616824]]}},{"attributes":{"OBJECTID":1165,"STATION_NA":"宏泰機車行","COUNTY_NA":"南投縣","ZIPCODE":"557","ADDRESS":"557南投縣竹山鎮集山路三段789號","TEL":"049-2642618","LICENSE_NO":"M06","OWNER":"施錫更","LOCATION_T":"地址對位","LOCATION_X":217131,"LOCATION_Y":2628506},"geometry":{"points":[[120.68566580100762,23.758379903969217]]}},{"attributes":{"OBJECTID":1166,"STATION_NA":"江氏輪業有限公司","COUNTY_NA":"南投縣","ZIPCODE":"557","ADDRESS":"557南投縣竹山鎮集山路三段817號","TEL":"049-2642643","LICENSE_NO":"M07","OWNER":"林繡琴","LOCATION_T":"地址對位","LOCATION_X":217071,"LOCATION_Y":2628477},"geometry":{"points":[[120.68507782802926,23.758116828929815]]}},{"attributes":{"OBJECTID":1167,"STATION_NA":"光順機車行","COUNTY_NA":"南投縣","ZIPCODE":"557","ADDRESS":"557南投縣竹山鎮集山路三段823號","TEL":"049-2642559","LICENSE_NO":"M08","OWNER":"柯周淑華","LOCATION_T":"地址對位","LOCATION_X":217046,"LOCATION_Y":2628454},"geometry":{"points":[[120.68483307732083,23.757908643391399]]}},{"attributes":{"OBJECTID":1168,"STATION_NA":"大埤機車行","COUNTY_NA":"南投縣","ZIPCODE":"540","ADDRESS":"540南投縣南投市大埤街120號1F","TEL":"049-2325264","LICENSE_NO":"M09","OWNER":"李美華","LOCATION_T":"地址對位","LOCATION_X":219394,"LOCATION_Y":2647600},"geometry":{"points":[[120.70748113522237,23.930832875989644]]}},{"attributes":{"OBJECTID":1169,"STATION_NA":"祥順機車行","COUNTY_NA":"南投縣","ZIPCODE":"540","ADDRESS":"540南投縣南投市中正路318號","TEL":"049-2329398","LICENSE_NO":"M10","OWNER":"黃秋英","LOCATION_T":"地址對位","LOCATION_X":218067,"LOCATION_Y":2649185},"geometry":{"points":[[120.69441086875177,23.945120334402048]]}},{"attributes":{"OBJECTID":1170,"STATION_NA":"大明車行","COUNTY_NA":"南投縣","ZIPCODE":"540","ADDRESS":"540南投縣南投市民族路114號","TEL":"049-2223619","LICENSE_NO":"M13","OWNER":"賴信二","LOCATION_T":"地址對位","LOCATION_X":217705,"LOCATION_Y":2645338},"geometry":{"points":[[120.6909388283066,23.910376471701536]]}},{"attributes":{"OBJECTID":1171,"STATION_NA":"信安機車行","COUNTY_NA":"南投縣","ZIPCODE":"540","ADDRESS":"540南投縣南投市民族路162號","TEL":"049-2232226","LICENSE_NO":"M14","OWNER":"劉文煉","LOCATION_T":"地址對位","LOCATION_X":217586,"LOCATION_Y":2645275},"geometry":{"points":[[120.68977140101613,23.90980539361599]]}},{"attributes":{"OBJECTID":1172,"STATION_NA":"安成機車行","COUNTY_NA":"南投縣","ZIPCODE":"540","ADDRESS":"540南投縣南投市民族路51號","TEL":"049-2223398","LICENSE_NO":"M15","OWNER":"張清楠","LOCATION_T":"地址對位","LOCATION_X":217862,"LOCATION_Y":2645343},"geometry":{"points":[[120.6924807603113,23.910424541372596]]}},{"attributes":{"OBJECTID":1173,"STATION_NA":"吉勝機車行","COUNTY_NA":"南投縣","ZIPCODE":"540","ADDRESS":"540南投縣南投市南崗二路347號","TEL":"049-2223300","LICENSE_NO":"M16","OWNER":"廖玉實","LOCATION_T":"地址對位","LOCATION_X":216311,"LOCATION_Y":2645764},"geometry":{"points":[[120.67723727583667,23.914196158517413]]}},{"attributes":{"OBJECTID":1174,"STATION_NA":"美輪機車行","COUNTY_NA":"南投縣","ZIPCODE":"540","ADDRESS":"540南投縣南投市彰南路一段736號","TEL":"049-2223127","LICENSE_NO":"M17","OWNER":"劉賢聰","LOCATION_T":"地址對位","LOCATION_X":217214,"LOCATION_Y":2644039},"geometry":{"points":[[120.68614487009476,23.898638224419642]]}},{"attributes":{"OBJECTID":1175,"STATION_NA":"千聖機車行","COUNTY_NA":"南投縣","ZIPCODE":"540","ADDRESS":"540南投縣南投市彰南路二段453號","TEL":"049-2230940","LICENSE_NO":"M18","OWNER":"王英諭","LOCATION_T":"地址對位","LOCATION_X":216436,"LOCATION_Y":2645997},"geometry":{"points":[[120.67845974985066,23.91630244460028]]}},{"attributes":{"OBJECTID":1176,"STATION_NA":"光隆車行","COUNTY_NA":"南投縣","ZIPCODE":"545","ADDRESS":"545南投縣埔里鎮中山路二段310號","TEL":"049-2987547","LICENSE_NO":"M19","OWNER":"蔡水練","LOCATION_T":"中華電信","LOCATION_X":245866,"LOCATION_Y":2651403},"geometry":{"points":[[120.96752019795385,23.96544904715919]]}},{"attributes":{"OBJECTID":1177,"STATION_NA":"宏興機車行","COUNTY_NA":"南投縣","ZIPCODE":"545","ADDRESS":"545南投縣埔里鎮中正路507號","TEL":"049-2984383","LICENSE_NO":"M20","OWNER":"黃春棖","LOCATION_T":"中華電信","LOCATION_X":245607,"LOCATION_Y":2651599},"geometry":{"points":[[120.96497480127613,23.967218332085398]]}},{"attributes":{"OBJECTID":1178,"STATION_NA":"大山機車行","COUNTY_NA":"南投縣","ZIPCODE":"545","ADDRESS":"545南投縣埔里鎮中正路536-1號","TEL":"049-2984158","LICENSE_NO":"M21","OWNER":"盧月繡","LOCATION_T":"中華電信","LOCATION_X":245551,"LOCATION_Y":2651815},"geometry":{"points":[[120.96442405224653,23.969168611193773]]}},{"attributes":{"OBJECTID":1179,"STATION_NA":"全益機車行","COUNTY_NA":"南投縣","ZIPCODE":"545","ADDRESS":"545南投縣埔里鎮北環路24號","TEL":"049-2983622","LICENSE_NO":"M22","OWNER":"張玉華","LOCATION_T":"中華電信","LOCATION_X":246410,"LOCATION_Y":2651451},"geometry":{"points":[[120.97286552375201,23.965883429127924]]}},{"attributes":{"OBJECTID":1180,"STATION_NA":"埔里機車行","COUNTY_NA":"南投縣","ZIPCODE":"545","ADDRESS":"545南投縣埔里鎮西寧路28之3號","TEL":"049-2989114","LICENSE_NO":"M23","OWNER":"陳春美","LOCATION_T":"中華電信","LOCATION_X":245384,"LOCATION_Y":2651476},"geometry":{"points":[[120.96278383835205,23.966107211627797]]}},{"attributes":{"OBJECTID":1181,"STATION_NA":"埔里明峰企業有限公司","COUNTY_NA":"南投縣","ZIPCODE":"545","ADDRESS":"545南投縣埔里鎮南昌街281號","TEL":"049-2983217","LICENSE_NO":"M24","OWNER":"洪淑玲","LOCATION_T":"中華電信","LOCATION_X":245425,"LOCATION_Y":2651595},"geometry":{"points":[[120.96318643289557,23.96718182943507]]}},{"attributes":{"OBJECTID":1182,"STATION_NA":"瑞彬機車行","COUNTY_NA":"南投縣","ZIPCODE":"542","ADDRESS":"542南投縣草屯鎮中正路332之1號","TEL":"049-2560492","LICENSE_NO":"M25","OWNER":"林瑞彬","LOCATION_T":"地址對位","LOCATION_X":220836,"LOCATION_Y":2652938},"geometry":{"points":[[120.72154049872846,23.979061127485409]]}},{"attributes":{"OBJECTID":1183,"STATION_NA":"草屯山葉機車有限公司","COUNTY_NA":"南投縣","ZIPCODE":"542","ADDRESS":"542南投縣草屯鎮中正路788號","TEL":"049-2333206","LICENSE_NO":"M26","OWNER":"何其玫","LOCATION_T":"地址對位","LOCATION_X":217119,"LOCATION_Y":2653272},"geometry":{"points":[[120.68500821071663,23.982003968692847]]}},{"attributes":{"OBJECTID":1184,"STATION_NA":"三山輪業有限公司","COUNTY_NA":"南投縣","ZIPCODE":"542","ADDRESS":"542南投縣草屯鎮中正路884號","TEL":"049-2334961","LICENSE_NO":"M27","OWNER":"簡賴秋葉","LOCATION_T":"地址對位","LOCATION_X":217299,"LOCATION_Y":2653600},"geometry":{"points":[[120.68676990008775,23.984969307933689]]}},{"attributes":{"OBJECTID":1185,"STATION_NA":"隆豐機車行","COUNTY_NA":"南投縣","ZIPCODE":"542","ADDRESS":"542南投縣草屯鎮玉屏路234號","TEL":"049-2338817","LICENSE_NO":"M28","OWNER":"林永和","LOCATION_T":"地址對位","LOCATION_X":217232,"LOCATION_Y":2653121},"geometry":{"points":[[120.68612182319269,23.980642937858079]]}},{"attributes":{"OBJECTID":1186,"STATION_NA":"鎮成機車行","COUNTY_NA":"南投縣","ZIPCODE":"542","ADDRESS":"542南投縣草屯鎮芬草路198號","TEL":"049-2334529","LICENSE_NO":"M29","OWNER":"何鎮元","LOCATION_T":"地址對位","LOCATION_X":215593,"LOCATION_Y":2654445},"geometry":{"points":[[120.6699866953866,23.992562785813941]]}},{"attributes":{"OBJECTID":1187,"STATION_NA":"自強機車行","COUNTY_NA":"南投縣","ZIPCODE":"542","ADDRESS":"542南投縣草屯鎮芬草路一段151號","TEL":"049-2328517","LICENSE_NO":"M30","OWNER":"蔡美沼","LOCATION_T":"地址對位","LOCATION_X":216765,"LOCATION_Y":2653548},"geometry":{"points":[[120.68152370134973,23.984488546067944]]}},{"attributes":{"OBJECTID":1188,"STATION_NA":"陞陽車業股份有限公司","COUNTY_NA":"南投縣","ZIPCODE":"542","ADDRESS":"542南投縣草屯鎮民權路90號","TEL":"049-2312959","LICENSE_NO":"M31","OWNER":"黃漢泉","LOCATION_T":"地址對位","LOCATION_X":216940,"LOCATION_Y":2651147},"geometry":{"points":[[120.68329545530256,23.962813436251839]]}},{"attributes":{"OBJECTID":1189,"STATION_NA":"正忠機車行","COUNTY_NA":"南投縣","ZIPCODE":"544","ADDRESS":"544南投縣國姓鄉北山村中正路四段163號","TEL":"049-2451520","LICENSE_NO":"M32","OWNER":"黃正忠","LOCATION_T":"現地調查","LOCATION_X":236195,"LOCATION_Y":2653233},"geometry":{"points":[[120.87247538961681,23.98192504879464]]}},{"attributes":{"OBJECTID":1190,"STATION_NA":"三盛機車有限公司","COUNTY_NA":"南投縣","ZIPCODE":"553","ADDRESS":"553南投縣水里鄉水里村民權路122號","TEL":"049-2771087","LICENSE_NO":"M35","OWNER":"廖嘉源","LOCATION_T":"中華電信","LOCATION_X":234211,"LOCATION_Y":2635057},"geometry":{"points":[[120.85316098736256,23.817780273742642]]}},{"attributes":{"OBJECTID":1191,"STATION_NA":"偉聖機車行","COUNTY_NA":"南投縣","ZIPCODE":"553","ADDRESS":"553南投縣水里鄉民生路88號1F","TEL":"049-2870868","LICENSE_NO":"M36","OWNER":"黃國鎮","LOCATION_T":"中華電信","LOCATION_X":234464,"LOCATION_Y":2634606},"geometry":{"points":[[120.85564884768905,23.813709997041169]]}},{"attributes":{"OBJECTID":1192,"STATION_NA":"松林機車行","COUNTY_NA":"南投縣","ZIPCODE":"553","ADDRESS":"553南投縣水里鄉民權路27-4號","TEL":"049-2772898","LICENSE_NO":"M37","OWNER":"邱月鳳","LOCATION_T":"中華電信","LOCATION_X":234362,"LOCATION_Y":2635109},"geometry":{"points":[[120.85464254209646,23.818251232658639]]}},{"attributes":{"OBJECTID":1193,"STATION_NA":"翼達機車行","COUNTY_NA":"南投縣","ZIPCODE":"553","ADDRESS":"553南投縣水里鄉民權路91號","TEL":"049-2770479","LICENSE_NO":"M38","OWNER":"吳桂秋","LOCATION_T":"中華電信","LOCATION_X":234098,"LOCATION_Y":2634975},"geometry":{"points":[[120.8520527295838,23.817038751546498]]}},{"attributes":{"OBJECTID":1194,"STATION_NA":"宏明機車行","COUNTY_NA":"南投縣","ZIPCODE":"551","ADDRESS":"551南投縣名間鄉名松路一段29號","TEL":"049-2732361","LICENSE_NO":"M39","OWNER":"陳忠雄","LOCATION_T":"地址對位","LOCATION_X":218122,"LOCATION_Y":2637781},"geometry":{"points":[[120.6951885250089,23.842146935519509]]}},{"attributes":{"OBJECTID":1195,"STATION_NA":"建興機車行","COUNTY_NA":"南投縣","ZIPCODE":"551","ADDRESS":"551南投縣名間鄉南雅村員集路146-7號","TEL":"049-2731383","LICENSE_NO":"M40","OWNER":"何永生","LOCATION_T":"地址對位","LOCATION_X":218789,"LOCATION_Y":2637064},"geometry":{"points":[[120.70175026835808,23.835685323359133]]}},{"attributes":{"OBJECTID":1196,"STATION_NA":"信盈機車行","COUNTY_NA":"南投縣","ZIPCODE":"557","ADDRESS":"557南投縣竹山鎮集山路一段1244號","TEL":"049-2622147","LICENSE_NO":"M41","OWNER":"曾寅發","LOCATION_T":"地址對位","LOCATION_X":221957,"LOCATION_Y":2634662},"geometry":{"points":[[120.73289414417879,23.814054212891659]]}},{"attributes":{"OBJECTID":1197,"STATION_NA":"福裕機車行","COUNTY_NA":"南投縣","ZIPCODE":"540","ADDRESS":"540南投縣南投市中興新村中正路232號","TEL":"049-2335835","LICENSE_NO":"M42","OWNER":"賴秀霞","LOCATION_T":"地址對位","LOCATION_X":218344,"LOCATION_Y":2648719},"geometry":{"points":[[120.6971422966043,23.940917790569326]]}},{"attributes":{"OBJECTID":1198,"STATION_NA":"順進機車行","COUNTY_NA":"南投縣","ZIPCODE":"540","ADDRESS":"540南投縣南投市民族路12號","TEL":"049-2228398","LICENSE_NO":"M43","OWNER":"吳順釗","LOCATION_T":"地址對位","LOCATION_X":217935,"LOCATION_Y":2645416},"geometry":{"points":[[120.69319618095818,23.911085038866521]]}},{"attributes":{"OBJECTID":1199,"STATION_NA":"昌隆機車行","COUNTY_NA":"南投縣","ZIPCODE":"540","ADDRESS":"540南投縣南投市彰南路2段323號1F","TEL":"049-2223645","LICENSE_NO":"M44","OWNER":"簡木水","LOCATION_T":"地址對位","LOCATION_X":216622,"LOCATION_Y":2645742},"geometry":{"points":[[120.68029251942551,23.914003640138972]]}},{"attributes":{"OBJECTID":1200,"STATION_NA":"日盛機車行","COUNTY_NA":"南投縣","ZIPCODE":"540","ADDRESS":"540南投縣南投市平山里彰南路二段713號1樓","TEL":"049-2250790","LICENSE_NO":"M45","OWNER":"鄒紹宗","LOCATION_T":"地址對位","LOCATION_X":216309,"LOCATION_Y":2646633},"geometry":{"points":[[120.67719770898287,23.922042576202568]]}}]}