{"displayFieldName":"STATION_NA","fieldAliases":{"OBJECTID":"OBJECTID","STATION_NA":"STATION_NA","COUNTY_NA":"COUNTY_NA","ZIPCODE":"ZIPCODE","ADDRESS":"ADDRESS","TEL":"TEL","LICENSE_NO":"LICENSE_NO","OWNER":"OWNER","LOCATION_T":"LOCATION_T","LOCATION_X":"LOCATION_X","LOCATION_Y":"LOCATION_Y"},"geometryType":"esriGeometryMultipoint","spatialReference":{"wkid":104137},"fields":[{"name":"OBJECTID","type":"esriFieldTypeOID","alias":"OBJECTID"},{"name":"STATION_NA","type":"esriFieldTypeString","alias":"STATION_NA","length":30},{"name":"COUNTY_NA","type":"esriFieldTypeString","alias":"COUNTY_NA","length":6},{"name":"ZIPCODE","type":"esriFieldTypeString","alias":"ZIPCODE","length":4},{"name":"ADDRESS","type":"esriFieldTypeString","alias":"ADDRESS","length":40},{"name":"TEL","type":"esriFieldTypeString","alias":"TEL","length":11},{"name":"LICENSE_NO","type":"esriFieldTypeString","alias":"LICENSE_NO","length":3},{"name":"OWNER","type":"esriFieldTypeString","alias":"OWNER","length":10},{"name":"LOCATION_T","type":"esriFieldTypeString","alias":"LOCATION_T","length":10},{"name":"LOCATION_X","type":"esriFieldTypeDouble","alias":"LOCATION_X"},{"name":"LOCATION_Y","type":"esriFieldTypeDouble","alias":"LOCATION_Y"}],"features":[{"attributes":{"OBJECTID":1,"STATION_NA":"宏立機車事業有限公司","COUNTY_NA":"台北市","ZIPCODE":"106","ADDRESS":"106台北市大安區和平東路二段115號","TEL":"02-27064529","LICENSE_NO":"A12","OWNER":"黃宋雙妹","LOCATION_T":"地址對位","LOCATION_X":303716,"LOCATION_Y":2768911},"geometry":{"points":[[121.54049379686722,25.025464798599]]}},{"attributes":{"OBJECTID":2,"STATION_NA":"鉅泉車業有限公司","COUNTY_NA":"台北市","ZIPCODE":"104","ADDRESS":"104台北市中山區長安東路二段47之1號","TEL":"02-25618404","LICENSE_NO":"A13","OWNER":"王清泉","LOCATION_T":"地址對位","LOCATION_X":302853,"LOCATION_Y":2771470},"geometry":{"points":[[121.53204269663155,25.048598926507072]]}},{"attributes":{"OBJECTID":3,"STATION_NA":"台鈴工業股份有限公司台北服務站","COUNTY_NA":"台北市","ZIPCODE":"104","ADDRESS":"105台北市中山區松江路530號1F","TEL":"02-27659444","LICENSE_NO":"A14","OWNER":"黃政旺","LOCATION_T":"地址對位","LOCATION_X":302940,"LOCATION_Y":2773495},"geometry":{"points":[[121.53298424379345,25.066878028918442]]}},{"attributes":{"OBJECTID":4,"STATION_NA":"群億車業商行","COUNTY_NA":"台北市","ZIPCODE":"105","ADDRESS":"105台北市松山區八德路四段338號","TEL":"02-27602061","LICENSE_NO":"A15","OWNER":"謝錦朝","LOCATION_T":"地址對位","LOCATION_X":306502,"LOCATION_Y":2771542},"geometry":{"points":[[121.56820858186475,25.049114345815308]]}},{"attributes":{"OBJECTID":5,"STATION_NA":"松春來車業有限公司","COUNTY_NA":"台北市","ZIPCODE":"105","ADDRESS":"105台北市松山區民權東路五段30號1F","TEL":"02-22678462","LICENSE_NO":"A16","OWNER":"盧春金","LOCATION_T":"地址對位","LOCATION_X":306104,"LOCATION_Y":2773056},"geometry":{"points":[[121.56432708159953,25.062798057445253]]}},{"attributes":{"OBJECTID":6,"STATION_NA":"國盛機車行","COUNTY_NA":"台北市","ZIPCODE":"105","ADDRESS":"105台北市松山區撫遠街189號","TEL":"02-27688819","LICENSE_NO":"A17","OWNER":"陳盛","LOCATION_T":"地址對位","LOCATION_X":306520,"LOCATION_Y":2772697},"geometry":{"points":[[121.56843522546276,25.059541096842629]]}},{"attributes":{"OBJECTID":7,"STATION_NA":"統陽車業股份有限公司","COUNTY_NA":"台北市","ZIPCODE":"111","ADDRESS":"111台北市士林區重慶北路四段228號","TEL":"02-28126711","LICENSE_NO":"A18","OWNER":"蕭進義","LOCATION_T":"地址對位","LOCATION_X":300756,"LOCATION_Y":2775618},"geometry":{"points":[[121.51141684453462,25.086120330838199]]}},{"attributes":{"OBJECTID":8,"STATION_NA":"益隆車業有限公司","COUNTY_NA":"台北市","ZIPCODE":"111","ADDRESS":"111台北市士林區重慶北路四段244號","TEL":"02-28127500","LICENSE_NO":"A19","OWNER":"潘和益","LOCATION_T":"地址對位","LOCATION_X":300752,"LOCATION_Y":2775664},"geometry":{"points":[[121.51137892453121,25.086535748022595]]}},{"attributes":{"OBJECTID":9,"STATION_NA":"台益機車有限公司","COUNTY_NA":"台北市","ZIPCODE":"111","ADDRESS":"111台北市士林區延平北路五段139號","TEL":"02-28122405","LICENSE_NO":"A20","OWNER":"劉鴻儒","LOCATION_T":"地址對位","LOCATION_X":300635,"LOCATION_Y":2775178},"geometry":{"points":[[121.5102007248836,25.082152169938475]]}},{"attributes":{"OBJECTID":10,"STATION_NA":"榮裕機車行","COUNTY_NA":"台北市","ZIPCODE":"111","ADDRESS":"111台北市士林區士東路250號","TEL":"02-28370460","LICENSE_NO":"A21","OWNER":"林王阿菊","LOCATION_T":"地址對位","LOCATION_X":303186,"LOCATION_Y":2778594},"geometry":{"points":[[121.5356237399441,25.112902121328414]]}},{"attributes":{"OBJECTID":11,"STATION_NA":"加祥車業有限公司","COUNTY_NA":"台北市","ZIPCODE":"103","ADDRESS":"103台北市大同區延平北路二段256號","TEL":"02-25571818","LICENSE_NO":"A22","OWNER":"蕭陳錦珠","LOCATION_T":"地址對位","LOCATION_X":300753,"LOCATION_Y":2772765},"geometry":{"points":[[121.51127945827871,25.06036345518276]]}},{"attributes":{"OBJECTID":12,"STATION_NA":"忠億車業有限公司","COUNTY_NA":"台北市","ZIPCODE":"103","ADDRESS":"103台北市大同區西寧北路17之4號","TEL":"02-25523055","LICENSE_NO":"A23","OWNER":"林坤忠","LOCATION_T":"地址對位","LOCATION_X":300511,"LOCATION_Y":2771902},"geometry":{"points":[[121.50884852100542,25.052580340763672]]}},{"attributes":{"OBJECTID":13,"STATION_NA":"順旺機車行","COUNTY_NA":"台北市","ZIPCODE":"103","ADDRESS":"103台北市大同區鄭州路105號","TEL":"02-25589506","LICENSE_NO":"A24","OWNER":"陳再聰","LOCATION_T":"地址對位","LOCATION_X":300779,"LOCATION_Y":2771643},"geometry":{"points":[[121.51149486417442,25.050232942221122]]}},{"attributes":{"OBJECTID":14,"STATION_NA":"新協大車業有限公司","COUNTY_NA":"台北市","ZIPCODE":"103","ADDRESS":"103台北市大同區延平北路三段67之1號","TEL":"02-25922978","LICENSE_NO":"A25","OWNER":"張黃玉梅","LOCATION_T":"地址對位","LOCATION_X":300734,"LOCATION_Y":2773420},"geometry":{"points":[[121.51111582168865,25.06627753687944]]}},{"attributes":{"OBJECTID":15,"STATION_NA":"大輝車業有限公司","COUNTY_NA":"台北市","ZIPCODE":"115","ADDRESS":"115台北市南港區忠孝東路七段600號","TEL":"02-27820869","LICENSE_NO":"A26","OWNER":"黃進發","LOCATION_T":"地址對位","LOCATION_X":311253,"LOCATION_Y":2771982},"geometry":{"points":[[121.61531184747689,25.052897625925223]]}},{"attributes":{"OBJECTID":16,"STATION_NA":"新三和機車行","COUNTY_NA":"台北市","ZIPCODE":"114","ADDRESS":"114台北市內湖區文德路22巷1號","TEL":"02-27971471","LICENSE_NO":"A28","OWNER":"廖平和","LOCATION_T":"地址對位","LOCATION_X":307620,"LOCATION_Y":2774773},"geometry":{"points":[[121.57942605954432,25.078240762388983]]}},{"attributes":{"OBJECTID":17,"STATION_NA":"日盛車業有限公司","COUNTY_NA":"台北市","ZIPCODE":"114","ADDRESS":"114台北市內湖區成功路三段73號","TEL":"02-27934893","LICENSE_NO":"A29","OWNER":"賴文棟","LOCATION_T":"地址對位","LOCATION_X":308698,"LOCATION_Y":2774740},"geometry":{"points":[[121.59011041838876,25.077900340944446]]}},{"attributes":{"OBJECTID":18,"STATION_NA":"世群車業有限公司","COUNTY_NA":"台北市","ZIPCODE":"108","ADDRESS":"108台北市萬華區和平西路二段147號","TEL":"02-23752251","LICENSE_NO":"A31","OWNER":"洪印","LOCATION_T":"地址對位","LOCATION_X":300152,"LOCATION_Y":2769816},"geometry":{"points":[[121.50521290462218,25.033759751780654]]}},{"attributes":{"OBJECTID":19,"STATION_NA":"東龍車業有限公司","COUNTY_NA":"台北市","ZIPCODE":"108","ADDRESS":"108台北市萬華區東園街133號","TEL":"02-23320266","LICENSE_NO":"A32","OWNER":"周貴仁","LOCATION_T":"地址對位","LOCATION_X":299333,"LOCATION_Y":2768830},"geometry":{"points":[[121.49706105999454,25.024885502962842]]}},{"attributes":{"OBJECTID":20,"STATION_NA":"得山車業有限公司","COUNTY_NA":"台北市","ZIPCODE":"108","ADDRESS":"108台北市萬華區康定路110號","TEL":"02-23313426","LICENSE_NO":"A33","OWNER":"張秀雄","LOCATION_T":"地址對位","LOCATION_X":299831,"LOCATION_Y":2770633},"geometry":{"points":[[121.50206218806578,25.041146495169546]]}},{"attributes":{"OBJECTID":21,"STATION_NA":"健立車業有限公司","COUNTY_NA":"台北市","ZIPCODE":"108","ADDRESS":"108台北市萬華區桂林路206號","TEL":"02-23065045","LICENSE_NO":"A34","OWNER":"張陳春足","LOCATION_T":"地址對位","LOCATION_X":299300,"LOCATION_Y":2770322},"geometry":{"points":[[121.49678860642699,25.038356421261376]]}},{"attributes":{"OBJECTID":22,"STATION_NA":"永振億實業有限公司","COUNTY_NA":"台北市","ZIPCODE":"108","ADDRESS":"108台北市萬華區南寧路62-64號","TEL":"02-23086836","LICENSE_NO":"A35","OWNER":"葉書銘","LOCATION_T":"地址對位","LOCATION_X":300241,"LOCATION_Y":2770936},"geometry":{"points":[[121.50613656617739,25.043868246906396]]}},{"attributes":{"OBJECTID":23,"STATION_NA":"安富機車行","COUNTY_NA":"台北市","ZIPCODE":"104","ADDRESS":"104台北市中山區八德路二段86號","TEL":"02-27312595","LICENSE_NO":"A36","OWNER":"林國震","LOCATION_T":"地址對位","LOCATION_X":303229,"LOCATION_Y":2771137},"geometry":{"points":[[121.53575591704349,25.045579107062895]]}},{"attributes":{"OBJECTID":24,"STATION_NA":"龍騎士車業有限公司","COUNTY_NA":"台北市","ZIPCODE":"103","ADDRESS":"103台北市大同區五原路2號","TEL":"02-25550123","LICENSE_NO":"A37","OWNER":"許建邦","LOCATION_T":"地址對位","LOCATION_X":301422,"LOCATION_Y":2772324},"geometry":{"points":[[121.51789336461786,25.056359119837207]]}},{"attributes":{"OBJECTID":25,"STATION_NA":"聯葉車業有限公司","COUNTY_NA":"台北市","ZIPCODE":"104","ADDRESS":"104台北市中山區遼寧街8號","TEL":"02-27724356","LICENSE_NO":"A38","OWNER":"蘇信全","LOCATION_T":"地址對位","LOCATION_X":303860,"LOCATION_Y":2771351},"geometry":{"points":[[121.54201776718878,25.047488401064982]]}},{"attributes":{"OBJECTID":26,"STATION_NA":"高旺企業股份有限公司","COUNTY_NA":"台北市","ZIPCODE":"117","ADDRESS":"116台北市文山區羅斯福路五段182號","TEL":"02-29312289","LICENSE_NO":"A39","OWNER":"高德旺","LOCATION_T":"地址對位","LOCATION_X":303520,"LOCATION_Y":2766536},"geometry":{"points":[[121.53845769871214,25.004029961010648]]}},{"attributes":{"OBJECTID":27,"STATION_NA":"鳴輝機車有限公司","COUNTY_NA":"台北市","ZIPCODE":"112","ADDRESS":"112台北市北投區中央南路一段210號","TEL":"02-28919462","LICENSE_NO":"A40","OWNER":"陳惠芬","LOCATION_T":"地址對位","LOCATION_X":299692,"LOCATION_Y":2780287},"geometry":{"points":[[121.50103978293271,25.128306441077171]]}},{"attributes":{"OBJECTID":28,"STATION_NA":"汶吉車業行","COUNTY_NA":"台北市","ZIPCODE":"112","ADDRESS":"112台北市北投區大業路538號","TEL":"02-28929174","LICENSE_NO":"A41","OWNER":"張劉瑋婷","LOCATION_T":"地址對位","LOCATION_X":299258,"LOCATION_Y":2781023},"geometry":{"points":[[121.49676222636656,25.134965362942342]]}},{"attributes":{"OBJECTID":29,"STATION_NA":"聯螢車業有限公司","COUNTY_NA":"台北市","ZIPCODE":"112","ADDRESS":"112台北市北投區中央南路一段156號","TEL":"02-28955695","LICENSE_NO":"A42","OWNER":"徐琇晴","LOCATION_T":"地址對位","LOCATION_X":299679,"LOCATION_Y":2780423},"geometry":{"points":[[121.50091579219574,25.12953465788188]]}},{"attributes":{"OBJECTID":30,"STATION_NA":"山樂車業有限公司","COUNTY_NA":"台北市","ZIPCODE":"110","ADDRESS":"110台北市信義區松隆路329巷2號1樓","TEL":"02-27563333","LICENSE_NO":"A43","OWNER":"陳登財","LOCATION_T":"地址對位","LOCATION_X":307622,"LOCATION_Y":2771462},"geometry":{"points":[[121.57930467536184,25.04834890442207]]}},{"attributes":{"OBJECTID":31,"STATION_NA":"勝鎰車業有限公司","COUNTY_NA":"台北市","ZIPCODE":"110","ADDRESS":"110台北市信義區基隆路二段131之22號","TEL":"02-27389229","LICENSE_NO":"A44","OWNER":"高平輝","LOCATION_T":"地址對位","LOCATION_X":305306,"LOCATION_Y":2769129},"geometry":{"points":[[121.55625726768355,25.027374705698488]]}},{"attributes":{"OBJECTID":32,"STATION_NA":"易泰車業有限公司","COUNTY_NA":"台北市","ZIPCODE":"110","ADDRESS":"110台北市信義區忠孝東路五段205號","TEL":"02-27629742","LICENSE_NO":"A45","OWNER":"林惠君","LOCATION_T":"地址對位","LOCATION_X":306664,"LOCATION_Y":2770667},"geometry":{"points":[[121.56977742833659,25.041208614241874]]}},{"attributes":{"OBJECTID":33,"STATION_NA":"四維通車業有限公司","COUNTY_NA":"台北市","ZIPCODE":"114","ADDRESS":"114台北市內湖區民權東路六段128號","TEL":"02-27923672","LICENSE_NO":"A46","OWNER":"羅志成","LOCATION_T":"地址對位","LOCATION_X":308443,"LOCATION_Y":2773736},"geometry":{"points":[[121.58753925380306,25.068846360872318]]}},{"attributes":{"OBJECTID":34,"STATION_NA":"展嘉輪業有限公司","COUNTY_NA":"台北市","ZIPCODE":"117","ADDRESS":"116台北市文山區羅斯福路五段48號1F","TEL":"02-29351233","LICENSE_NO":"A47","OWNER":"陳澤囍","LOCATION_T":"地址對位","LOCATION_X":303429,"LOCATION_Y":2767050},"geometry":{"points":[[121.53757650331357,25.008673696634968]]}},{"attributes":{"OBJECTID":35,"STATION_NA":"鋒權輪有限公司","COUNTY_NA":"台北市","ZIPCODE":"117","ADDRESS":"116台北市文山區興隆路二段241號","TEL":"02-29318529","LICENSE_NO":"A48","OWNER":"高何美鳳","LOCATION_T":"地址對位","LOCATION_X":304823,"LOCATION_Y":2766312},"geometry":{"points":[[121.5513568729733,25.001960017909351]]}},{"attributes":{"OBJECTID":36,"STATION_NA":"盛昌機車行","COUNTY_NA":"台北市","ZIPCODE":"106","ADDRESS":"106台北市大安區辛亥路一段58號","TEL":"02-23656459","LICENSE_NO":"A49","OWNER":"傅海祥","LOCATION_T":"地址對位","LOCATION_X":302724,"LOCATION_Y":2768345},"geometry":{"points":[[121.53064242442672,25.020390379331428]]}},{"attributes":{"OBJECTID":37,"STATION_NA":"福輪機車有限公司","COUNTY_NA":"台北市","ZIPCODE":"108","ADDRESS":"108台北市萬華區萬大路385之1號","TEL":"02-23072181","LICENSE_NO":"A50","OWNER":"沈文傑","LOCATION_T":"地址對位","LOCATION_X":299580,"LOCATION_Y":2768578},"geometry":{"points":[[121.4994992822012,25.022602248091847]]}},{"attributes":{"OBJECTID":38,"STATION_NA":"良江企業有限公司","COUNTY_NA":"台北市","ZIPCODE":"108","ADDRESS":"108台北市萬華區中華路二段98號","TEL":"02-23049911","LICENSE_NO":"A51","OWNER":"陳志強","LOCATION_T":"地址對位","LOCATION_X":300040,"LOCATION_Y":2769560},"geometry":{"points":[[121.50409356483888,25.031452342085025]]}},{"attributes":{"OBJECTID":39,"STATION_NA":"大旺車行","COUNTY_NA":"台北市","ZIPCODE":"108","ADDRESS":"108台北市萬華區萬大路214號","TEL":"02-23015555","LICENSE_NO":"A52","OWNER":"李金蓮","LOCATION_T":"地址對位","LOCATION_X":299660,"LOCATION_Y":2769078},"geometry":{"points":[[121.50031032809856,25.027113556904126]]}},{"attributes":{"OBJECTID":40,"STATION_NA":"后里車業有限公司","COUNTY_NA":"台北市","ZIPCODE":"100","ADDRESS":"100台北市中正區牯嶺街47號","TEL":"02-23417010","LICENSE_NO":"A53","OWNER":"楊振武","LOCATION_T":"地址對位","LOCATION_X":301309,"LOCATION_Y":2769393},"geometry":{"points":[[121.51666200178185,25.029901399517097]]}},{"attributes":{"OBJECTID":41,"STATION_NA":"松大車業有限公司","COUNTY_NA":"台北市","ZIPCODE":"100","ADDRESS":"100台北市中正區牯嶺街 61-3號","TEL":"02-23222090","LICENSE_NO":"A54","OWNER":"梁徐宏","LOCATION_T":"地址對位","LOCATION_X":301356,"LOCATION_Y":2769325},"geometry":{"points":[[121.51712514558768,25.029285864792968]]}},{"attributes":{"OBJECTID":42,"STATION_NA":"績豐企業股份有限公司","COUNTY_NA":"台北市","ZIPCODE":"100","ADDRESS":"100台北市中正區金華街57號","TEL":"02-23932228","LICENSE_NO":"A55","OWNER":"戴宜增","LOCATION_T":"地址對位","LOCATION_X":301724,"LOCATION_Y":2769593},"geometry":{"points":[[121.52078190424305,25.031692645553207]]}},{"attributes":{"OBJECTID":43,"STATION_NA":"必盛車業有限公司","COUNTY_NA":"台北市","ZIPCODE":"100","ADDRESS":"100台北市中正區羅斯福路三段146號","TEL":"02-23678005","LICENSE_NO":"A56","OWNER":"王添進","LOCATION_T":"地址對位","LOCATION_X":302516,"LOCATION_Y":2768305},"geometry":{"points":[[121.52857997229152,25.020036629042874]]}},{"attributes":{"OBJECTID":44,"STATION_NA":"忠豪車業有限公司","COUNTY_NA":"台北市","ZIPCODE":"100","ADDRESS":"100台北市中正區忠孝東路二段31號","TEL":"02-23223646","LICENSE_NO":"A57","OWNER":"連圳龍","LOCATION_T":"地址對位","LOCATION_X":302437,"LOCATION_Y":2770947},"geometry":{"points":[[121.52789965075831,25.043891870365986]]}},{"attributes":{"OBJECTID":45,"STATION_NA":"磬葉企業有限公司","COUNTY_NA":"台北市","ZIPCODE":"103","ADDRESS":"103台北市大同區錦西街56號1樓","TEL":"02-25573008","LICENSE_NO":"A58","OWNER":"蕭富聰","LOCATION_T":"地址對位","LOCATION_X":301602,"LOCATION_Y":2772750},"geometry":{"points":[[121.51969365745954,25.060198932484212]]}},{"attributes":{"OBJECTID":46,"STATION_NA":"良星車業有限公司","COUNTY_NA":"台北市","ZIPCODE":"103","ADDRESS":"103台北市大同區重慶北路二段39號","TEL":"02-25550191","LICENSE_NO":"A59","OWNER":"吳西寬","LOCATION_T":"地址對位","LOCATION_X":301066,"LOCATION_Y":2772181},"geometry":{"points":[[121.51435959705445,25.055080314529597]]}},{"attributes":{"OBJECTID":47,"STATION_NA":"大華車業有限公司","COUNTY_NA":"台北市","ZIPCODE":"103","ADDRESS":"103台北市大同區南京西路73號","TEL":"02-25550831","LICENSE_NO":"A60","OWNER":"陳信義","LOCATION_T":"地址對位","LOCATION_X":301508,"LOCATION_Y":2771974},"geometry":{"points":[[121.51873235016932,25.053196276340913]]}},{"attributes":{"OBJECTID":48,"STATION_NA":"中盛機車有限公司","COUNTY_NA":"台北市","ZIPCODE":"115","ADDRESS":"115台北市南港區東新街4號1F","TEL":"02-27826661","LICENSE_NO":"A71","OWNER":"高蘇燕","LOCATION_T":"地址對位","LOCATION_X":307931,"LOCATION_Y":2771781},"geometry":{"points":[[121.58238058469924,25.051216765541103]]}},{"attributes":{"OBJECTID":49,"STATION_NA":"富偉機車行","COUNTY_NA":"台北市","ZIPCODE":"111","ADDRESS":"111台北市士林區文林路679號","TEL":"02-28341376","LICENSE_NO":"A72","OWNER":"黃豐榮","LOCATION_T":"地址對位","LOCATION_X":301824,"LOCATION_Y":2777271},"geometry":{"points":[[121.52206810148627,25.10100657038852]]}},{"attributes":{"OBJECTID":50,"STATION_NA":"力泰車業有限公司","COUNTY_NA":"台北市","ZIPCODE":"111","ADDRESS":"111台北市士林區延平北路5段220號","TEL":"02-28115218","LICENSE_NO":"A73","OWNER":"程麗蓉","LOCATION_T":"地址對位","LOCATION_X":300624,"LOCATION_Y":2775386},"geometry":{"points":[[121.51009951680521,25.084030334384774]]}},{"attributes":{"OBJECTID":51,"STATION_NA":"永生車業有限公司","COUNTY_NA":"台北市","ZIPCODE":"111","ADDRESS":"111台北市士林區華齡街71號","TEL":"02-28832628","LICENSE_NO":"A74","OWNER":"呂金隆","LOCATION_T":"地址對位","LOCATION_X":301551,"LOCATION_Y":2775471},"geometry":{"points":[[121.51929237747117,25.084766070286744]]}},{"attributes":{"OBJECTID":52,"STATION_NA":"長豐車業行","COUNTY_NA":"台北市","ZIPCODE":"103","ADDRESS":"103台北市大同區承德路3段160號","TEL":"02-25910280","LICENSE_NO":"A75","OWNER":"胡有典","LOCATION_T":"地址對位","LOCATION_X":301446,"LOCATION_Y":2773693},"geometry":{"points":[[121.51818348599139,25.068717883744199]]}},{"attributes":{"OBJECTID":53,"STATION_NA":"弘達車業有限公司","COUNTY_NA":"台北市","ZIPCODE":"103","ADDRESS":"103台北市大同區承德路3段162號","TEL":"02-25927617","LICENSE_NO":"A76","OWNER":"陳武田","LOCATION_T":"地址對位","LOCATION_X":301446,"LOCATION_Y":2773699},"geometry":{"points":[[121.51818371390152,25.068772053119581]]}},{"attributes":{"OBJECTID":54,"STATION_NA":"金理車業有限公司","COUNTY_NA":"台北市","ZIPCODE":"106","ADDRESS":"106台北市大安區八德路2段35號1F","TEL":"02-27112950","LICENSE_NO":"A77","OWNER":"楊劉玉英","LOCATION_T":"地址對位","LOCATION_X":303052,"LOCATION_Y":2771056},"geometry":{"points":[[121.533998632107,25.044854150818786]]}},{"attributes":{"OBJECTID":55,"STATION_NA":"宏興車業有限公司","COUNTY_NA":"台北市","ZIPCODE":"106","ADDRESS":"106台北市大安區和平東路3段127號","TEL":"02-27371201","LICENSE_NO":"A78","OWNER":"侯天助","LOCATION_T":"地址對位","LOCATION_X":304860,"LOCATION_Y":2768815},"geometry":{"points":[[121.55182527054697,25.024556371994557]]}},{"attributes":{"OBJECTID":56,"STATION_NA":"車王二輪社","COUNTY_NA":"台北市","ZIPCODE":"106","ADDRESS":"106台北市大安區延吉街64-1號","TEL":"02-27783310","LICENSE_NO":"A79","OWNER":"陳文祥","LOCATION_T":"地址對位","LOCATION_X":305054,"LOCATION_Y":2770903},"geometry":{"points":[[121.55383242766395,25.043399939592046]]}},{"attributes":{"OBJECTID":57,"STATION_NA":"益揚車業有限公司","COUNTY_NA":"台北市","ZIPCODE":"106","ADDRESS":"106台北市大安區羅斯福路3段93號1F","TEL":"02-23653488","LICENSE_NO":"A80","OWNER":"陳周紅","LOCATION_T":"地址對位","LOCATION_X":302290,"LOCATION_Y":2768588},"geometry":{"points":[[121.52635165573658,25.022599562152145]]}},{"attributes":{"OBJECTID":58,"STATION_NA":"農安機車有限公司","COUNTY_NA":"台北市","ZIPCODE":"104","ADDRESS":"104台北市中山區龍江路375號","TEL":"02-25032002","LICENSE_NO":"A81","OWNER":"黃登鑫","LOCATION_T":"地址對位","LOCATION_X":303759,"LOCATION_Y":2773258},"geometry":{"points":[[121.54109264383955,25.064708891178604]]}},{"attributes":{"OBJECTID":59,"STATION_NA":"大昌機車行","COUNTY_NA":"台北市","ZIPCODE":"104","ADDRESS":"104台北市中山區北安路458巷5號1F","TEL":"02-25325325","LICENSE_NO":"A82","OWNER":"湯乾坤","LOCATION_T":"地址對位","LOCATION_X":304111,"LOCATION_Y":2774878},"geometry":{"points":[[121.54464649506933,25.079321652569451]]}},{"attributes":{"OBJECTID":60,"STATION_NA":"展欣車業有限公司","COUNTY_NA":"台北市","ZIPCODE":"104","ADDRESS":"104台北市中山區民權東路2段126號1F","TEL":"02-25215751","LICENSE_NO":"A83","OWNER":"連俊卿","LOCATION_T":"地址對位","LOCATION_X":302916,"LOCATION_Y":2772988},"geometry":{"points":[[121.53272649923301,25.062301576142573]]}},{"attributes":{"OBJECTID":61,"STATION_NA":"裕國機車行","COUNTY_NA":"台北市","ZIPCODE":"104","ADDRESS":"104台北市中山區長安東路2段72號","TEL":"02-25082626","LICENSE_NO":"A84","OWNER":"林世政","LOCATION_T":"地址對位","LOCATION_X":303019,"LOCATION_Y":2771439},"geometry":{"points":[[121.53368661447982,25.048313150382089]]}},{"attributes":{"OBJECTID":62,"STATION_NA":"易昌機車行","COUNTY_NA":"台北市","ZIPCODE":"104","ADDRESS":"104台北市中山區八德路2段329號","TEL":"02-27818035","LICENSE_NO":"A85","OWNER":"簡煉","LOCATION_T":"地址對位","LOCATION_X":303979,"LOCATION_Y":2771353},"geometry":{"points":[[121.54319717539565,25.047502138481775]]}},{"attributes":{"OBJECTID":63,"STATION_NA":"達誠車業有限公司","COUNTY_NA":"台北市","ZIPCODE":"104","ADDRESS":"104台北市中山區吉林路12-3號","TEL":"02-25615203","LICENSE_NO":"A86","OWNER":"邱寬","LOCATION_T":"地址對位","LOCATION_X":302639,"LOCATION_Y":2771655},"geometry":{"points":[[121.52992906576956,25.050276740130322]]}},{"attributes":{"OBJECTID":64,"STATION_NA":"名家車業有限公司","COUNTY_NA":"台北市","ZIPCODE":"104","ADDRESS":"104台北市中山區錦州街310號1F","TEL":"02-25052840","LICENSE_NO":"A87","OWNER":"卓芳如","LOCATION_T":"地址對位","LOCATION_X":303403,"LOCATION_Y":2772756},"geometry":{"points":[[121.53754423388865,25.060189581275491]]}},{"attributes":{"OBJECTID":65,"STATION_NA":"慶發車業有限公司","COUNTY_NA":"台北市","ZIPCODE":"100","ADDRESS":"100台北市中正區汀州路1段182號","TEL":"02-23013749","LICENSE_NO":"A88","OWNER":"邱炳宗","LOCATION_T":"地址對位","LOCATION_X":300533,"LOCATION_Y":2769212},"geometry":{"points":[[121.50896579378755,25.028293898404193]]}},{"attributes":{"OBJECTID":66,"STATION_NA":"隆發車業有限公司","COUNTY_NA":"台北市","ZIPCODE":"100","ADDRESS":"100台北市中正區重慶南路3段135號1F","TEL":"02-23688822","LICENSE_NO":"A89","OWNER":"陳哲男","LOCATION_T":"地址對位","LOCATION_X":301352,"LOCATION_Y":2768707},"geometry":{"points":[[121.5170620619372,25.023706647334823]]}},{"attributes":{"OBJECTID":67,"STATION_NA":"春琳車業有限公司","COUNTY_NA":"台北市","ZIPCODE":"114","ADDRESS":"114台北市內湖區江南街28號","TEL":"02-26574081","LICENSE_NO":"A90","OWNER":"張春琳","LOCATION_T":"地址對位","LOCATION_X":307438,"LOCATION_Y":2774704},"geometry":{"points":[[121.57761901598343,25.077624932280187]]}},{"attributes":{"OBJECTID":68,"STATION_NA":"鳳翔車業行","COUNTY_NA":"台北市","ZIPCODE":"117","ADDRESS":"116台北市文山區木柵路1段57-6號1F","TEL":"02-22362673","LICENSE_NO":"A91","OWNER":"楊偉源","LOCATION_T":"地址對位","LOCATION_X":304256,"LOCATION_Y":2764639},"geometry":{"points":[[121.54567285868053,24.986877077014732]]}},{"attributes":{"OBJECTID":69,"STATION_NA":"元土車行","COUNTY_NA":"台北市","ZIPCODE":"117","ADDRESS":"116台北市文山區木柵路1段212號","TEL":"02-29363029","LICENSE_NO":"A92","OWNER":"蘇月潭","LOCATION_T":"地址對位","LOCATION_X":305021,"LOCATION_Y":2764745},"geometry":{"points":[[121.55325447290333,24.987805695362276]]}},{"attributes":{"OBJECTID":70,"STATION_NA":"光輝機車行","COUNTY_NA":"台北市","ZIPCODE":"117","ADDRESS":"116台北市文山區木柵路1段286號","TEL":"02-29375440","LICENSE_NO":"A93","OWNER":"李世雄","LOCATION_T":"地址對位","LOCATION_X":305199,"LOCATION_Y":2764765},"geometry":{"points":[[121.55501845850455,24.987979682049659]]}},{"attributes":{"OBJECTID":71,"STATION_NA":"順成發機車行","COUNTY_NA":"台北市","ZIPCODE":"117","ADDRESS":"116台北市文山區木新路2段226號","TEL":"02-29393837","LICENSE_NO":"A94","OWNER":"簡春永","LOCATION_T":"地址對位","LOCATION_X":306422,"LOCATION_Y":2764277},"geometry":{"points":[[121.56711261972399,24.983528508686497]]}},{"attributes":{"OBJECTID":72,"STATION_NA":"順利機車行","COUNTY_NA":"台北市","ZIPCODE":"117","ADDRESS":"116台北市文山區木新路2段285號1F","TEL":"02-29390679","LICENSE_NO":"A95","OWNER":"吳顏差","LOCATION_T":"地址對位","LOCATION_X":306282,"LOCATION_Y":2764191},"geometry":{"points":[[121.56572234571843,24.982757394213728]]}},{"attributes":{"OBJECTID":73,"STATION_NA":"拓源機車行","COUNTY_NA":"台北市","ZIPCODE":"117","ADDRESS":"116台北市文山區木新路3段73號1F","TEL":"02-29360058","LICENSE_NO":"A96","OWNER":"呂世源","LOCATION_T":"地址對位","LOCATION_X":306055,"LOCATION_Y":2764127},"geometry":{"points":[[121.56347126126163,24.982188133805501]]}},{"attributes":{"OBJECTID":74,"STATION_NA":"東和機車行","COUNTY_NA":"台北市","ZIPCODE":"117","ADDRESS":"116台北市文山區指南路1段4號1F","TEL":"02-29391769","LICENSE_NO":"A97","OWNER":"陳智山","LOCATION_T":"地址對位","LOCATION_X":306596,"LOCATION_Y":2764723},"geometry":{"points":[[121.56885467516962,24.98754831543194]]}},{"attributes":{"OBJECTID":75,"STATION_NA":"祥騰機車行","COUNTY_NA":"台北市","ZIPCODE":"117","ADDRESS":"116台北市文山區景華街64號","TEL":"02-29321453","LICENSE_NO":"A98","OWNER":"李木傳","LOCATION_T":"地址對位","LOCATION_X":304132,"LOCATION_Y":2765535},"geometry":{"points":[[121.54448040923144,24.99497057121955]]}},{"attributes":{"OBJECTID":76,"STATION_NA":"威烝車業有限公司","COUNTY_NA":"台北市","ZIPCODE":"117","ADDRESS":"116台北市文山區景興路234號1F","TEL":"02-29336070","LICENSE_NO":"A99","OWNER":"鄭揚瑞","LOCATION_T":"地址對位","LOCATION_X":303997,"LOCATION_Y":2765064},"geometry":{"points":[[121.54312433770158,24.990723329607015]]}},{"attributes":{"OBJECTID":77,"STATION_NA":"騰暉車業行","COUNTY_NA":"台北市","ZIPCODE":"117","ADDRESS":"116台北市文山區興隆路2段18號","TEL":"02-29355119","LICENSE_NO":"AA0","OWNER":"許林寶彩","LOCATION_T":"地址對位","LOCATION_X":304232,"LOCATION_Y":2765939},"geometry":{"points":[[121.54548719158055,24.99861422292058]]}},{"attributes":{"OBJECTID":78,"STATION_NA":"弘偉車業有限公司","COUNTY_NA":"台北市","ZIPCODE":"117","ADDRESS":"116台北市文山區羅斯福路6段317號","TEL":"02-29310378","LICENSE_NO":"AA1","OWNER":"陳志祥","LOCATION_T":"地址對位","LOCATION_X":303821,"LOCATION_Y":2765414},"geometry":{"points":[[121.54139493118251,24.993889566247265]]}},{"attributes":{"OBJECTID":79,"STATION_NA":"雄大車業行","COUNTY_NA":"台北市","ZIPCODE":"112","ADDRESS":"112台北市北投區中和街453-11號","TEL":"02-28963609","LICENSE_NO":"AA2","OWNER":"吳建雄","LOCATION_T":"地址對位","LOCATION_X":299258,"LOCATION_Y":2782088},"geometry":{"points":[[121.49680055944312,25.144580330063356]]}},{"attributes":{"OBJECTID":80,"STATION_NA":"聯誠機車行","COUNTY_NA":"台北市","ZIPCODE":"112","ADDRESS":"112台北市北投區石牌路2段37號","TEL":"02-28223776","LICENSE_NO":"AA3","OWNER":"鄭春蟳","LOCATION_T":"地址對位","LOCATION_X":301171,"LOCATION_Y":2778940},"geometry":{"points":[[121.51565684196338,25.116096146778709]]}},{"attributes":{"OBJECTID":81,"STATION_NA":"和峰車業有限公司","COUNTY_NA":"台北市","ZIPCODE":"112","ADDRESS":"112台北市北投區致遠一路1段92號","TEL":"02-28279551","LICENSE_NO":"AA4","OWNER":"童美惠","LOCATION_T":"地址對位","LOCATION_X":301141,"LOCATION_Y":2778205},"geometry":{"points":[[121.51533178575512,25.109461897029981]]}},{"attributes":{"OBJECTID":82,"STATION_NA":"重輪車業商有限公司","COUNTY_NA":"台北市","ZIPCODE":"112","ADDRESS":"112台北市北投區崇仁路1段21號","TEL":"02-28918687","LICENSE_NO":"AA5","OWNER":"呂學殷","LOCATION_T":"地址對位","LOCATION_X":299726,"LOCATION_Y":2780220},"geometry":{"points":[[121.5013745353625,25.127700438127583]]}},{"attributes":{"OBJECTID":83,"STATION_NA":"聯弋車業有限公司","COUNTY_NA":"台北市","ZIPCODE":"112","ADDRESS":"112台北市北投區義理街64號","TEL":"02-28250765","LICENSE_NO":"AA6","OWNER":"陳欣暉","LOCATION_T":"地址對位","LOCATION_X":301205,"LOCATION_Y":2779106},"geometry":{"points":[[121.5160002103221,25.117593568423608]]}},{"attributes":{"OBJECTID":84,"STATION_NA":"日星車業行","COUNTY_NA":"台北市","ZIPCODE":"105","ADDRESS":"105台北市松山區八德路3段198號1F","TEL":"02-25780643","LICENSE_NO":"AA7","OWNER":"黃棟樑","LOCATION_T":"地址對位","LOCATION_X":305306,"LOCATION_Y":2771403},"geometry":{"points":[[121.55635014719995,25.047904622305236]]}},{"attributes":{"OBJECTID":85,"STATION_NA":"強亞車業行","COUNTY_NA":"台北市","ZIPCODE":"115","ADDRESS":"115台北市南港區中坡南路43號","TEL":"02-27852214","LICENSE_NO":"AA8","OWNER":"彭福強","LOCATION_T":"地址對位","LOCATION_X":308060,"LOCATION_Y":2770873},"geometry":{"points":[[121.58362006487746,25.043014306013788]]}},{"attributes":{"OBJECTID":86,"STATION_NA":"尚益車業有限公司","COUNTY_NA":"台北市","ZIPCODE":"105","ADDRESS":"105台北市松山區五常街281-2號","TEL":"02-27129855","LICENSE_NO":"AA9","OWNER":"陳奎宇","LOCATION_T":"地址對位","LOCATION_X":304171,"LOCATION_Y":2773224},"geometry":{"points":[[121.54517489852006,25.06438692207065]]}},{"attributes":{"OBJECTID":87,"STATION_NA":"新光機車行","COUNTY_NA":"台北市","ZIPCODE":"105","ADDRESS":"105台北市松山區民生東路5段57號","TEL":"02-27612708","LICENSE_NO":"AB0","OWNER":"謝李富貴","LOCATION_T":"地址對位","LOCATION_X":305454,"LOCATION_Y":2772590},"geometry":{"points":[[121.5578655192667,25.058615491943527]]}},{"attributes":{"OBJECTID":88,"STATION_NA":"千翔車業行","COUNTY_NA":"台北市","ZIPCODE":"105","ADDRESS":"105台北市松山區光復北路109號","TEL":"02-27693233","LICENSE_NO":"AB1","OWNER":"林振文","LOCATION_T":"地址對位","LOCATION_X":305480,"LOCATION_Y":2771767},"geometry":{"points":[[121.55808945625425,25.051184350210921]]}},{"attributes":{"OBJECTID":89,"STATION_NA":"佳昇機車行","COUNTY_NA":"台北市","ZIPCODE":"105","ADDRESS":"105台北市松山區健康路44號1F","TEL":"02-87707575","LICENSE_NO":"AB2","OWNER":"易正盛","LOCATION_T":"地址對位","LOCATION_X":304946,"LOCATION_Y":2771989},"geometry":{"points":[[121.55280624894468,25.053208524354829]]}},{"attributes":{"OBJECTID":90,"STATION_NA":"吉安運動器材有限公司","COUNTY_NA":"台北市","ZIPCODE":"110","ADDRESS":"110台北市信義區中坡南路287號1樓","TEL":"02-27265996","LICENSE_NO":"AB3","OWNER":"衛霖森","LOCATION_T":"地址對位","LOCATION_X":308122,"LOCATION_Y":2770384},"geometry":{"points":[[121.5842134671406,25.038597202240119]]}},{"attributes":{"OBJECTID":91,"STATION_NA":"春崇車業有限公司","COUNTY_NA":"台北市","ZIPCODE":"110","ADDRESS":"110台北市信義區福德街268巷1號","TEL":"02-27591500","LICENSE_NO":"AB4","OWNER":"潘素真","LOCATION_T":"地址對位","LOCATION_X":308291,"LOCATION_Y":2770429},"geometry":{"points":[[121.58589008483295,25.038996818952828]]}},{"attributes":{"OBJECTID":92,"STATION_NA":"健弘車業有限公司","COUNTY_NA":"台北市","ZIPCODE":"115","ADDRESS":"115台北市南港區南港路1段176號","TEL":"02-27828232","LICENSE_NO":"AB5","OWNER":"黃蔡傳圓","LOCATION_T":"地址對位","LOCATION_X":310874,"LOCATION_Y":2772249},"geometry":{"points":[[121.61156782261124,25.055323701789067]]}},{"attributes":{"OBJECTID":93,"STATION_NA":"儀弘機車行","COUNTY_NA":"台北市","ZIPCODE":"115","ADDRESS":"115台北市南港區研究院路1段185號1F","TEL":"02-27881023","LICENSE_NO":"AB6","OWNER":"潘月娥","LOCATION_T":"地址對位","LOCATION_X":311318,"LOCATION_Y":2771610},"geometry":{"points":[[121.61593914356237,25.049536576319461]]}},{"attributes":{"OBJECTID":94,"STATION_NA":"高陞機車行","COUNTY_NA":"台北市","ZIPCODE":"115","ADDRESS":"115台北市南港區研究院路2段72號","TEL":"02-27821361","LICENSE_NO":"AB7","OWNER":"高文義","LOCATION_T":"地址對位","LOCATION_X":311228,"LOCATION_Y":2771177},"geometry":{"points":[[121.61502762110398,25.045631230340298]]}},{"attributes":{"OBJECTID":95,"STATION_NA":"瑞明機車行","COUNTY_NA":"台北市","ZIPCODE":"103","ADDRESS":"103台北市大同區長安西路199號1F","TEL":"02-25595038","LICENSE_NO":"AB8","OWNER":"黃武雄","LOCATION_T":"地址對位","LOCATION_X":300929,"LOCATION_Y":2771832},"geometry":{"points":[[121.51298859777762,25.051934155589233]]}},{"attributes":{"OBJECTID":96,"STATION_NA":"三育機車有限公司","COUNTY_NA":"台北市","ZIPCODE":"117","ADDRESS":"116台北市文山區景隆街56號1F","TEL":"02-29315966","LICENSE_NO":"AB9","OWNER":"陳秋永","LOCATION_T":"地址對位","LOCATION_X":304113,"LOCATION_Y":2765913},"geometry":{"points":[[121.54430732602054,24.998383847658634]]}},{"attributes":{"OBJECTID":97,"STATION_NA":"欣利機車有限公司","COUNTY_NA":"台北市","ZIPCODE":"108","ADDRESS":"108台北市萬華區西園路2段246號1F","TEL":"02-23094206","LICENSE_NO":"AC0","OWNER":"楊淑伶","LOCATION_T":"地址對位","LOCATION_X":299112,"LOCATION_Y":2769185},"geometry":{"points":[[121.49488414247755,25.028097747832017]]}},{"attributes":{"OBJECTID":98,"STATION_NA":"東園車業有限公司","COUNTY_NA":"台北市","ZIPCODE":"108","ADDRESS":"108台北市萬華區東園街105號","TEL":"02-23035374","LICENSE_NO":"AC1","OWNER":"周貴男","LOCATION_T":"地址對位","LOCATION_X":299309,"LOCATION_Y":2768883},"geometry":{"points":[[121.49682518234434,25.025364775305537]]}},{"attributes":{"OBJECTID":99,"STATION_NA":"葉山車行","COUNTY_NA":"台北市","ZIPCODE":"108","ADDRESS":"108台北市萬華區桂林路30號30-1號1F","TEL":"02-23062832","LICENSE_NO":"AC2","OWNER":"葉增旺","LOCATION_T":"地址對位","LOCATION_X":300131,"LOCATION_Y":2770250},"geometry":{"points":[[121.50502093279815,25.037678655710398]]}},{"attributes":{"OBJECTID":100,"STATION_NA":"緯陽車業有限公司","COUNTY_NA":"台北市","ZIPCODE":"108","ADDRESS":"108台北市萬華區萬大路483號","TEL":"02-23056158","LICENSE_NO":"AC3","OWNER":"林劉月女","LOCATION_T":"地址對位","LOCATION_X":299438,"LOCATION_Y":2768319},"geometry":{"points":[[121.498082798637,25.020268742292615]]}},{"attributes":{"OBJECTID":101,"STATION_NA":"富群車業股份有限公司","COUNTY_NA":"台中市","ZIPCODE":"408","ADDRESS":"408台中市南屯區五權西路二段2號","TEL":"04-24711314","LICENSE_NO":"B08","OWNER":"王朝明","LOCATION_T":"地址對位","LOCATION_X":214050,"LOCATION_Y":2670808},"geometry":{"points":[[120.65442453476764,24.140280956139872]]}},{"attributes":{"OBJECTID":102,"STATION_NA":"勁陽車業有限公司","COUNTY_NA":"台中市","ZIPCODE":"408","ADDRESS":"408台中市南屯區大墩五街82號","TEL":"04-24710899","LICENSE_NO":"B09","OWNER":"賴永漳","LOCATION_T":"地址對位","LOCATION_X":213863,"LOCATION_Y":2671001},"geometry":{"points":[[120.6525798223476,24.142019418831126]]}},{"attributes":{"OBJECTID":103,"STATION_NA":"富國機車行","COUNTY_NA":"台中市","ZIPCODE":"403","ADDRESS":"403台中市西區向上路一段118號","TEL":"04-23015360","LICENSE_NO":"B10","OWNER":"王朝明","LOCATION_T":"地址對位","LOCATION_X":214917,"LOCATION_Y":2671544},"geometry":{"points":[[120.66293772698072,24.146945237668557]]}},{"attributes":{"OBJECTID":104,"STATION_NA":"一二車業有限公司","COUNTY_NA":"台中市","ZIPCODE":"408","ADDRESS":"408台中市南屯區黎明路一段1094號","TEL":"04-23897812","LICENSE_NO":"B11","OWNER":"張蕭彩霞","LOCATION_T":"地址對位","LOCATION_X":212437,"LOCATION_Y":2670857},"geometry":{"points":[[120.63855231787866,24.140686922884697]]}},{"attributes":{"OBJECTID":105,"STATION_NA":"東和車業商行","COUNTY_NA":"台中市","ZIPCODE":"401","ADDRESS":"401台中市東區南京路139號","TEL":"04-22206707","LICENSE_NO":"B12","OWNER":"李國楨","LOCATION_T":"地址對位","LOCATION_X":217473,"LOCATION_Y":2670754},"geometry":{"points":[[120.68810603358112,24.139865204324312]]}},{"attributes":{"OBJECTID":106,"STATION_NA":"證達企業有限公司","COUNTY_NA":"台中市","ZIPCODE":"404","ADDRESS":"404台中市北區山西路二段135號","TEL":"04-22916766","LICENSE_NO":"B13","OWNER":"劉超雄","LOCATION_T":"地址對位","LOCATION_X":216234,"LOCATION_Y":2674343},"geometry":{"points":[[120.67583252036066,24.172245412626395]]}},{"attributes":{"OBJECTID":107,"STATION_NA":"光賜機車店","COUNTY_NA":"台中市","ZIPCODE":"404","ADDRESS":"404台中市北區梅豐街88號 (靠進化路）","TEL":"04-22319337","LICENSE_NO":"B14","OWNER":"林光賜","LOCATION_T":"地址對位","LOCATION_X":218169,"LOCATION_Y":2672640},"geometry":{"points":[[120.69491341427387,24.156907887703156]]}},{"attributes":{"OBJECTID":108,"STATION_NA":"海蔦輪業有限公司","COUNTY_NA":"台中市","ZIPCODE":"406","ADDRESS":"406台中市北屯區北屯路236之6號","TEL":"04-22310822","LICENSE_NO":"B15","OWNER":"洪麗卿","LOCATION_T":"地址對位","LOCATION_X":218468,"LOCATION_Y":2674064},"geometry":{"points":[[120.69782522776735,24.169771264451224]]}},{"attributes":{"OBJECTID":109,"STATION_NA":"山葉台中服務站","COUNTY_NA":"台中市","ZIPCODE":"406","ADDRESS":"406台中市北屯區北屯路453號","TEL":"04-22411359","LICENSE_NO":"B16","OWNER":"謝文郁","LOCATION_T":"地址對位","LOCATION_X":218870,"LOCATION_Y":2675539},"geometry":{"points":[[120.70175038346871,24.1830971414625]]}},{"attributes":{"OBJECTID":110,"STATION_NA":"國瑋機車商行","COUNTY_NA":"台中市","ZIPCODE":"407","ADDRESS":"407台中市西屯區何厝街17號","TEL":"04-23130848","LICENSE_NO":"B17","OWNER":"何國瑋","LOCATION_T":"地址對位","LOCATION_X":213972,"LOCATION_Y":2673145},"geometry":{"points":[[120.65359970799328,24.161380036719798]]}},{"attributes":{"OBJECTID":111,"STATION_NA":"明風車業有限公司","COUNTY_NA":"台中市","ZIPCODE":"407","ADDRESS":"407台中市西屯區西屯路三段33號","TEL":"04-22522165","LICENSE_NO":"B18","OWNER":"蔡張美麗","LOCATION_T":"地址對位","LOCATION_X":212417,"LOCATION_Y":2675262},"geometry":{"points":[[120.63824261656943,24.180459039634034]]}},{"attributes":{"OBJECTID":112,"STATION_NA":"元輪機車有限公司","COUNTY_NA":"台中市","ZIPCODE":"403","ADDRESS":"403台中市西區西屯路二段9-1號","TEL":"04-23147471","LICENSE_NO":"B19","OWNER":"林國元","LOCATION_T":"地址對位","LOCATION_X":214883,"LOCATION_Y":2673370},"geometry":{"points":[[120.66255948446725,24.163431510299315]]}},{"attributes":{"OBJECTID":113,"STATION_NA":"昇興機車行","COUNTY_NA":"台中市","ZIPCODE":"407","ADDRESS":"407台中市西屯區西屯路二段271-2號","TEL":"04-22517352","LICENSE_NO":"B20","OWNER":"廖千維","LOCATION_T":"地址對位","LOCATION_X":213017,"LOCATION_Y":2674639},"geometry":{"points":[[120.64416382587746,24.174847805180807]]}},{"attributes":{"OBJECTID":114,"STATION_NA":"水湳車業有限公司","COUNTY_NA":"台中市","ZIPCODE":"406","ADDRESS":"406台中市北屯區中清路72-5號","TEL":"04-22929587","LICENSE_NO":"B21","OWNER":"何樹興","LOCATION_T":"地址對位","LOCATION_X":215418,"LOCATION_Y":2675160},"geometry":{"points":[[120.66778230934828,24.179604881237047]]}},{"attributes":{"OBJECTID":115,"STATION_NA":"光雄車業有限公司","COUNTY_NA":"台中市","ZIPCODE":"403","ADDRESS":"403台中市西區五權路1-43號","TEL":"04-23724408","LICENSE_NO":"B22","OWNER":"邱紹雄","LOCATION_T":"地址對位","LOCATION_X":215174,"LOCATION_Y":2670502},"geometry":{"points":[[120.66549126979847,24.137542485062834]]}},{"attributes":{"OBJECTID":116,"STATION_NA":"儷豐輪業有限公司","COUNTY_NA":"台中市","ZIPCODE":"402","ADDRESS":"402台中市南區五權南路280號","TEL":"04-22616045","LICENSE_NO":"B23","OWNER":"魏汝洋","LOCATION_T":"地址對位","LOCATION_X":215655,"LOCATION_Y":2668922},"geometry":{"points":[[120.67026076914713,24.123286755636627]]}},{"attributes":{"OBJECTID":117,"STATION_NA":"鴻鼎車行","COUNTY_NA":"台中市","ZIPCODE":"406","ADDRESS":"406台中市北屯區大連路一段29號","TEL":"04-22958551","LICENSE_NO":"B24","OWNER":"嚴許王黎方","LOCATION_T":"地址對位","LOCATION_X":215856,"LOCATION_Y":2674724},"geometry":{"points":[[120.67210343010099,24.175677540055574]]}},{"attributes":{"OBJECTID":118,"STATION_NA":"勁葉輪業行","COUNTY_NA":"台中市","ZIPCODE":"404","ADDRESS":"404台中市北區大雅路110號","TEL":"04-22061813","LICENSE_NO":"B25","OWNER":"廖金榜","LOCATION_T":"地址對位","LOCATION_X":216343,"LOCATION_Y":2672610},"geometry":{"points":[[120.67694501775442,24.156600309438776]]}},{"attributes":{"OBJECTID":119,"STATION_NA":"新民車業有限公司","COUNTY_NA":"台中市","ZIPCODE":"406","ADDRESS":"406台中市北屯區大連路一段391號","TEL":"04-22920555","LICENSE_NO":"B26","OWNER":"陳洪玉真","LOCATION_T":"地址對位","LOCATION_X":216753,"LOCATION_Y":2674819},"geometry":{"points":[[120.68092966533925,24.17655399335305]]}},{"attributes":{"OBJECTID":120,"STATION_NA":"坤發輪業行","COUNTY_NA":"台中市","ZIPCODE":"406","ADDRESS":"406台中市北屯區水湳路142-1號","TEL":"04-24226667","LICENSE_NO":"B27","OWNER":"江青木","LOCATION_T":"地址對位","LOCATION_X":216768,"LOCATION_Y":2676316},"geometry":{"points":[[120.68104347110699,24.190070847348121]]}},{"attributes":{"OBJECTID":121,"STATION_NA":"富貴輪輪業有限公司","COUNTY_NA":"台中市","ZIPCODE":"406","ADDRESS":"406台中市北屯區昌平路二段9-13號1樓","TEL":"04-22417949","LICENSE_NO":"B28","OWNER":"張津年","LOCATION_T":"地址對位","LOCATION_X":217632,"LOCATION_Y":2675217},"geometry":{"points":[[120.68957219638871,24.180165421561565]]}},{"attributes":{"OBJECTID":122,"STATION_NA":"榮順機車行","COUNTY_NA":"台中市","ZIPCODE":"406","ADDRESS":"406台中市北屯區昌平路二段164-3號","TEL":"04-24222002","LICENSE_NO":"B29","OWNER":"林王月心","LOCATION_T":"地址對位","LOCATION_X":216627,"LOCATION_Y":2677174},"geometry":{"points":[[120.67963613765451,24.197814906407665]]}},{"attributes":{"OBJECTID":123,"STATION_NA":"永鑫輪業行","COUNTY_NA":"台中市","ZIPCODE":"406","ADDRESS":"406台中市北屯區東光路742號1樓","TEL":"04-24372184","LICENSE_NO":"B30","OWNER":"楊立民","LOCATION_T":"地址對位","LOCATION_X":218750,"LOCATION_Y":2673663},"geometry":{"points":[[120.70060910749071,24.166156006019737]]}},{"attributes":{"OBJECTID":124,"STATION_NA":"金冠輪車業有限公司","COUNTY_NA":"台中市","ZIPCODE":"406","ADDRESS":"406台中市北屯區進化北路65號","TEL":"04-22339374","LICENSE_NO":"B31","OWNER":"吳惠珍","LOCATION_T":"地址對位","LOCATION_X":217635,"LOCATION_Y":2673297},"geometry":{"points":[[120.68964401392209,24.162829520592897]]}},{"attributes":{"OBJECTID":125,"STATION_NA":"先輪機車商號","COUNTY_NA":"台中市","ZIPCODE":"404","ADDRESS":"404台中市北區三民路三段337號","TEL":"04-22321919","LICENSE_NO":"B32","OWNER":"陳秋金","LOCATION_T":"地址對位","LOCATION_X":217607,"LOCATION_Y":2672739},"geometry":{"points":[[120.68938076595987,24.157790698510929]]}},{"attributes":{"OBJECTID":126,"STATION_NA":"錦陽車業有限公司","COUNTY_NA":"台中市","ZIPCODE":"404","ADDRESS":"404台中市北區五常里五權路397號","TEL":"04-22011308","LICENSE_NO":"B34","OWNER":"林妙芬","LOCATION_T":"地址對位","LOCATION_X":216780,"LOCATION_Y":2672223},"geometry":{"points":[[120.68125413692417,24.153115021089604]]}},{"attributes":{"OBJECTID":127,"STATION_NA":"同陽機車行","COUNTY_NA":"台中市","ZIPCODE":"404","ADDRESS":"404台中市北區西屯路一段422號","TEL":"04-22032985","LICENSE_NO":"B35","OWNER":"陳  娥","LOCATION_T":"地址對位","LOCATION_X":215139,"LOCATION_Y":2673111},"geometry":{"points":[[120.66508497845706,24.161098511051115]]}},{"attributes":{"OBJECTID":128,"STATION_NA":"泰豪車業有限公司","COUNTY_NA":"台中市","ZIPCODE":"404","ADDRESS":"404台中市北區進化北路411號1樓","TEL":"04-22050556","LICENSE_NO":"B36","OWNER":"劉雪好","LOCATION_T":"地址對位","LOCATION_X":216346,"LOCATION_Y":2673308},"geometry":{"points":[[120.67695853594653,24.162902669436676]]}},{"attributes":{"OBJECTID":129,"STATION_NA":"新永福輪業商行","COUNTY_NA":"台中市","ZIPCODE":"407","ADDRESS":"407台中市西屯區光明路170號","TEL":"04-22515976","LICENSE_NO":"B37","OWNER":"呂  有","LOCATION_T":"地址對位","LOCATION_X":212564,"LOCATION_Y":2675439},"geometry":{"points":[[120.63968493412872,24.18206055350625]]}},{"attributes":{"OBJECTID":130,"STATION_NA":"逢甲輪業行","COUNTY_NA":"台中市","ZIPCODE":"407","ADDRESS":"407台中市西屯區西屯路二段285-7號","TEL":"04-22516864","LICENSE_NO":"B39","OWNER":"黃金碧","LOCATION_T":"地址對位","LOCATION_X":212934,"LOCATION_Y":2674815},"geometry":{"points":[[120.64334248295472,24.176435002670519]]}},{"attributes":{"OBJECTID":131,"STATION_NA":"高明車行","COUNTY_NA":"台中市","ZIPCODE":"403","ADDRESS":"403台中市西區中美街232號1樓","TEL":"04-23029090","LICENSE_NO":"B40","OWNER":"賴黃玉嬌","LOCATION_T":"地址對位","LOCATION_X":214656,"LOCATION_Y":2671687},"geometry":{"points":[[120.66036607147059,24.148230744618502]]}},{"attributes":{"OBJECTID":132,"STATION_NA":"金世億車業有限公司","COUNTY_NA":"台中市","ZIPCODE":"403","ADDRESS":"403台中市西區中華路一段29號","TEL":"04-22221755","LICENSE_NO":"B41","OWNER":"許龍全","LOCATION_T":"地址對位","LOCATION_X":215991,"LOCATION_Y":2671045},"geometry":{"points":[[120.67351734289988,24.142462495068642]]}},{"attributes":{"OBJECTID":133,"STATION_NA":"森彬輪業商行","COUNTY_NA":"台中市","ZIPCODE":"403","ADDRESS":"403台中市西區公益路237號","TEL":"04-23013854","LICENSE_NO":"B42","OWNER":"賴森河","LOCATION_T":"地址對位","LOCATION_X":214549,"LOCATION_Y":2671960},"geometry":{"points":[[120.65930659680649,24.150693344747683]]}},{"attributes":{"OBJECTID":134,"STATION_NA":"千晟車業有限公司","COUNTY_NA":"台中市","ZIPCODE":"403","ADDRESS":"403台中市西區民權路157號","TEL":"04-22223846","LICENSE_NO":"B43","OWNER":"劉坤榮","LOCATION_T":"地址對位","LOCATION_X":216085,"LOCATION_Y":2671028},"geometry":{"points":[[120.67444265476337,24.142310960279094]]}},{"attributes":{"OBJECTID":135,"STATION_NA":"弘國機車行","COUNTY_NA":"台中市","ZIPCODE":"403","ADDRESS":"403台中市西區美村路一段385號","TEL":"04-23027315","LICENSE_NO":"B44","OWNER":"張春永","LOCATION_T":"地址對位","LOCATION_X":214805,"LOCATION_Y":2671268},"geometry":{"points":[[120.66184227086701,24.144450808810532]]}},{"attributes":{"OBJECTID":136,"STATION_NA":"永盛車業有限公司","COUNTY_NA":"台中市","ZIPCODE":"403","ADDRESS":"403台中市西區美村路一段731號1樓","TEL":"04-23715940","LICENSE_NO":"B45","OWNER":"林沛洲","LOCATION_T":"地址對位","LOCATION_X":214802,"LOCATION_Y":2670144},"geometry":{"points":[[120.66183965487626,24.134302093285861]]}},{"attributes":{"OBJECTID":137,"STATION_NA":"國華機車行","COUNTY_NA":"台中市","ZIPCODE":"403","ADDRESS":"403台中市西區華美街208號","TEL":"04-23058355","LICENSE_NO":"B46","OWNER":"賴素精","LOCATION_T":"地址對位","LOCATION_X":214510,"LOCATION_Y":2671566},"geometry":{"points":[[120.65893235376868,24.147135054947586]]}},{"attributes":{"OBJECTID":138,"STATION_NA":"宥任車業有限公司","COUNTY_NA":"台中市","ZIPCODE":"401","ADDRESS":"401台中市東區自由路三段225號","TEL":"04-22139139","LICENSE_NO":"B47","OWNER":"廖棟樑","LOCATION_T":"地址對位","LOCATION_X":217931,"LOCATION_Y":2671093},"geometry":{"points":[[120.69260508765672,24.142935120543918]]}},{"attributes":{"OBJECTID":139,"STATION_NA":"宏笙福車業有限公司","COUNTY_NA":"台中市","ZIPCODE":"401","ADDRESS":"401台中市東區東興里仁和路425號","TEL":"04-22822088","LICENSE_NO":"B48","OWNER":"賴朝榮","LOCATION_T":"地址對位","LOCATION_X":217631,"LOCATION_Y":2669286},"geometry":{"points":[[120.68969292637696,24.126613598526831]]}},{"attributes":{"OBJECTID":140,"STATION_NA":"興冠輪業有限公司","COUNTY_NA":"台中市","ZIPCODE":"401","ADDRESS":"401台中市東區建成路350-1號","TEL":"04-22125777","LICENSE_NO":"B49","OWNER":"詹益喜","LOCATION_T":"地址對位","LOCATION_X":218303,"LOCATION_Y":2670656},"geometry":{"points":[[120.69627484181824,24.138996639490813]]}},{"attributes":{"OBJECTID":141,"STATION_NA":"忠信機車行","COUNTY_NA":"台中市","ZIPCODE":"401","ADDRESS":"401台中市東區振興路271號1樓","TEL":"04-22123519","LICENSE_NO":"B50","OWNER":"游秀巧","LOCATION_T":"地址對位","LOCATION_X":218250,"LOCATION_Y":2670022},"geometry":{"points":[[120.69576703221942,24.133271134628856]]}},{"attributes":{"OBJECTID":142,"STATION_NA":"國暉輪業有限公司","COUNTY_NA":"台中市","ZIPCODE":"401","ADDRESS":"401台中市東區精武東路127號","TEL":"04-22125370","LICENSE_NO":"B51","OWNER":"葉聯振","LOCATION_T":"地址對位","LOCATION_X":219717,"LOCATION_Y":2671840},"geometry":{"points":[[120.71016329392573,24.149713985710903]]}},{"attributes":{"OBJECTID":143,"STATION_NA":"元裕輪車業有限公司","COUNTY_NA":"台中市","ZIPCODE":"408","ADDRESS":"408台中市南屯區永春南路17號","TEL":"04-23833267","LICENSE_NO":"B52","OWNER":"陳榮廷","LOCATION_T":"地址對位","LOCATION_X":209848,"LOCATION_Y":2670628},"geometry":{"points":[[120.6130843251246,24.138557348258178]]}},{"attributes":{"OBJECTID":144,"STATION_NA":"新昇輪機車行","COUNTY_NA":"台中市","ZIPCODE":"402","ADDRESS":"402台中市南區忠明南路1242號1F","TEL":"04-22811612","LICENSE_NO":"B53","OWNER":"林傅燕雪","LOCATION_T":"地址對位","LOCATION_X":216765,"LOCATION_Y":2668428},"geometry":{"points":[[120.68119221801767,24.118849310859645]]}},{"attributes":{"OBJECTID":145,"STATION_NA":"功利輪業商行","COUNTY_NA":"台中市","ZIPCODE":"402","ADDRESS":"402台中市南區國光路31號","TEL":"04-22273897","LICENSE_NO":"B54","OWNER":"劉蘇月卿","LOCATION_T":"地址對位","LOCATION_X":216354,"LOCATION_Y":2669828},"geometry":{"points":[[120.67711693500883,24.131481625067547]]}},{"attributes":{"OBJECTID":146,"STATION_NA":"順駿車業有限公司","COUNTY_NA":"台中市","ZIPCODE":"402","ADDRESS":"402台中市南區國光路483號","TEL":"04-22862508","LICENSE_NO":"B55","OWNER":"劉貽駃","LOCATION_T":"地址對位","LOCATION_X":216595,"LOCATION_Y":2668338},"geometry":{"points":[[120.6795218305458,24.118033236252916]]}},{"attributes":{"OBJECTID":147,"STATION_NA":"新弘機車行","COUNTY_NA":"台中市","ZIPCODE":"406","ADDRESS":"406台中市北屯區太原路三段130號","TEL":"04-22332785","LICENSE_NO":"B57","OWNER":"張木水","LOCATION_T":"地址對位","LOCATION_X":217637,"LOCATION_Y":2673527},"geometry":{"points":[[120.68965862638071,24.164906261352591]]}},{"attributes":{"OBJECTID":148,"STATION_NA":"尚達輪業有限公司","COUNTY_NA":"台中市","ZIPCODE":"406","ADDRESS":"406台中市北屯區北屯路208-2號","TEL":"04-22302260","LICENSE_NO":"B58","OWNER":"劉芳廷","LOCATION_T":"地址對位","LOCATION_X":218280,"LOCATION_Y":2673774},"geometry":{"points":[[120.69598124950481,24.167149142681779]]}},{"attributes":{"OBJECTID":149,"STATION_NA":"宗耘車業有限公司","COUNTY_NA":"台中市","ZIPCODE":"406","ADDRESS":"406台中市北屯區昌平路一段172號","TEL":"04-22347173","LICENSE_NO":"B59","OWNER":"吳素蘭","LOCATION_T":"地址對位","LOCATION_X":217913,"LOCATION_Y":2673983},"geometry":{"points":[[120.6923648648232,24.169029032337924]]}},{"attributes":{"OBJECTID":150,"STATION_NA":"駿成機車行","COUNTY_NA":"台中市","ZIPCODE":"406","ADDRESS":"406台中市北屯區昌平路二段158-6號","TEL":"04-24221359","LICENSE_NO":"B60","OWNER":"陳建宏","LOCATION_T":"地址對位","LOCATION_X":216926,"LOCATION_Y":2676881},"geometry":{"points":[[120.68258602419854,24.195175571083077]]}},{"attributes":{"OBJECTID":151,"STATION_NA":"瑞山機車業有限公司","COUNTY_NA":"台中市","ZIPCODE":"406","ADDRESS":"406台中市北屯區東山路一段23-2號","TEL":"04-22437159","LICENSE_NO":"B61","OWNER":"李邱玉美","LOCATION_T":"地址對位","LOCATION_X":218536,"LOCATION_Y":2674140},"geometry":{"points":[[120.69849283577426,24.170458804722216]]}},{"attributes":{"OBJECTID":152,"STATION_NA":"永章機車行","COUNTY_NA":"台中市","ZIPCODE":"406","ADDRESS":"406台中市北屯區東山路一段249-3號","TEL":"04-24367706","LICENSE_NO":"B62","OWNER":"劉秀美","LOCATION_T":"地址對位","LOCATION_X":220498,"LOCATION_Y":2674714},"geometry":{"points":[[120.71779083416175,24.175678413664738]]}},{"attributes":{"OBJECTID":153,"STATION_NA":"順發車行","COUNTY_NA":"台中市","ZIPCODE":"406","ADDRESS":"406台中市北屯區松安里興安路二段407號","TEL":"04-22420047","LICENSE_NO":"B63","OWNER":"魏天財","LOCATION_T":"地址對位","LOCATION_X":218169,"LOCATION_Y":2675483},"geometry":{"points":[[120.69485185792543,24.182577856303777]]}},{"attributes":{"OBJECTID":154,"STATION_NA":"中森輪業有限公司","COUNTY_NA":"台中市","ZIPCODE":"404","ADDRESS":"404台中市北區三民路三段212-2號","TEL":"04-22215750","LICENSE_NO":"B64","OWNER":"張武森","LOCATION_T":"地址對位","LOCATION_X":217288,"LOCATION_Y":2672360},"geometry":{"points":[[120.6862500058084,24.154362286261147]]}},{"attributes":{"OBJECTID":155,"STATION_NA":"國輪車業行","COUNTY_NA":"台中市","ZIPCODE":"404","ADDRESS":"404台中市北區金龍里三民路三段443號","TEL":"04-22323533","LICENSE_NO":"B65","OWNER":"陳玉梅","LOCATION_T":"地址對位","LOCATION_X":217779,"LOCATION_Y":2672901},"geometry":{"points":[[120.69106981731133,24.15925683325332]]}},{"attributes":{"OBJECTID":156,"STATION_NA":"進德機車行","COUNTY_NA":"台中市","ZIPCODE":"404","ADDRESS":"404台中市北區西屯路一段234號1F","TEL":"04-22033646","LICENSE_NO":"B66","OWNER":"蔡進生","LOCATION_T":"地址對位","LOCATION_X":215551,"LOCATION_Y":2672496},"geometry":{"points":[[120.66915389964777,24.155554431204134]]}},{"attributes":{"OBJECTID":157,"STATION_NA":"吉順機車行","COUNTY_NA":"台中市","ZIPCODE":"404","ADDRESS":"404台中市北區建成里富強街1號1F","TEL":"04-22388172","LICENSE_NO":"B67","OWNER":"吳東憲","LOCATION_T":"地址對位","LOCATION_X":218535,"LOCATION_Y":2672777},"geometry":{"points":[[120.69851217585517,24.158151991040022]]}},{"attributes":{"OBJECTID":158,"STATION_NA":"啟揚機車行","COUNTY_NA":"台中市","ZIPCODE":"407","ADDRESS":"407台中市西屯區中工二路26號1F","TEL":"04-23582277","LICENSE_NO":"B69","OWNER":"張欽虎","LOCATION_T":"地址對位","LOCATION_X":210198,"LOCATION_Y":2675375},"geometry":{"points":[[120.61639911671482,24.181426432798819]]}},{"attributes":{"OBJECTID":159,"STATION_NA":"長慶輪業商行","COUNTY_NA":"台中市","ZIPCODE":"407","ADDRESS":"407台中市西屯區中工三路228號","TEL":"04-23588111","LICENSE_NO":"B70","OWNER":"張孟正","LOCATION_T":"地址對位","LOCATION_X":210261,"LOCATION_Y":2674624},"geometry":{"points":[[120.61703959124296,24.174647251284778]]}},{"attributes":{"OBJECTID":160,"STATION_NA":"樺揚機車行","COUNTY_NA":"台中市","ZIPCODE":"407","ADDRESS":"407台中市西屯區中清西二街169號1F","TEL":"04-22956725","LICENSE_NO":"B71","OWNER":"李文揚","LOCATION_T":"地址對位","LOCATION_X":215035,"LOCATION_Y":2674765},"geometry":{"points":[[120.66402207706771,24.176030212699676]]}},{"attributes":{"OBJECTID":161,"STATION_NA":"景順機車行","COUNTY_NA":"台中市","ZIPCODE":"407","ADDRESS":"407台中市西屯區中清路152之2號","TEL":"04-24251084","LICENSE_NO":"B72","OWNER":"蔡足","LOCATION_T":"地址對位","LOCATION_X":214605,"LOCATION_Y":2676682},"geometry":{"points":[[120.65974371555814,24.19332931839331]]}},{"attributes":{"OBJECTID":162,"STATION_NA":"耕源車業有限公司","COUNTY_NA":"台中市","ZIPCODE":"407","ADDRESS":"407台中市西屯區中清路179-33號","TEL":"04-24254996","LICENSE_NO":"B73","OWNER":"陳吳清綢","LOCATION_T":"地址對位","LOCATION_X":214227,"LOCATION_Y":2677268},"geometry":{"points":[[120.65600861987379,24.198611946711107]]}},{"attributes":{"OBJECTID":163,"STATION_NA":"佑新車業行","COUNTY_NA":"台中市","ZIPCODE":"407","ADDRESS":"407台中市西屯區文心路三段226號1F","TEL":"04-23131482","LICENSE_NO":"B74","OWNER":"何俊雄","LOCATION_T":"地址對位","LOCATION_X":214236,"LOCATION_Y":2674017},"geometry":{"points":[[120.65617645834162,24.169259143492354]]}},{"attributes":{"OBJECTID":164,"STATION_NA":"德新車行","COUNTY_NA":"台中市","ZIPCODE":"407","ADDRESS":"407台中市西屯區何安里何厝街3號","TEL":"04-23131575","LICENSE_NO":"B75","OWNER":"何狄修","LOCATION_T":"地址對位","LOCATION_X":213951,"LOCATION_Y":2673112},"geometry":{"points":[[120.65339385603826,24.161081612067349]]}},{"attributes":{"OBJECTID":165,"STATION_NA":"弘新輪業行","COUNTY_NA":"台中市","ZIPCODE":"407","ADDRESS":"407台中市西屯區永福路182巷2號","TEL":"04-24625235","LICENSE_NO":"B76","OWNER":"蔡振福","LOCATION_T":"地址對位","LOCATION_X":210757,"LOCATION_Y":2675875},"geometry":{"points":[[120.62188767806182,24.18595449767243]]}},{"attributes":{"OBJECTID":166,"STATION_NA":"卓越機車行","COUNTY_NA":"台中市","ZIPCODE":"407","ADDRESS":"407台中市西屯區玉門路106號1F","TEL":"04-24612801","LICENSE_NO":"B77","OWNER":"蘇興明","LOCATION_T":"地址對位","LOCATION_X":209590,"LOCATION_Y":2675984},"geometry":{"points":[[120.61039802618861,24.186910021171144]]}},{"attributes":{"OBJECTID":167,"STATION_NA":"富仁機車行","COUNTY_NA":"台中市","ZIPCODE":"407","ADDRESS":"407台中市西屯區黎明二段969號","TEL":"04-22510577","LICENSE_NO":"B78","OWNER":"何宗仁","LOCATION_T":"地址對位","LOCATION_X":212220,"LOCATION_Y":2674191},"geometry":{"points":[[120.63633127537923,24.170784495582058]]}},{"attributes":{"OBJECTID":168,"STATION_NA":"誠昌機車行","COUNTY_NA":"台中市","ZIPCODE":"407","ADDRESS":"407台中市西屯區光明路51-3號1F","TEL":"04-22527238","LICENSE_NO":"B79","OWNER":"廖來學","LOCATION_T":"地址對位","LOCATION_X":212366,"LOCATION_Y":2674673},"geometry":{"points":[[120.6377557835784,24.175139826711909]]}},{"attributes":{"OBJECTID":169,"STATION_NA":"協進機車行","COUNTY_NA":"台中市","ZIPCODE":"407","ADDRESS":"407台中市西屯區西屯路二段105號","TEL":"04-23110211","LICENSE_NO":"B80","OWNER":"黃秋燕","LOCATION_T":"地址對位","LOCATION_X":213704,"LOCATION_Y":2673750},"geometry":{"points":[[120.65094733234059,24.166836596462481]]}},{"attributes":{"OBJECTID":170,"STATION_NA":"義弘機車行","COUNTY_NA":"台中市","ZIPCODE":"407","ADDRESS":"407台中市西屯區重慶路159號","TEL":"04-23142093","LICENSE_NO":"B81","OWNER":"劉金英","LOCATION_T":"地址對位","LOCATION_X":214283,"LOCATION_Y":2673759},"geometry":{"points":[[120.65664530225482,24.166930698190843]]}},{"attributes":{"OBJECTID":171,"STATION_NA":"中信機車行","COUNTY_NA":"台中市","ZIPCODE":"407","ADDRESS":"407台中市西屯區福上巷99號","TEL":"04-22928416","LICENSE_NO":"B82","OWNER":"何束","LOCATION_T":"地址對位","LOCATION_X":214812,"LOCATION_Y":2674778},"geometry":{"points":[[120.66182696724077,24.176142766364883]]}},{"attributes":{"OBJECTID":172,"STATION_NA":"享順機車行","COUNTY_NA":"台中市","ZIPCODE":"407","ADDRESS":"407台中市西屯區福星路312號","TEL":"04-22541259","LICENSE_NO":"B83","OWNER":"陳世享","LOCATION_T":"地址對位","LOCATION_X":213087,"LOCATION_Y":2675359},"geometry":{"points":[[120.64483463368647,24.181350213617126]]}},{"attributes":{"OBJECTID":173,"STATION_NA":"明德車行","COUNTY_NA":"台中市","ZIPCODE":"407","ADDRESS":"407台中市西屯區潮洋里黎明路二段894號","TEL":"04-22524398","LICENSE_NO":"B84","OWNER":"何榮堂","LOCATION_T":"地址對位","LOCATION_X":212041,"LOCATION_Y":2673448},"geometry":{"points":[[120.63458885364264,24.164071809211524]]}},{"attributes":{"OBJECTID":174,"STATION_NA":"弘源輪業行","COUNTY_NA":"台中市","ZIPCODE":"407","ADDRESS":"407台中市西屯區黎明路三段250號","TEL":"04-22545896","LICENSE_NO":"B85","OWNER":"張宏源","LOCATION_T":"地址對位","LOCATION_X":212365,"LOCATION_Y":2675200},"geometry":{"points":[[120.63773240011669,24.17989804216171]]}},{"attributes":{"OBJECTID":175,"STATION_NA":"展億車業","COUNTY_NA":"台中市","ZIPCODE":"403","ADDRESS":"403台中市西區三民路一段76號","TEL":"04-23722542","LICENSE_NO":"B86","OWNER":"陳人豪","LOCATION_T":"地址對位","LOCATION_X":215493,"LOCATION_Y":2669841},"geometry":{"points":[[120.66864547028369,24.13158105058999]]}},{"attributes":{"OBJECTID":176,"STATION_NA":"崑輪機車行","COUNTY_NA":"台中市","ZIPCODE":"403","ADDRESS":"403台中市西區民權路242號","TEL":"04-22027972","LICENSE_NO":"B87","OWNER":"黃棟樑","LOCATION_T":"地址對位","LOCATION_X":215791,"LOCATION_Y":2671371},"geometry":{"points":[[120.67154183629394,24.145401793944369]]}},{"attributes":{"OBJECTID":177,"STATION_NA":"大統機車行","COUNTY_NA":"台中市","ZIPCODE":"403","ADDRESS":"403台中市西區向上南路一段198號","TEL":"04-24755868","LICENSE_NO":"B88","OWNER":"何添進","LOCATION_T":"地址對位","LOCATION_X":213826,"LOCATION_Y":2671350},"geometry":{"points":[[120.65220716332227,24.145169726429042]]}},{"attributes":{"OBJECTID":178,"STATION_NA":"元隆輪業有限公司","COUNTY_NA":"台中市","ZIPCODE":"404","ADDRESS":"403台中市西區成功路477號","TEL":"04-22020060","LICENSE_NO":"B89","OWNER":"張滄榮","LOCATION_T":"地址對位","LOCATION_X":216176,"LOCATION_Y":2671568},"geometry":{"points":[[120.67532562658478,24.147188549179845]]}},{"attributes":{"OBJECTID":179,"STATION_NA":"勤益機車行","COUNTY_NA":"台中市","ZIPCODE":"403","ADDRESS":"403台中市西區東興路三段59號1F","TEL":"04-23299020","LICENSE_NO":"B90","OWNER":"游進原","LOCATION_T":"地址對位","LOCATION_X":213882,"LOCATION_Y":2671538},"geometry":{"points":[[120.65275356949707,24.14686842550271]]}},{"attributes":{"OBJECTID":180,"STATION_NA":"南裕車業有限公司","COUNTY_NA":"台中市","ZIPCODE":"403","ADDRESS":"403台中市西區南屯路一段79-1號","TEL":"04-23714638","LICENSE_NO":"B91","OWNER":"曾國欽","LOCATION_T":"地址對位","LOCATION_X":215002,"LOCATION_Y":2669893},"geometry":{"points":[[120.66381341210305,24.132040109391536]]}},{"attributes":{"OBJECTID":181,"STATION_NA":"正弘輪業有限公司","COUNTY_NA":"台中市","ZIPCODE":"403","ADDRESS":"403台中市西區美村路一段120號1F","TEL":"04-23215263","LICENSE_NO":"B92","OWNER":"王延忠","LOCATION_T":"地址對位","LOCATION_X":214768,"LOCATION_Y":2672038},"geometry":{"points":[[120.66145973017474,24.15140236693858]]}},{"attributes":{"OBJECTID":182,"STATION_NA":"興泰機車行","COUNTY_NA":"台中市","ZIPCODE":"403","ADDRESS":"403台中市西區美村路一段641號1F","TEL":"04-23725406","LICENSE_NO":"B93","OWNER":"沈國彬","LOCATION_T":"地址對位","LOCATION_X":214805,"LOCATION_Y":2670369},"geometry":{"points":[[120.66186378626458,24.136333695252134]]}},{"attributes":{"OBJECTID":183,"STATION_NA":"榮田機車行","COUNTY_NA":"台中市","ZIPCODE":"401","ADDRESS":"401台中市東區十甲路136-2號1F","TEL":"04-22139607","LICENSE_NO":"B94","OWNER":"江春田","LOCATION_T":"地址對位","LOCATION_X":218836,"LOCATION_Y":2671252},"geometry":{"points":[[120.70150658012531,24.144388259214665]]}},{"attributes":{"OBJECTID":184,"STATION_NA":"通順機車行","COUNTY_NA":"台中市","ZIPCODE":"401","ADDRESS":"401台中市東區大智路445號","TEL":"04-22816576","LICENSE_NO":"B95","OWNER":"陳雪美","LOCATION_T":"地址對位","LOCATION_X":217712,"LOCATION_Y":2669281},"geometry":{"points":[[120.69048994539115,24.126570047410496]]}},{"attributes":{"OBJECTID":185,"STATION_NA":"榮豐機車行","COUNTY_NA":"台中市","ZIPCODE":"401","ADDRESS":"401台中市東區忠孝路484號1F","TEL":"04-22832435","LICENSE_NO":"B96","OWNER":"邱紹榮","LOCATION_T":"地址對位","LOCATION_X":217788,"LOCATION_Y":2670027},"geometry":{"points":[[120.69122135465713,24.133307259840223]]}},{"attributes":{"OBJECTID":186,"STATION_NA":"瑞易機車有限公司","COUNTY_NA":"台中市","ZIPCODE":"401","ADDRESS":"401台中市東區東勢里進化路207-4號","TEL":"04-23602043","LICENSE_NO":"B97","OWNER":"柳瑞添","LOCATION_T":"地址對位","LOCATION_X":218094,"LOCATION_Y":2671808},"geometry":{"points":[[120.69419342524677,24.149394156864478]]}},{"attributes":{"OBJECTID":187,"STATION_NA":"福興機車行","COUNTY_NA":"台中市","ZIPCODE":"401","ADDRESS":"401台中市東區復興路4段9號1F","TEL":"04-22268222","LICENSE_NO":"B98","OWNER":"林福興","LOCATION_T":"地址對位","LOCATION_X":216973,"LOCATION_Y":2670198},"geometry":{"points":[[120.68319882336424,24.13483500203785]]}},{"attributes":{"OBJECTID":188,"STATION_NA":"順利機車行","COUNTY_NA":"台中市","ZIPCODE":"401","ADDRESS":"401台中市東區樂業路257號1F","TEL":"04-22131240","LICENSE_NO":"B99","OWNER":"謝昀臻","LOCATION_T":"地址對位","LOCATION_X":218675,"LOCATION_Y":2670656},"geometry":{"points":[[120.69993506645552,24.13900380326313]]}},{"attributes":{"OBJECTID":189,"STATION_NA":"三元機車行","COUNTY_NA":"台中市","ZIPCODE":"408","ADDRESS":"401台中市南屯區五權西路二段540號1F","TEL":"04-23897478","LICENSE_NO":"BA0","OWNER":"簡秋屘","LOCATION_T":"地址對位","LOCATION_X":212804,"LOCATION_Y":2670911},"geometry":{"points":[[120.64216202520437,24.141182930877701]]}},{"attributes":{"OBJECTID":190,"STATION_NA":"祥發機車行","COUNTY_NA":"台中市","ZIPCODE":"408","ADDRESS":"401台中市南屯區文山里嶺東路842號1樓","TEL":"04-23829747","LICENSE_NO":"BA1","OWNER":"蕭財發","LOCATION_T":"地址對位","LOCATION_X":209804,"LOCATION_Y":2672112},"geometry":{"points":[[120.61261076000262,24.151955289423348]]}},{"attributes":{"OBJECTID":191,"STATION_NA":"南美機車行","COUNTY_NA":"台中市","ZIPCODE":"408","ADDRESS":"401台中市南屯區向心路30號","TEL":"04-24751420","LICENSE_NO":"BA2","OWNER":"吳四聰","LOCATION_T":"地址對位","LOCATION_X":213065,"LOCATION_Y":2670692},"geometry":{"points":[[120.64473562857597,24.139211527623463]]}},{"attributes":{"OBJECTID":192,"STATION_NA":"玉鼎機車行","COUNTY_NA":"台中市","ZIPCODE":"408","ADDRESS":"401台中市南屯區東興路二段182號1F","TEL":"04-24723427","LICENSE_NO":"BA3","OWNER":"李有義","LOCATION_T":"地址對位","LOCATION_X":213930,"LOCATION_Y":2670903},"geometry":{"points":[[120.65324147519586,24.141136057186287]]}},{"attributes":{"OBJECTID":193,"STATION_NA":"答穩輪業有限公司","COUNTY_NA":"台中市","ZIPCODE":"408","ADDRESS":"401台中市南屯區南屯路二段689號","TEL":"04-23891710","LICENSE_NO":"BA4","OWNER":"陳武松","LOCATION_T":"地址對位","LOCATION_X":212255,"LOCATION_Y":2670835},"geometry":{"points":[[120.63676210556261,24.140484065549781]]}},{"attributes":{"OBJECTID":194,"STATION_NA":"上陽機車行","COUNTY_NA":"台中市","ZIPCODE":"408","ADDRESS":"401台中市南屯區五權西路三段85號","TEL":"04-23811505","LICENSE_NO":"BA5","OWNER":"陳淑惠","LOCATION_T":"地址對位","LOCATION_X":210019,"LOCATION_Y":2672267},"geometry":{"points":[[120.61472218394233,24.153360085197292]]}},{"attributes":{"OBJECTID":195,"STATION_NA":"源福興機車行","COUNTY_NA":"台中市","ZIPCODE":"408","ADDRESS":"401台中市南屯區黎明路一段196號","TEL":"04-24790456","LICENSE_NO":"BA6","OWNER":"林石明","LOCATION_T":"地址對位","LOCATION_X":211273,"LOCATION_Y":2668174},"geometry":{"points":[[120.62716979229212,24.11643465447451]]}},{"attributes":{"OBJECTID":196,"STATION_NA":"嘉源輪業有限公司","COUNTY_NA":"台中市","ZIPCODE":"402","ADDRESS":"402台中市南區台中路80號","TEL":"04-22243334","LICENSE_NO":"BA7","OWNER":"吳郭富美","LOCATION_T":"地址對位","LOCATION_X":216962,"LOCATION_Y":2670071},"geometry":{"points":[[120.68309344242495,24.13368808046112]]}},{"attributes":{"OBJECTID":197,"STATION_NA":"聯福機車行","COUNTY_NA":"台中市","ZIPCODE":"402","ADDRESS":"402台中市南區忠孝路120號","TEL":"04-22875020","LICENSE_NO":"BA8","OWNER":"陳嘉仁","LOCATION_T":"地址對位","LOCATION_X":216759,"LOCATION_Y":2669553},"geometry":{"points":[[120.68110783308623,24.129006905573704]]}},{"attributes":{"OBJECTID":198,"STATION_NA":"元貴機車行","COUNTY_NA":"台中市","ZIPCODE":"402","ADDRESS":"402台中市南區忠明南路681號","TEL":"04-23754117","LICENSE_NO":"BA9","OWNER":"黃孟焄","LOCATION_T":"地址對位","LOCATION_X":214413,"LOCATION_Y":2669569},"geometry":{"points":[[120.65802619621468,24.129101951705618]]}},{"attributes":{"OBJECTID":199,"STATION_NA":"瑞安輪業商行","COUNTY_NA":"台中市","ZIPCODE":"402","ADDRESS":"402台中市南區南和路136號","TEL":"04-22627522","LICENSE_NO":"BB0","OWNER":"黃瑞樟","LOCATION_T":"地址對位","LOCATION_X":215503,"LOCATION_Y":2668396},"geometry":{"points":[[120.66877766927068,24.1185342685467]]}},{"attributes":{"OBJECTID":200,"STATION_NA":"展昌車行","COUNTY_NA":"台中市","ZIPCODE":"402","ADDRESS":"402台中市南區建成路1802號","TEL":"04-22870252","LICENSE_NO":"BB1","OWNER":"陳麗妲","LOCATION_T":"地址對位","LOCATION_X":215997,"LOCATION_Y":2669295},"geometry":{"points":[[120.67361680089486,24.126661749376748]]}}]}