{"displayFieldName":"STNAME","fieldAliases":{"OBJECTID":"OBJECTID","STCODE":"STCODE","STNAME":"STNAME","ZONE":"ZONE","epavec10_101.SDE.海灘水質監測站_121_10312.AREA":"epavec10_101.SDE.海灘水質監測站_121_10312.AREA","ADDR":"ADDR","TM2_X":"TM2_X","TM2_Y":"TM2_Y","USE_STATUS":"USE_STATUS","LONGITUTE":"LONGITUTE","LATITUTE":"LATITUTE"},"geometryType":"esriGeometryPoint","spatialReference":{"wkid":104137},"fields":[{"name":"OBJECTID","type":"esriFieldTypeOID","alias":"OBJECTID"},{"name":"STCODE","type":"esriFieldTypeDouble","alias":"STCODE"},{"name":"STNAME","type":"esriFieldTypeString","alias":"STNAME","length":80},{"name":"ZONE","type":"esriFieldTypeString","alias":"ZONE","length":80},{"name":"epavec10_101.SDE.海灘水質監測站_121_10312.AREA","type":"esriFieldTypeString","alias":"epavec10_101.SDE.海灘水質監測站_121_10312.AREA","length":80},{"name":"ADDR","type":"esriFieldTypeString","alias":"ADDR","length":80},{"name":"TM2_X","type":"esriFieldTypeDouble","alias":"TM2_X"},{"name":"TM2_Y","type":"esriFieldTypeDouble","alias":"TM2_Y"},{"name":"USE_STATUS","type":"esriFieldTypeString","alias":"USE_STATUS","length":80},{"name":"LONGITUTE","type":"esriFieldTypeDouble","alias":"LONGITUTE"},{"name":"LATITUTE","type":"esriFieldTypeDouble","alias":"LATITUTE"}],"features":[{"attributes":{"OBJECTID":1,"STCODE":6011,"STNAME":"福隆海水浴場左","ZONE":"北區","epavec10_101.SDE.海灘水質監測站_121_10312.AREA":null,"ADDR":"新北市貢寮區福隆村興隆街36號","TM2_X":345467.51000000001,"TM2_Y":2768493.8599999999,"USE_STATUS":"使用中","LONGITUTE":121.94450999999999,"LATITUTE":25.022539999999999},"geometry":{"x":121.94592176268964,"y":25.021514245919445}},{"attributes":{"OBJECTID":2,"STCODE":6012,"STNAME":"福隆海水浴場中","ZONE":"北區","epavec10_101.SDE.海灘水質監測站_121_10312.AREA":null,"ADDR":"新北市貢寮區福隆村興隆街36號","TM2_X":345467.56,"TM2_Y":2768494.1299999999,"USE_STATUS":"使用中","LONGITUTE":121.94528,"LATITUTE":25.02084},"geometry":{"x":121.94592227673236,"y":25.021516680090006}},{"attributes":{"OBJECTID":3,"STCODE":6013,"STNAME":"福隆海水浴場右","ZONE":"北區","epavec10_101.SDE.海灘水質監測站_121_10312.AREA":null,"ADDR":"新北市貢寮區福隆村興隆街36號","TM2_X":345439.46999999997,"TM2_Y":2768500.7000000002,"USE_STATUS":"使用中","LONGITUTE":121.94619,"LATITUTE":25.02131},"geometry":{"x":121.94564443661291,"y":25.021577758825391}},{"attributes":{"OBJECTID":4,"STCODE":6021,"STNAME":"新金山海水浴場左","ZONE":"北區","epavec10_101.SDE.海灘水質監測站_121_10312.AREA":null,"ADDR":"新北市金山區青年路1號","TM2_X":314823.34000000003,"TM2_Y":2791481.2400000002,"USE_STATUS":"使用中","LONGITUTE":121.64236,"LATITUTE":25.23133},"geometry":{"x":121.64339448259342,"y":25.230658307477377}},{"attributes":{"OBJECTID":5,"STCODE":6022,"STNAME":"新金山海水浴場中","ZONE":"北區","epavec10_101.SDE.海灘水質監測站_121_10312.AREA":null,"ADDR":"新北市金山區青年路1號","TM2_X":314866.22999999998,"TM2_Y":2791466.6800000002,"USE_STATUS":"使用中","LONGITUTE":121.6433,"LATITUTE":25.230830000000001},"geometry":{"x":121.64381946751884,"y":25.230525012606055}},{"attributes":{"OBJECTID":6,"STCODE":6023,"STNAME":"新金山海水浴場右","ZONE":"北區","epavec10_101.SDE.海灘水質監測站_121_10312.AREA":null,"ADDR":"新北市金山區青年路1號","TM2_X":314894.35999999999,"TM2_Y":2791466.8100000001,"USE_STATUS":"使用中","LONGITUTE":121.64439,"LATITUTE":25.230540000000001},"geometry":{"x":121.64409865960239,"y":25.230524969526371}},{"attributes":{"OBJECTID":7,"STCODE":6041,"STNAME":"通霄海水浴場左","ZONE":"中區","epavec10_101.SDE.海灘水質監測站_121_10312.AREA":null,"ADDR":"苗栗縣通霄鎮通東里中正路8號","TM2_X":216502.20000000001,"TM2_Y":2710011.8599999999,"USE_STATUS":"使用中","LONGITUTE":120.669,"LATITUTE":24.495819999999998},"geometry":{"x":120.66947779599074,"y":24.496147215022361}},{"attributes":{"OBJECTID":8,"STCODE":6042,"STNAME":"通霄海水浴場中","ZONE":"中區","epavec10_101.SDE.海灘水質監測站_121_10312.AREA":null,"ADDR":"苗栗縣通霄鎮通東里中正路8號","TM2_X":216527.23999999999,"TM2_Y":2710122.8700000001,"USE_STATUS":"使用中","LONGITUTE":120.66945,"LATITUTE":24.496649999999999},"geometry":{"x":120.6697222439861,"y":24.497150046932671}},{"attributes":{"OBJECTID":9,"STCODE":6043,"STNAME":"通霄海水浴場右","ZONE":"中區","epavec10_101.SDE.海灘水質監測站_121_10312.AREA":null,"ADDR":"苗栗縣通霄鎮通東里中正路8號","TM2_X":216583.76999999999,"TM2_Y":2710219.3300000001,"USE_STATUS":"使用中","LONGITUTE":120.66972,"LATITUTE":24.497420000000002},"geometry":{"x":120.67027775052435,"y":24.498022187566583}},{"attributes":{"OBJECTID":10,"STCODE":6061,"STNAME":"馬沙溝海水浴場左","ZONE":"南區","epavec10_101.SDE.海灘水質監測站_121_10312.AREA":null,"ADDR":"台南市將軍區平沙村140號","TM2_X":155994.39999999999,"TM2_Y":2568732,"USE_STATUS":"使用中","LONGITUTE":120.08207,"LATITUTE":23.217590000000001},"geometry":{"x":120.08152704068046,"y":23.218105674589658}},{"attributes":{"OBJECTID":11,"STCODE":6062,"STNAME":"馬沙溝海水浴場中","ZONE":"南區","epavec10_101.SDE.海灘水質監測站_121_10312.AREA":null,"ADDR":"台南市將軍區平沙村140號","TM2_X":156023.20000000001,"TM2_Y":2568787,"USE_STATUS":"使用中","LONGITUTE":120.08168999999999,"LATITUTE":23.218610000000002},"geometry":{"x":120.08180500545284,"y":23.218603930592216}},{"attributes":{"OBJECTID":12,"STCODE":6063,"STNAME":"馬沙溝海水浴場右","ZONE":"南區","epavec10_101.SDE.海灘水質監測站_121_10312.AREA":null,"ADDR":"台南市將軍區平沙村140號","TM2_X":156054.89999999999,"TM2_Y":2568852,"USE_STATUS":"使用中","LONGITUTE":120.08247,"LATITUTE":23.218889999999998},"geometry":{"x":120.08211068672546,"y":23.219192644756358}},{"attributes":{"OBJECTID":13,"STCODE":6081,"STNAME":"旗津海水浴場左","ZONE":"南區","epavec10_101.SDE.海灘水質監測站_121_10312.AREA":null,"ADDR":"高雄市旗津區廟前路1號","TM2_X":174536,"TM2_Y":2501310,"USE_STATUS":"使用中","LONGITUTE":120.26596000000001,"LATITUTE":22.610230000000001},"geometry":{"x":120.26595896903481,"y":22.610233060978572}},{"attributes":{"OBJECTID":14,"STCODE":6082,"STNAME":"旗津海水浴場中","ZONE":"南區","epavec10_101.SDE.海灘水質監測站_121_10312.AREA":null,"ADDR":"高雄市旗津區廟前路1號","TM2_X":174482,"TM2_Y":2501364,"USE_STATUS":"使用中","LONGITUTE":120.26542999999999,"LATITUTE":22.610720000000001},"geometry":{"x":120.2654311532348,"y":22.610718301437224}},{"attributes":{"OBJECTID":15,"STCODE":6083,"STNAME":"旗津海水浴場右","ZONE":"南區","epavec10_101.SDE.海灘水質監測站_121_10312.AREA":null,"ADDR":"高雄市旗津區廟前路1號","TM2_X":174423,"TM2_Y":2501407,"USE_STATUS":"使用中","LONGITUTE":120.26486,"LATITUTE":22.6111},"geometry":{"x":120.26485522911865,"y":22.611103982556219}},{"attributes":{"OBJECTID":16,"STCODE":6091,"STNAME":"墾丁跳石(南灣休憩區海岸)休憩海域左","ZONE":"南區","epavec10_101.SDE.海灘水質監測站_121_10312.AREA":null,"ADDR":"屏東縣恆春鎮墾丁路596號","TM2_X":225781,"TM2_Y":2429032,"USE_STATUS":"使用中","LONGITUTE":120.76551000000001,"LATITUTE":21.958960000000001},"geometry":{"x":120.76550543795796,"y":21.958962475414886}},{"attributes":{"OBJECTID":17,"STCODE":6092,"STNAME":"墾丁跳石(南灣休憩區海岸)休憩海域中","ZONE":"南區","epavec10_101.SDE.海灘水質監測站_121_10312.AREA":null,"ADDR":"屏東縣恆春鎮墾丁路596號","TM2_X":225595,"TM2_Y":2429024,"USE_STATUS":"使用中","LONGITUTE":120.76371,"LATITUTE":21.95889},"geometry":{"x":120.76370466941026,"y":21.958887639918991}},{"attributes":{"OBJECTID":18,"STCODE":6093,"STNAME":"墾丁跳石(南灣休憩區海岸)休憩海域右","ZONE":"南區","epavec10_101.SDE.海灘水質監測站_121_10312.AREA":null,"ADDR":"屏東縣恆春鎮墾丁路596號","TM2_X":225436,"TM2_Y":2429016,"USE_STATUS":"使用中","LONGITUTE":120.76217,"LATITUTE":21.95881},"geometry":{"x":120.76216532185644,"y":21.958813163431074}},{"attributes":{"OBJECTID":19,"STCODE":6101,"STNAME":"杉原海水浴場左","ZONE":"南區","epavec10_101.SDE.海灘水質監測站_121_10312.AREA":null,"ADDR":"台東縣卑南鄉富山村杉原1號","TM2_X":269212,"TM2_Y":2525620.77,"USE_STATUS":"使用中","LONGITUTE":121.18706,"LATITUTE":22.831990000000001},"geometry":{"x":121.1871797241006,"y":22.831353426853852}},{"attributes":{"OBJECTID":20,"STCODE":6102,"STNAME":"杉原海水浴場中","ZONE":"南區","epavec10_101.SDE.海灘水質監測站_121_10312.AREA":null,"ADDR":"台東縣卑南鄉富山村杉原1號","TM2_X":269218,"TM2_Y":2525602,"USE_STATUS":"使用中","LONGITUTE":121.1872,"LATITUTE":22.83118},"geometry":{"x":121.18723794910251,"y":22.831183848534923}},{"attributes":{"OBJECTID":21,"STCODE":6103,"STNAME":"杉原海水浴場右","ZONE":"南區","epavec10_101.SDE.海灘水質監測站_121_10312.AREA":null,"ADDR":"台東縣卑南鄉富山村杉原1號","TM2_X":269227,"TM2_Y":2525516,"USE_STATUS":"使用中","LONGITUTE":121.18732,"LATITUTE":22.830410000000001},"geometry":{"x":121.18732457140621,"y":22.830407089709521}},{"attributes":{"OBJECTID":22,"STCODE":6111,"STNAME":"西子灣海水浴場左","ZONE":"南區","epavec10_101.SDE.海灘水質監測站_121_10312.AREA":null,"ADDR":"高雄市鼓山區蓮海路51號","TM2_X":174258,"TM2_Y":2502890,"USE_STATUS":"使用中","LONGITUTE":120.26318000000001,"LATITUTE":22.624490000000002},"geometry":{"x":120.26317901739331,"y":22.624488735614975}},{"attributes":{"OBJECTID":23,"STCODE":6112,"STNAME":"西子灣海水浴場中","ZONE":"南區","epavec10_101.SDE.海灘水質監測站_121_10312.AREA":null,"ADDR":"高雄市鼓山區蓮海路51號","TM2_X":174272,"TM2_Y":2503032,"USE_STATUS":"使用中","LONGITUTE":120.26331,"LATITUTE":22.625769999999999},"geometry":{"x":120.26330836850479,"y":22.625771679433637}},{"attributes":{"OBJECTID":24,"STCODE":6113,"STNAME":"西子灣海水浴場右","ZONE":"南區","epavec10_101.SDE.海灘水質監測站_121_10312.AREA":null,"ADDR":"高雄市鼓山區蓮海路51號","TM2_X":174263,"TM2_Y":2503160,"USE_STATUS":"使用中","LONGITUTE":120.26322,"LATITUTE":22.626930000000002},"geometry":{"x":120.26321466066447,"y":22.626927169811193}},{"attributes":{"OBJECTID":25,"STCODE":6171,"STNAME":"外澳濱海遊憩區左","ZONE":"北區","epavec10_101.SDE.海灘水質監測站_121_10312.AREA":null,"ADDR":"宜蘭縣頭城鎮外澳里濱海路2段6號","TM2_X":335241.73999999999,"TM2_Y":2752701.0600000001,"USE_STATUS":"使用中","LONGITUTE":121.84321,"LATITUTE":24.877590000000001},"geometry":{"x":121.8436389195211,"y":24.879555533099818}},{"attributes":{"OBJECTID":26,"STCODE":6172,"STNAME":"外澳濱海遊憩區中","ZONE":"北區","epavec10_101.SDE.海灘水質監測站_121_10312.AREA":null,"ADDR":"宜蘭縣頭城鎮外澳里濱海路2段6號","TM2_X":335241.73999999999,"TM2_Y":2752701.0600000001,"USE_STATUS":"使用中","LONGITUTE":121.84321,"LATITUTE":24.877590000000001},"geometry":{"x":121.8436389195211,"y":24.879555533099818}},{"attributes":{"OBJECTID":27,"STCODE":6173,"STNAME":"外澳濱海遊憩區右","ZONE":"北區","epavec10_101.SDE.海灘水質監測站_121_10312.AREA":null,"ADDR":"宜蘭縣頭城鎮外澳里濱海路2段6號","TM2_X":335241.73999999999,"TM2_Y":2752701.0600000001,"USE_STATUS":"使用中","LONGITUTE":121.84321,"LATITUTE":24.877590000000001},"geometry":{"x":121.8436389195211,"y":24.879555533099818}},{"attributes":{"OBJECTID":28,"STCODE":6261,"STNAME":"觀音亭左","ZONE":"南區","epavec10_101.SDE.海灘水質監測站_121_10312.AREA":null,"ADDR":"澎湖縣馬公市青年活動中心旁","TM2_X":103967.58,"TM2_Y":2607766.6099999999,"USE_STATUS":"使用中","LONGITUTE":119.56106,"LATITUTE":23.568180000000002},"geometry":{"x":119.56952428430408,"y":23.566699285596265}},{"attributes":{"OBJECTID":29,"STCODE":6262,"STNAME":"觀音亭中","ZONE":"南區","epavec10_101.SDE.海灘水質監測站_121_10312.AREA":null,"ADDR":"澎湖縣馬公市青年活動中心旁","TM2_X":103967.58,"TM2_Y":2607766.6099999999,"USE_STATUS":"使用中","LONGITUTE":119.56121,"LATITUTE":23.568429999999999},"geometry":{"x":119.56952428430408,"y":23.566699285596265}},{"attributes":{"OBJECTID":30,"STCODE":6263,"STNAME":"觀音亭右","ZONE":"南區","epavec10_101.SDE.海灘水質監測站_121_10312.AREA":null,"ADDR":"澎湖縣馬公市青年活動中心旁","TM2_X":103967.58,"TM2_Y":2607766.6099999999,"USE_STATUS":"使用中","LONGITUTE":119.56153,"LATITUTE":23.568809999999999},"geometry":{"x":119.56952428430408,"y":23.566699285596265}},{"attributes":{"OBJECTID":31,"STCODE":0,"STNAME":"港口海灘左","ZONE":" ","epavec10_101.SDE.海灘水質監測站_121_10312.AREA":null,"ADDR":"屏東縣滿州鄉港口村漁村公園外","TM2_X":234973.62,"TM2_Y":2432066.1800000002,"USE_STATUS":" ","LONGITUTE":120.84647,"LATITUTE":21.98828},"geometry":{"x":120.85448253620611,"y":21.986469710240744}},{"attributes":{"OBJECTID":32,"STCODE":0,"STNAME":"港口海灘中","ZONE":" ","epavec10_101.SDE.海灘水質監測站_121_10312.AREA":null,"ADDR":"屏東縣滿州鄉港口村漁村公園外","TM2_X":234973.62,"TM2_Y":2432066.1800000002,"USE_STATUS":" ","LONGITUTE":120.84647,"LATITUTE":21.98828},"geometry":{"x":120.85448253620611,"y":21.986469710240744}},{"attributes":{"OBJECTID":33,"STCODE":0,"STNAME":"港口海灘右","ZONE":" ","epavec10_101.SDE.海灘水質監測站_121_10312.AREA":null,"ADDR":"屏東縣滿州鄉港口村漁村公園外","TM2_X":234973.62,"TM2_Y":2432066.1800000002,"USE_STATUS":" ","LONGITUTE":120.84647,"LATITUTE":21.98828},"geometry":{"x":120.85448253620611,"y":21.986469710240744}}]}