{"displayFieldName":"CY_NAME","fieldAliases":{"OBJECTID_1":"OBJECTID_1","OBJECTID":"OBJECTID","EPANO":"EPANO","INCINER_NA":"INCINER_NA","ADDRESS":"ADDRESS","TEL":"TEL","COOR_X":"COOR_X","COOR_Y":"COOR_Y","TOWNCODE":"TOWNCODE","CY_NAME":"CY_NAME","SITUATION":"SITUATION"},"geometryType":"esriGeometryPoint","spatialReference":{"wkid":104137},"fields":[{"name":"OBJECTID_1","type":"esriFieldTypeOID","alias":"OBJECTID_1"},{"name":"OBJECTID","type":"esriFieldTypeDouble","alias":"OBJECTID"},{"name":"EPANO","type":"esriFieldTypeString","alias":"EPANO","length":8},{"name":"INCINER_NA","type":"esriFieldTypeString","alias":"INCINER_NA","length":30},{"name":"ADDRESS","type":"esriFieldTypeString","alias":"ADDRESS","length":40},{"name":"TEL","type":"esriFieldTypeString","alias":"TEL","length":11},{"name":"COOR_X","type":"esriFieldTypeDouble","alias":"COOR_X"},{"name":"COOR_Y","type":"esriFieldTypeDouble","alias":"COOR_Y"},{"name":"TOWNCODE","type":"esriFieldTypeString","alias":"TOWNCODE","length":5},{"name":"CY_NAME","type":"esriFieldTypeString","alias":"CY_NAME","length":30},{"name":"SITUATION","type":"esriFieldTypeString","alias":"SITUATION","length":10}],"features":[{"attributes":{"OBJECTID_1":1,"OBJECTID":1,"EPANO":"F0501686","INCINER_NA":"台北縣新店焚化廠","ADDRESS":"台北縣新店市薏仁坑路自強巷1號","TEL":"02-22142022","COOR_X":300250,"COOR_Y":2761292,"TOWNCODE":"F07","CY_NAME":"台北縣新店垃圾資源回收廠","SITUATION":"使用中"},"geometry":{"x":121.49765156924825,"y":24.958671872346507}},{"attributes":{"OBJECTID_1":2,"OBJECTID":2,"EPANO":"O1708678","INCINER_NA":"新竹市焚化廠","ADDRESS":"新竹市南寮海濱路240號","TEL":"03-5339011","COOR_X":241525,"COOR_Y":2747376,"TOWNCODE":"O03","CY_NAME":"新竹市垃圾資源回收廠","SITUATION":"使用中"},"geometry":{"x":120.91615763358112,"y":24.833845418257532}},{"attributes":{"OBJECTID_1":3,"OBJECTID":3,"EPANO":"K7107366","INCINER_NA":"苗栗縣焚化廠","ADDRESS":" ","TEL":" ","COOR_X":233391,"COOR_Y":2729605,"TOWNCODE":"K09","CY_NAME":"苗栗縣垃圾資源回收廠","SITUATION":"使用中"},"geometry":{"x":120.83589455722466,"y":24.673323466229188}},{"attributes":{"OBJECTID_1":4,"OBJECTID":4,"EPANO":" ","INCINER_NA":"台中縣烏日焚化廠","ADDRESS":" ","TEL":" ","COOR_X":211267,"COOR_Y":2665833,"TOWNCODE":"L15","CY_NAME":"台中縣烏日垃圾資源回收廠","SITUATION":"使用中"},"geometry":{"x":120.61901798263284,"y":24.097137215259249}},{"attributes":{"OBJECTID_1":5,"OBJECTID":6,"EPANO":"A4200130","INCINER_NA":"台北市內湖焚化廠","ADDRESS":"台北市葫洲里安康路29號","TEL":"02-27961833","COOR_X":311086,"COOR_Y":2772909,"TOWNCODE":"A14","CY_NAME":"台北市內湖垃圾資源回收廠","SITUATION":"使用中"},"geometry":{"x":121.60547712957099,"y":25.063158171952981}},{"attributes":{"OBJECTID_1":6,"OBJECTID":7,"EPANO":"A4000283","INCINER_NA":"台北市木柵焚化廠","ADDRESS":"台北市木柵路五段53號","TEL":"02-22300800","COOR_X":309308,"COOR_Y":2766464,"TOWNCODE":"A11","CY_NAME":"台北市木柵垃圾資源回收廠","SITUATION":"使用中"},"geometry":{"x":121.58757855066132,"y":25.005038075571733}},{"attributes":{"OBJECTID_1":7,"OBJECTID":8,"EPANO":"A4400916","INCINER_NA":"台北市北投焚化廠","ADDRESS":"台北市洲美街271號","TEL":"02-28360050","COOR_X":300360,"COOR_Y":2777833,"TOWNCODE":"A16","CY_NAME":"台北市北投垃圾資源回收廠","SITUATION":"使用中"},"geometry":{"x":121.49934641387738,"y":25.108008456428379}},{"attributes":{"OBJECTID_1":8,"OBJECTID":9,"EPANO":"F0703948","INCINER_NA":"台北縣樹林焚化廠","ADDRESS":"台北縣樹林鎮中摻路三段212號","TEL":"02-26808217","COOR_X":288400,"COOR_Y":2762162,"TOWNCODE":"F17","CY_NAME":"台北縣樹林垃圾資源回收廠","SITUATION":"使用中"},"geometry":{"x":121.38032060291813,"y":24.966875848113816}},{"attributes":{"OBJECTID_1":9,"OBJECTID":10,"EPANO":"F2300972","INCINER_NA":"台北縣八里焚化廠","ADDRESS":"台北縣八里鄉下罟仔村65號","TEL":"02-26195111","COOR_X":286999,"COOR_Y":2780697,"TOWNCODE":"F02","CY_NAME":"台北縣八里垃圾資源回收廠","SITUATION":"使用中"},"geometry":{"x":121.36694604174345,"y":25.134249057526613}},{"attributes":{"OBJECTID_1":10,"OBJECTID":11,"EPANO":"H4307715","INCINER_NA":"桃園縣焚化廠","ADDRESS":"桃園縣中壢市中壢工業區松江北路16號","TEL":"03-4511111","COOR_X":275218,"COOR_Y":2764940,"TOWNCODE":"H03","CY_NAME":"桃園縣垃圾資源回收廠","SITUATION":"使用中"},"geometry":{"x":121.24982210210496,"y":24.992230431455376}},{"attributes":{"OBJECTID_1":11,"OBJECTID":12,"EPANO":"D3202577","INCINER_NA":"台南市城西焚化廠","ADDRESS":"台南市城西里城西街三段1070-10號","TEL":"06-2570313","COOR_X":155161,"COOR_Y":2549628,"TOWNCODE":"D06","CY_NAME":"台南市城西垃圾資源回收廠","SITUATION":"使用中"},"geometry":{"x":120.07457042224246,"y":23.045560560895936}},{"attributes":{"OBJECTID_1":12,"OBJECTID":13,"EPANO":"Q7504056","INCINER_NA":"嘉義縣鹿草焚化廠","ADDRESS":"嘉義縣鹿草鄉馬稠後農場60號","TEL":"05-3621101","COOR_X":176388,"COOR_Y":2594189,"TOWNCODE":"Q11","CY_NAME":"嘉義縣鹿草垃圾資源回收廠","SITUATION":"使用中"},"geometry":{"x":120.27953130037078,"y":23.449018840957901}},{"attributes":{"OBJECTID_1":13,"OBJECTID":14,"EPANO":"E5602998","INCINER_NA":"高雄市南區焚化廠","ADDRESS":"高雄市北林路6號","TEL":"07-8069750","COOR_X":185983,"COOR_Y":2494446,"TOWNCODE":"E11","CY_NAME":"高雄市南區垃圾資源回收廠","SITUATION":"使用中"},"geometry":{"x":120.37758701029031,"y":22.548725421324576}},{"attributes":{"OBJECTID_1":14,"OBJECTID":15,"EPANO":" ","INCINER_NA":"台中縣后里焚化廠","ADDRESS":"台中縣后里鄉舊社村枋寮路7-9號","TEL":"04-5577450","COOR_X":219276,"COOR_Y":2686917,"TOWNCODE":"L08","CY_NAME":"台中縣后里垃圾資源回收廠","SITUATION":"使用中"},"geometry":{"x":120.6973478337441,"y":24.287687817538764}},{"attributes":{"OBJECTID_1":15,"OBJECTID":16,"EPANO":"B2402442","INCINER_NA":"台中市焚化廠","ADDRESS":"台中市文山南巷500號","TEL":"04-3815856","COOR_X":209162,"COOR_Y":2671997,"TOWNCODE":"B07","CY_NAME":"台中市垃圾資源回收廠","SITUATION":"使用中"},"geometry":{"x":120.59814231830873,"y":24.152744180738132}},{"attributes":{"OBJECTID_1":16,"OBJECTID":17,"EPANO":"S1602755","INCINER_NA":"高雄縣岡山焚化廠","ADDRESS":"高雄縣岡山鎮本洲里本工五路9號","TEL":"07-6241168","COOR_X":175093,"COOR_Y":2523526,"TOWNCODE":"S09","CY_NAME":"高雄縣岡山垃圾資源回收廠","SITUATION":"使用中"},"geometry":{"x":120.27031619417801,"y":22.810881903854376}},{"attributes":{"OBJECTID_1":17,"OBJECTID":18,"EPANO":"N3201030","INCINER_NA":"彰化縣溪洲焚化廠","ADDRESS":"彰化縣溪洲鄉彰水路一段臨1號","TEL":"04-8899417","COOR_X":195008,"COOR_Y":2635896,"TOWNCODE":"N26","CY_NAME":"彰化縣溪洲垃圾資源回收廠","SITUATION":"使用中"},"geometry":{"x":120.46022766782627,"y":23.826346481164538}},{"attributes":{"OBJECTID_1":18,"OBJECTID":19,"EPANO":"E5002890","INCINER_NA":"高雄市中區焚化廠","ADDRESS":"高雄市鼎金一巷22號","TEL":"07-3909400","COOR_X":181294,"COOR_Y":2507400,"TOWNCODE":"E05","CY_NAME":"高雄市中區垃圾資源回收廠","SITUATION":"使用中"},"geometry":{"x":120.33142539292858,"y":22.665516869952462}},{"attributes":{"OBJECTID_1":19,"OBJECTID":20,"EPANO":"S2202553","INCINER_NA":"高雄縣仁武焚化廠","ADDRESS":" ","TEL":" ","COOR_X":185076,"COOR_Y":2511130,"TOWNCODE":"S03","CY_NAME":"高雄縣仁武垃圾資源回收廠","SITUATION":"使用中"},"geometry":{"x":120.36807670602525,"y":22.699356857751521}},{"attributes":{"OBJECTID_1":20,"OBJECTID":21,"EPANO":"I2604550","INCINER_NA":"嘉義市焚化廠","ADDRESS":"嘉義市湖仔內巷741號","TEL":"05-2251775","COOR_X":192930,"COOR_Y":2593577,"TOWNCODE":"I02","CY_NAME":"嘉義市垃圾資源回收廠","SITUATION":"使用中"},"geometry":{"x":120.44145236452567,"y":23.444156204946449}},{"attributes":{"OBJECTID_1":21,"OBJECTID":22,"EPANO":" ","INCINER_NA":"雲林縣林內焚化廠1","ADDRESS":" ","TEL":" ","COOR_X":209511,"COOR_Y":2630649,"TOWNCODE":"P10","CY_NAME":"雲林縣林內垃圾資源回收廠","SITUATION":"施工中"},"geometry":{"x":120.60271961824708,"y":23.779398208596778}},{"attributes":{"OBJECTID_1":22,"OBJECTID":23,"EPANO":"G3801239","INCINER_NA":"宜蘭縣利澤廠焚化廠","ADDRESS":" ","TEL":" ","COOR_X":334595,"COOR_Y":2728502,"TOWNCODE":"G07","CY_NAME":"宜蘭縣利澤垃圾資源回收廠","SITUATION":"使用中"},"geometry":{"x":121.83577909649384,"y":24.661133043451166}},{"attributes":{"OBJECTID_1":23,"OBJECTID":24,"EPANO":" ","INCINER_NA":"雲林縣林內焚化廠2","ADDRESS":" ","TEL":" ","COOR_X":209511,"COOR_Y":2630646,"TOWNCODE":"P10","CY_NAME":"雲林縣林內垃圾資源回收廠","SITUATION":"施工中"},"geometry":{"x":120.60272498734977,"y":23.779375286999592}},{"attributes":{"OBJECTID_1":24,"OBJECTID":25,"EPANO":"T5900246","INCINER_NA":"屏東縣崁頂焚化廠","ADDRESS":"屏東縣崁頂鄉中正路881號","TEL":"08-7351923","COOR_X":198401,"COOR_Y":2488979,"TOWNCODE":"T18","CY_NAME":"屏東縣崁頂垃圾資源回收廠","SITUATION":"使用中"},"geometry":{"x":120.4984908266962,"y":22.499769697289398}},{"attributes":{"OBJECTID_1":25,"OBJECTID":26,"EPANO":"C1600321","INCINER_NA":"基隆市焚化廠","ADDRESS":" ","TEL":" ","COOR_X":328281,"COOR_Y":2779569,"TOWNCODE":"C07","CY_NAME":"基隆市垃圾資源回收廠","SITUATION":"使用中"},"geometry":{"x":121.77627647235668,"y":25.122482140708794}},{"attributes":{"OBJECTID_1":26,"OBJECTID":27,"EPANO":"R1407702","INCINER_NA":"台南縣永康焚化廠","ADDRESS":" ","TEL":" ","COOR_X":176504,"COOR_Y":2548937,"TOWNCODE":"R18","CY_NAME":"台南縣永康垃圾資源回收廠","SITUATION":"使用中"},"geometry":{"x":120.28285294336675,"y":23.040404231409561}},{"attributes":{"OBJECTID_1":27,"OBJECTID":29,"EPANO":"V7506199","INCINER_NA":"台東縣焚化廠","ADDRESS":" ","TEL":" ","COOR_X":263953,"COOR_Y":2514522,"TOWNCODE":"V01","CY_NAME":"台東縣垃圾資源回收廠","SITUATION":"施工中"},"geometry":{"x":121.13585105691463,"y":22.731175581180167}}]}