{"displayFieldName":"NAME","fieldAliases":{"OBJECTID":"OBJECTID","CITY":"CITY","NO":"NO","NAME":"NAME","TYPE":"TYPE","ADDRESS":"ADDRESS","CLASS":"CLASS","DATE_":"DATE_","LOCATION_X":"LOCATION_X","LOCATION_Y":"LOCATION_Y"},"geometryType":"esriGeometryPoint","spatialReference":{"wkid":104137},"fields":[{"name":"OBJECTID","type":"esriFieldTypeOID","alias":"OBJECTID"},{"name":"CITY","type":"esriFieldTypeString","alias":"CITY","length":7},{"name":"NO","type":"esriFieldTypeString","alias":"NO","length":14},{"name":"NAME","type":"esriFieldTypeString","alias":"NAME","length":29},{"name":"TYPE","type":"esriFieldTypeString","alias":"TYPE","length":9},{"name":"ADDRESS","type":"esriFieldTypeString","alias":"ADDRESS","length":44},{"name":"CLASS","type":"esriFieldTypeString","alias":"CLASS","length":7},{"name":"DATE_","type":"esriFieldTypeString","alias":"DATE_","length":10},{"name":"LOCATION_X","type":"esriFieldTypeDouble","alias":"LOCATION_X"},{"name":"LOCATION_Y","type":"esriFieldTypeDouble","alias":"LOCATION_Y"}],"features":[{"attributes":{"OBJECTID":1,"CITY":"新北市","NO":"0401020TN003","NAME":"淡水巴拉卡公路","TYPE":"道路交通","ADDRESS":"新北市淡水區巴拉卡公路","CLASS":"第1類","DATE_":" ","LOCATION_X":302807.76549999998,"LOCATION_Y":2786743.9298999999},"geometry":{"x":121.52395692410474,"y":25.188362186575631}},{"attributes":{"OBJECTID":2,"CITY":"新北市","NO":"0402726TN001","NAME":"金山國家公園","TYPE":"道路交通","ADDRESS":"新北市金山區陽明山國家公園界碑前","CLASS":"第1類","DATE_":" ","LOCATION_X":309791.853,"LOCATION_Y":2788096.0655},"geometry":{"x":121.59330918496892,"y":25.200307183175159}},{"attributes":{"OBJECTID":3,"CITY":"新北市","NO":"0400120TN004","NAME":"板橋陽明街","TYPE":"道路交通","ADDRESS":"板橋陽明街","CLASS":"第2類","DATE_":"102.04.22","LOCATION_X":296847.4374,"LOCATION_Y":2768435.4119000002},"geometry":{"x":121.46419593304788,"y":25.02327130323361}},{"attributes":{"OBJECTID":4,"CITY":"新北市","NO":"0400920TN001","NAME":"三峽大德路","TYPE":"道路交通","ADDRESS":"新北市三峽區大德路","CLASS":"第2類","DATE_":" ","LOCATION_X":287963.43459999998,"LOCATION_Y":2759732.3821999999},"geometry":{"x":121.37592994653561,"y":24.944947357865772}},{"attributes":{"OBJECTID":5,"CITY":"新北市","NO":"0401020TN004","NAME":"淡水沙崙路","TYPE":"道路交通","ADDRESS":"新北市淡水區沙崙路","CLASS":"第2類","DATE_":" ","LOCATION_X":292673.84379999997,"LOCATION_Y":2786039.6795999999},"geometry":{"x":121.42338893866508,"y":25.182326190790974}},{"attributes":{"OBJECTID":6,"CITY":"新北市","NO":"0401220TN001","NAME":"瑞芳坑子內路","TYPE":"道路交通","ADDRESS":"瑞芳區坑子內路1之1號旁","CLASS":"第2類","DATE_":"89.03.01","LOCATION_X":330050.68829999998,"LOCATION_Y":2777878.9158000001},"geometry":{"x":121.79372550178665,"y":25.107130659935951}},{"attributes":{"OBJECTID":7,"CITY":"新北市","NO":"0400120TN002","NAME":"板橋永豐街","TYPE":"道路交通","ADDRESS":"板橋市永豐街55巷62號對面華江公園內","CLASS":"第3類","DATE_":"81.07.01","LOCATION_X":297608.57049999997,"LOCATION_Y":2767984.9585000002},"geometry":{"x":121.47172200942776,"y":25.019180847486222}},{"attributes":{"OBJECTID":8,"CITY":"新北市","NO":"0400126TN001","NAME":"環保局站","TYPE":"道路交通","ADDRESS":"新北市板橋區漢生東路278號前","CLASS":"第3類","DATE_":" ","LOCATION_X":297430.55239999999,"LOCATION_Y":2767103.977},"geometry":{"x":121.46992791804227,"y":25.011232880079181}},{"attributes":{"OBJECTID":9,"CITY":"新北市","NO":"0400220TN001","NAME":"三重三民街","TYPE":"道路交通","ADDRESS":"新北市三重區三民公園旁","CLASS":"第3類","DATE_":" ","LOCATION_X":298742.19050000003,"LOCATION_Y":2773123.8160999999},"geometry":{"x":121.48313573210802,"y":25.065538439351723}},{"attributes":{"OBJECTID":10,"CITY":"新北市","NO":"0402320TN001","NAME":"八里中華路","TYPE":"道路交通","ADDRESS":"新北市八里區中華路","CLASS":"第3類","DATE_":" ","LOCATION_X":292218.28700000001,"LOCATION_Y":2783177.1372000002},"geometry":{"x":121.41878093914613,"y":25.156496208698719}},{"attributes":{"OBJECTID":11,"CITY":"新北市","NO":"0400720TN001","NAME":"樹林中正路","TYPE":"道路交通","ADDRESS":"新北市樹林區中正路","CLASS":"第4類","DATE_":"97.06.01","LOCATION_X":292196.69059999997,"LOCATION_Y":2766659.7672000001},"geometry":{"x":121.41805994001869,"y":25.007377313924152}},{"attributes":{"OBJECTID":12,"CITY":"新北市","NO":"0401320TN003","NAME":"土城忠承路","TYPE":"道路交通","ADDRESS":" ","CLASS":"第4類","DATE_":"102.04.22","LOCATION_X":294406.32539999997,"LOCATION_Y":2762075.4492000001},"geometry":{"x":121.43980393763972,"y":24.96592634315925}},{"attributes":{"OBJECTID":13,"CITY":"宜蘭縣","NO":"0503020TN002","NAME":"中山國小","TYPE":"道路交通","ADDRESS":"宜蘭市崇聖街四號","CLASS":"第2類","DATE_":"103.01.18","LOCATION_X":326423.24410000001,"LOCATION_Y":2738619.3796000001},"geometry":{"x":121.75559705772686,"y":24.752896410341151}},{"attributes":{"OBJECTID":14,"CITY":"宜蘭縣","NO":"0503020TN004","NAME":"縣立文化中心","TYPE":"道路交通","ADDRESS":"宜蘭市復興路二段一0一號","CLASS":"第2類","DATE_":"103.03.17","LOCATION_X":325349.19589999999,"LOCATION_Y":2738159.3821},"geometry":{"x":121.74495389100598,"y":24.748796758971771}},{"attributes":{"OBJECTID":15,"CITY":"宜蘭縣","NO":"0503020TN003","NAME":"地政大樓","TYPE":"道路交通","ADDRESS":"宜蘭市泰山路六十六之五號","CLASS":"第3類","DATE_":"103.03.14","LOCATION_X":325428.20059999998,"LOCATION_Y":2738787.3854},"geometry":{"x":121.74576876963802,"y":24.754462434674615}},{"attributes":{"OBJECTID":16,"CITY":"宜蘭縣","NO":"0503020TN005","NAME":"中山公園","TYPE":"道路交通","ADDRESS":"宜蘭市舊城南路","CLASS":"第3類","DATE_":"103.02.20","LOCATION_X":326158.23139999999,"LOCATION_Y":2738688.3796999999},"geometry":{"x":121.75298080784312,"y":24.753532524885074}},{"attributes":{"OBJECTID":17,"CITY":"宜蘭縣","NO":"0503220TN001","NAME":"龍德工業區服務中心","TYPE":"道路交通","ADDRESS":"蘇澳鎮自強路十二號","CLASS":"第4類","DATE_":"103.01.04","LOCATION_X":333961.57010000001,"LOCATION_Y":2725474.7601999999},"geometry":{"x":121.82933680570119,"y":24.63383505020267}},{"attributes":{"OBJECTID":18,"CITY":"桃園縣","NO":"0604420TN002","NAME":"石門水庫","TYPE":"道路交通","ADDRESS":"大溪鎮康莊路五段","CLASS":"第1類","DATE_":"92.05.01","LOCATION_X":276242.21279999998,"LOCATION_Y":2746244.4837000002},"geometry":{"x":121.25960796332738,"y":24.823420443725514}},{"attributes":{"OBJECTID":19,"CITY":"桃園縣","NO":"0605420TN001","NAME":"復興青年活動中心","TYPE":"道路交通","ADDRESS":"復興鄉中正路2號","CLASS":"第1類","DATE_":"95.09.18","LOCATION_X":285481.96000000002,"LOCATION_Y":2745241.73},"geometry":{"x":121.35098790048706,"y":24.814180528306537}},{"attributes":{"OBJECTID":20,"CITY":"桃園縣","NO":"0604520TN006","NAME":"水美國小","TYPE":"道路交通","ADDRESS":"楊梅鎮楊新路2段2號","CLASS":"第2類","DATE_":"92.05.01","LOCATION_X":263931.05469999998,"LOCATION_Y":2756734.0515999999},"geometry":{"x":121.13792206583254,"y":24.918287482521887}},{"attributes":{"OBJECTID":21,"CITY":"桃園縣","NO":"0604720TN001","NAME":"北湖國小","TYPE":"道路交通","ADDRESS":"新屋鄉東興路二段765號旁","CLASS":"第2類","DATE_":"93.05.01","LOCATION_X":254922.8291,"LOCATION_Y":2766378.8133999999},"geometry":{"x":121.04877199273081,"y":25.005420314793827}},{"attributes":{"OBJECTID":22,"CITY":"桃園縣","NO":"0604920TN004","NAME":"忠義街社區","TYPE":"道路交通","ADDRESS":"八德市忠義街103號","CLASS":"第2類","DATE_":"93.05.01","LOCATION_X":278324.91070000001,"LOCATION_Y":2762391.8177999998},"geometry":{"x":121.28054067842365,"y":24.969167842921106}},{"attributes":{"OBJECTID":23,"CITY":"桃園縣","NO":"0605320TN002","NAME":"草漯國小前新生路","TYPE":"道路交通","ADDRESS":"觀音鄉草漯村195號","CLASS":"第2類","DATE_":"93.05.01","LOCATION_X":264447.5441,"LOCATION_Y":2770780.9822},"geometry":{"x":121.14318224362414,"y":25.045103645127}},{"attributes":{"OBJECTID":24,"CITY":"桃園縣","NO":"0604220TN004","NAME":"桃園火車站","TYPE":"道路交通","ADDRESS":"桃園縣桃園市中正路1號(桃園火車站前圓環內)","CLASS":"第3類","DATE_":"95.09.18","LOCATION_X":281635.26169999997,"LOCATION_Y":2764656.3070999999},"geometry":{"x":121.31337908934647,"y":24.989546885244476}},{"attributes":{"OBJECTID":25,"CITY":"桃園縣","NO":"0604620TN001","NAME":"南崁路南崁橋附近","TYPE":"道路交通","ADDRESS":"蘆竹鄉南崁路一段381號","CLASS":"第3類","DATE_":"92.05.01","LOCATION_X":278360.2292,"LOCATION_Y":2771966.5247},"geometry":{"x":121.2810871901067,"y":25.05561011335887}},{"attributes":{"OBJECTID":26,"CITY":"桃園縣","NO":"0605020TN001","NAME":"龍潭運動公園前北龍路","TYPE":"道路交通","ADDRESS":"龍潭鄉北龍路","CLASS":"第3類","DATE_":"95.09.18","LOCATION_X":271898.74690000003,"LOCATION_Y":2751189.8552999999},"geometry":{"x":121.21671710864092,"y":24.868138176718794}},{"attributes":{"OBJECTID":27,"CITY":"桃園縣","NO":"0605120TN003","NAME":"中平國小前民族路","TYPE":"道路交通","ADDRESS":"平鎮市民族路雙連三段37號","CLASS":"第3類","DATE_":"93.05.01","LOCATION_X":268058.26000000001,"LOCATION_Y":2761200.4199999999},"geometry":{"x":121.17884082548316,"y":24.958568312077382}},{"attributes":{"OBJECTID":28,"CITY":"桃園縣","NO":"0604320TN004","NAME":"啟英工家前中園路","TYPE":"道路交通","ADDRESS":"中壢市中園路447號","CLASS":"第4類","DATE_":"95.09.18","LOCATION_X":273831.3235,"LOCATION_Y":2763024.449},"geometry":{"x":121.23604570716567,"y":24.974956654848498}},{"attributes":{"OBJECTID":29,"CITY":"桃園縣","NO":"0604820TN001","NAME":"華亞科技園區管理中心","TYPE":"道路交通","ADDRESS":"龜山鄉文化村文化二路176-1號","CLASS":"第4類","DATE_":"95.09.18","LOCATION_X":287611.53000000003,"LOCATION_Y":2771436.3399999999},"geometry":{"x":121.37276393439701,"y":25.050621705710107}},{"attributes":{"OBJECTID":30,"CITY":"新竹縣","NO":"0705620TN001","NAME":"東安國小","TYPE":"道路交通","ADDRESS":"關西鎮東安里中山東路40號","CLASS":"第2類","DATE_":"103.05.07","LOCATION_X":268595.83630000002,"LOCATION_Y":2742563.9142},"geometry":{"x":121.18391551406245,"y":24.790302355731299}},{"attributes":{"OBJECTID":31,"CITY":"新竹縣","NO":"0705820TN005","NAME":"上館國小","TYPE":"道路交通","ADDRESS":"竹東鎮中豐路二段399號","CLASS":"第2類","DATE_":"103.05.07","LOCATION_X":258910.80420000001,"LOCATION_Y":2735450.6929000001},"geometry":{"x":121.08808398757469,"y":24.726166511769129}},{"attributes":{"OBJECTID":32,"CITY":"新竹縣","NO":"0705920TN004","NAME":"新湖國中","TYPE":"道路交通","ADDRESS":"湖口鄉新湖路200號","CLASS":"第2類","DATE_":"103.05.02","LOCATION_X":253610.5324,"LOCATION_Y":2754999.3657999998},"geometry":{"x":121.03574099493275,"y":24.902685387901652}},{"attributes":{"OBJECTID":33,"CITY":"新竹縣","NO":"0705520TN001","NAME":"新竹縣政府","TYPE":"道路交通","ADDRESS":"竹北市光明六路10號","CLASS":"第3類","DATE_":"103.04.30","LOCATION_X":252144.527,"LOCATION_Y":2746427.5622999999},"geometry":{"x":121.02121566173798,"y":24.825297229597211}},{"attributes":{"OBJECTID":34,"CITY":"新竹縣","NO":"0705820TN001","NAME":"竹東清潔隊","TYPE":"道路交通","ADDRESS":"竹東鎮雞林里長安路101號","CLASS":"第3類","DATE_":"103.05.07","LOCATION_X":259326.467,"LOCATION_Y":2736515.5268000001},"geometry":{"x":121.09219992863382,"y":24.73577810393714}},{"attributes":{"OBJECTID":35,"CITY":"新竹縣","NO":"0705920TN002","NAME":"湖口工業區光復北路","TYPE":"道路交通","ADDRESS":"湖口鄉光復北路","CLASS":"第4類","DATE_":"103.05.06","LOCATION_X":251530.37590000001,"LOCATION_Y":2750400.8306},"geometry":{"x":121.01514427136232,"y":24.861170907924379}},{"attributes":{"OBJECTID":36,"CITY":"苗栗縣","NO":"0808520TN001","NAME":"泰安鄉梅園村","TYPE":"道路交通","ADDRESS":"泰安鄉梅園村9號附近","CLASS":"第1類","DATE_":"94.03.30","LOCATION_X":247573.16519999999,"LOCATION_Y":2697621.3341000001},"geometry":{"x":120.97607543025372,"y":24.384632291565719}},{"attributes":{"OBJECTID":37,"CITY":"苗栗縣","NO":"0807120TN001","NAME":"竹南鎮新南里","TYPE":"道路交通","ADDRESS":"竹南鎮新南里永貞路二段198號（公園大門）","CLASS":"第2類","DATE_":"93.01.01","LOCATION_X":238757.1145,"LOCATION_Y":2731508.3215000001},"geometry":{"x":120.88889482746256,"y":24.690556640288531}},{"attributes":{"OBJECTID":38,"CITY":"苗栗縣","NO":"0808220TN001","NAME":"造橋鄉龍昇村","TYPE":"道路交通","ADDRESS":"苗栗縣造橋鄉龍昇村學府路82號旁","CLASS":"第2類","DATE_":"93.01.01","LOCATION_X":234197.8083,"LOCATION_Y":2726836.0776},"geometry":{"x":120.8438911758559,"y":24.648332021139176}},{"attributes":{"OBJECTID":39,"CITY":"苗栗縣","NO":"0806820TN001","NAME":"苗栗市玉華里","TYPE":"道路交通","ADDRESS":"苗栗市玉華里玉清路337巷37號","CLASS":"第3類","DATE_":"93.01.01","LOCATION_X":233390.97519999999,"LOCATION_Y":2717407.0345000001},"geometry":{"x":120.83603154249541,"y":24.563190387995107}},{"attributes":{"OBJECTID":40,"CITY":"苗栗縣","NO":"0807620TN001","NAME":"公館鄉館南村","TYPE":"道路交通","ADDRESS":"公館鄉館南村193號旁","CLASS":"第3類","DATE_":"93.01.01","LOCATION_X":231912.9743,"LOCATION_Y":2710409.9534},"geometry":{"x":120.82152973663095,"y":24.499997838271501}},{"attributes":{"OBJECTID":41,"CITY":"苗栗縣","NO":"0807220TN001","NAME":"頭份鎮蘆竹里","TYPE":"道路交通","ADDRESS":"頭份鎮中華路599號","CLASS":"第4類","DATE_":"93.01.01","LOCATION_X":239663.13589999999,"LOCATION_Y":2730128.2984000002},"geometry":{"x":120.89785851243279,"y":24.678103116419351}},{"attributes":{"OBJECTID":42,"CITY":"苗栗縣","NO":"0807720TN001","NAME":"銅鑼鄉中興工業區","TYPE":"道路交通","ADDRESS":"銅鑼鄉中平村中興路3號前方","CLASS":"第4類","DATE_":"93.01.01","LOCATION_X":229839.97690000001,"LOCATION_Y":2709729.8884000001},"geometry":{"x":120.80108458322707,"y":24.493832013479292}},{"attributes":{"OBJECTID":43,"CITY":"彰化縣","NO":"1010726TN002","NAME":"彰化市固定交通測站","TYPE":"道路交通","ADDRESS":"彰化市南興里中山路一段213號","CLASS":"第2類","DATE_":"103.05.23","LOCATION_X":202630.4841,"LOCATION_Y":2661548.2949999999},"geometry":{"x":120.53420718570773,"y":24.058210525281105}},{"attributes":{"OBJECTID":44,"CITY":"彰化縣","NO":"1011126TN001","NAME":"員林鎮固定交通測站","TYPE":"道路交通","ADDRESS":"員林鎮中山路二段280號","CLASS":"第2類","DATE_":" ","LOCATION_X":206385.7329,"LOCATION_Y":2651474.8780999999},"geometry":{"x":120.57143387491433,"y":23.967362450974708}},{"attributes":{"OBJECTID":45,"CITY":"彰化縣","NO":"1011820TN001","NAME":"秀水鄉交通測站","TYPE":"道路交通","ADDRESS":"秀水鄉埔崙村彰水路2段341號","CLASS":"第2類","DATE_":"103.05.24","LOCATION_X":198448.36069999999,"LOCATION_Y":2658055.1738},"geometry":{"x":120.49320861142135,"y":24.026539854476752}},{"attributes":{"OBJECTID":46,"CITY":"彰化縣","NO":"1011920TN001","NAME":"花壇鄉交通測站","TYPE":"道路交通","ADDRESS":"花壇鄉南口村中山路2段182號","CLASS":"第2類","DATE_":"103.05.24","LOCATION_X":203018.55660000001,"LOCATION_Y":2658405.173},"geometry":{"x":120.53812458605761,"y":24.029842114311258}},{"attributes":{"OBJECTID":47,"CITY":"彰化縣","NO":"1011220TN001","NAME":"溪湖鎮交通測站","TYPE":"道路交通","ADDRESS":"溪湖鎮大溪路二段110號","CLASS":"第3類","DATE_":"103.05.26","LOCATION_X":197783.37340000001,"LOCATION_Y":2651554.9608},"geometry":{"x":120.48690422002109,"y":23.967826252425677}},{"attributes":{"OBJECTID":48,"CITY":"彰化縣","NO":"1012920TN001","NAME":"芳苑鄉交通測站","TYPE":"道路交通","ADDRESS":"芳苑鄉斗苑路163號","CLASS":"第3類","DATE_":"103.06.26","LOCATION_X":180942.8659,"LOCATION_Y":2646652.1408000002},"geometry":{"x":120.32166392214909,"y":23.922916298111936}},{"attributes":{"OBJECTID":49,"CITY":"彰化縣","NO":"1010720TN001","NAME":"彰化市交通測站","TYPE":"道路交通","ADDRESS":"彰化市中山路3段359號","CLASS":"第4類","DATE_":"103.05.14","LOCATION_X":205337.57070000001,"LOCATION_Y":2664718.3895999999},"geometry":{"x":120.56072833565888,"y":24.086912721086662}},{"attributes":{"OBJECTID":50,"CITY":"南投縣","NO":"1114120TN001","NAME":"日月潭風景區站","TYPE":"道路交通","ADDRESS":"南投縣魚池鄉日月潭中興路136號","CLASS":"第1類","DATE_":"92.01.01","LOCATION_X":240549.2617,"LOCATION_Y":2639914.1628},"geometry":{"x":120.90720799030349,"y":23.863543275271102}},{"attributes":{"OBJECTID":51,"CITY":"南投縣","NO":"1113320TN002","NAME":"中興新村站","TYPE":"道路交通","ADDRESS":"南投市中興新村光明一路252號旁","CLASS":"第2類","DATE_":"92.01.01","LOCATION_X":219565.65030000001,"LOCATION_Y":2648062.9922000002},"geometry":{"x":120.70101282337284,"y":23.936861758478976}},{"attributes":{"OBJECTID":52,"CITY":"南投縣","NO":"1113720TN003","NAME":"集集民眾服務站","TYPE":"道路交通","ADDRESS":"南投縣集集鎮集集里程公路69號旁","CLASS":"第2類","DATE_":"92.01.01","LOCATION_X":227595.47070000001,"LOCATION_Y":2636313.0362999998},"geometry":{"x":120.78007667025524,"y":23.830897056503357}},{"attributes":{"OBJECTID":53,"CITY":"南投縣","NO":"1113326TN001","NAME":"南投站","TYPE":"道路交通","ADDRESS":" ","CLASS":"第3類","DATE_":" ","LOCATION_X":218287,"LOCATION_Y":2644256},"geometry":{"x":120.68853393230225,"y":23.902461416800531}},{"attributes":{"OBJECTID":54,"CITY":"南投縣","NO":"1113520TN003","NAME":"草屯鎮新生路站","TYPE":"道路交通","ADDRESS":"南投縣草屯鎮新生路76號旁","CLASS":"第3類","DATE_":"92.01.01","LOCATION_X":217832.6047,"LOCATION_Y":2650896.0137999998},"geometry":{"x":120.68392524814871,"y":23.962408450567999}},{"attributes":{"OBJECTID":55,"CITY":"南投縣","NO":"1113620TN005","NAME":"竹山戶政事務所","TYPE":"道路交通","ADDRESS":"南投縣竹山鎮中山里大智路823號旁","CLASS":"第3類","DATE_":"92.01.01","LOCATION_X":217375.61189999999,"LOCATION_Y":2627397.2215999998},"geometry":{"x":120.6799565518312,"y":23.75021432240672}},{"attributes":{"OBJECTID":56,"CITY":"南投縣","NO":"1113320TN006","NAME":"南崗工業區南崗會堂站","TYPE":"道路交通","ADDRESS":"南投市成功一路南崗工業區南崗會堂前","CLASS":"第4類","DATE_":"92.01.01","LOCATION_X":216295.66190000001,"LOCATION_Y":2646934.1812},"geometry":{"x":120.66891483582995,"y":23.926603278561711}},{"attributes":{"OBJECTID":57,"CITY":"南投縣","NO":"1113326TN002","NAME":"南崗站","TYPE":"道路交通","ADDRESS":" ","CLASS":"第4類","DATE_":" ","LOCATION_X":216310,"LOCATION_Y":2646982},"geometry":{"x":120.66905457992348,"y":23.927035362390512}},{"attributes":{"OBJECTID":58,"CITY":"雲林縣","NO":"1215220TN002","NAME":"古坑測站","TYPE":"道路交通","ADDRESS":"古坑鄉光昌路260號","CLASS":"第2類","DATE_":"100.06.09","LOCATION_X":203671.12210000001,"LOCATION_Y":2615523.4571000002},"geometry":{"x":120.54589008386864,"y":23.642661531649296}},{"attributes":{"OBJECTID":59,"CITY":"雲林縣","NO":"1215920TN001","NAME":"東勢測站","TYPE":"道路交通","ADDRESS":"東勢鄉復國街11號","CLASS":"第2類","DATE_":"93.01.01","LOCATION_X":176538.58989999999,"LOCATION_Y":2619731.0677},"geometry":{"x":120.27974561444223,"y":23.679646405987771}},{"attributes":{"OBJECTID":60,"CITY":"雲林縣","NO":"1214626TN001","NAME":"斗六市大學路測站","TYPE":"道路交通","ADDRESS":"斗六市大學路","CLASS":"第3類","DATE_":"93.01.01","LOCATION_X":204741.21109999999,"LOCATION_Y":2622743.3887999998},"geometry":{"x":120.55615858137308,"y":23.707885609840087}},{"attributes":{"OBJECTID":61,"CITY":"雲林縣","NO":"1214820TN002","NAME":"虎尾測站","TYPE":"道路交通","ADDRESS":"虎尾鎮光復路151號","CLASS":"第3類","DATE_":"100.06.09","LOCATION_X":193445.45999999999,"LOCATION_Y":2622914.1800000002},"geometry":{"x":120.44538114022136,"y":23.709070436276772}},{"attributes":{"OBJECTID":62,"CITY":"雲林縣","NO":"1216420TN002","NAME":"口湖測站","TYPE":"道路交通","ADDRESS":"口湖鄉中正路一段280號","CLASS":"第3類","DATE_":"100.06.09","LOCATION_X":166382.53599999999,"LOCATION_Y":2609339.4539999999},"geometry":{"x":120.18076171605925,"y":23.585324692465026}},{"attributes":{"OBJECTID":63,"CITY":"雲林縣","NO":"1215320TN002","NAME":"大埤測站","TYPE":"道路交通","ADDRESS":"大埤鄉豐田村14號","CLASS":"第4類","DATE_":"93.01.01","LOCATION_X":195892.0681,"LOCATION_Y":2615333.2667999999},"geometry":{"x":120.46965003684741,"y":23.64070217734384}},{"attributes":{"OBJECTID":64,"CITY":"嘉義縣","NO":"1318320TN004","NAME":"嘉義縣衛生人員訓練中心","TYPE":"道路交通","ADDRESS":"嘉義縣阿里山鄉中山村南阿里山58號","CLASS":"第1類","DATE_":" ","LOCATION_X":230542.19510000001,"LOCATION_Y":2601143.0491999998},"geometry":{"x":120.80946259347596,"y":23.513353725432125}},{"attributes":{"OBJECTID":65,"CITY":"嘉義縣","NO":"1317220TN001","NAME":"灣南村辦公處","TYPE":"道路交通","ADDRESS":"嘉義縣六腳鄉灣南村11鄰145號","CLASS":"第2類","DATE_":" ","LOCATION_X":179371.04209999999,"LOCATION_Y":2599651.9833},"geometry":{"x":120.30846570450333,"y":23.498471018235303}},{"attributes":{"OBJECTID":66,"CITY":"嘉義縣","NO":"1317220TN002","NAME":"溪厝村辦公室","TYPE":"道路交通","ADDRESS":"嘉義縣六腳鄉溪厝村溪墘厝77-1號","CLASS":"第2類","DATE_":" ","LOCATION_X":175347.91819999999,"LOCATION_Y":2599246.9737999998},"geometry":{"x":120.26909753490354,"y":23.494634207292727}},{"attributes":{"OBJECTID":67,"CITY":"嘉義縣","NO":"1316620TN002","NAME":"竹圍里集會所","TYPE":"道路交通","ADDRESS":"嘉義縣朴子市四維路2段78號","CLASS":"第3類","DATE_":" ","LOCATION_X":172476.84700000001,"LOCATION_Y":2595285.8816999998},"geometry":{"x":120.24119398314784,"y":23.458733566119236}},{"attributes":{"OBJECTID":68,"CITY":"嘉義縣","NO":"1317220TN003","NAME":"六腳鄉公所","TYPE":"道路交通","ADDRESS":"嘉義縣六角鄉蒜頭村蒜頭73號","CLASS":"第3類","DATE_":" ","LOCATION_X":177549.01250000001,"LOCATION_Y":2599155.9567},"geometry":{"x":120.29065107286944,"y":23.493911961142143}},{"attributes":{"OBJECTID":69,"CITY":"嘉義縣","NO":"1316926TN001","NAME":"民雄工業區測站","TYPE":"道路交通","ADDRESS":"民雄工業區中山路與台一線交叉口","CLASS":"第4類","DATE_":" ","LOCATION_X":192904.96660000001,"LOCATION_Y":2602036.2311},"geometry":{"x":120.44088119470207,"y":23.520531897466388}},{"attributes":{"OBJECTID":70,"CITY":"嘉義縣","NO":"1317620TN003","NAME":"嘉太工業區服務中心","TYPE":"道路交通","ADDRESS":"嘉義縣嘉太工業區中興路1號","CLASS":"第4類","DATE_":" ","LOCATION_X":184950.02069999999,"LOCATION_Y":2600748.1494},"geometry":{"x":120.36303965669002,"y":23.508601823582776}},{"attributes":{"OBJECTID":71,"CITY":"屏東縣","NO":"1624520TN001","NAME":"墾丁公園警察隊","TYPE":"道路交通","ADDRESS":"屏東縣恆春鎮墾丁路272號","CLASS":"第1類","DATE_":"102.09.27","LOCATION_X":228950.08739999999,"LOCATION_Y":2427639.3207999999},"geometry":{"x":120.79620712470147,"y":21.946424942773234}},{"attributes":{"OBJECTID":72,"CITY":"屏東縣","NO":"1624820TN003","NAME":"麟洛鄉公所","TYPE":"道路交通","ADDRESS":"屏東縣麟洛鄉麟蹄村中山路158號","CLASS":"第2類","DATE_":"102.09.16","LOCATION_X":201434.15229999999,"LOCATION_Y":2505695.7538999999},"geometry":{"x":120.527454144386,"y":22.650823409610151}},{"attributes":{"OBJECTID":73,"CITY":"屏東縣","NO":"1627020TN002","NAME":"泰武鄉公所","TYPE":"道路交通","ADDRESS":"屏東縣泰武鄉佳平村169號","CLASS":"第2類","DATE_":"102.09.04","LOCATION_X":212140.9969,"LOCATION_Y":2499145.5208999999},"geometry":{"x":120.63178743239011,"y":22.591941669394306}},{"attributes":{"OBJECTID":74,"CITY":"屏東縣","NO":"1624223TN001","NAME":"唐榮國小","TYPE":"道路交通","ADDRESS":"屏東市中山路41號","CLASS":"第3類","DATE_":"102.07.01","LOCATION_X":197195.21239999999,"LOCATION_Y":2508035.3832999999},"geometry":{"x":120.48613180706677,"y":22.671825133510172}},{"attributes":{"OBJECTID":75,"CITY":"屏東縣","NO":"1624223TN002","NAME":"國立屏東女中","TYPE":"道路交通","ADDRESS":"屏東市仁愛路94號","CLASS":"第3類","DATE_":"102.07.01","LOCATION_X":198004.27710000001,"LOCATION_Y":2508440.3755999999},"geometry":{"x":120.49399154053916,"y":22.675507584525953}},{"attributes":{"OBJECTID":76,"CITY":"屏東縣","NO":"1624920TN005","NAME":"九如鄉民代表會","TYPE":"道路交通","ADDRESS":"屏東縣九如鄉九如路二段416號","CLASS":"第3類","DATE_":"102.09.10","LOCATION_X":197670.35740000001,"LOCATION_Y":2515617.2181000002},"geometry":{"x":120.4905022675639,"y":22.740309264277109}},{"attributes":{"OBJECTID":77,"CITY":"屏東縣","NO":"1625920TN004","NAME":"崁頂鄉公所","TYPE":"道路交通","ADDRESS":"屏東縣崁頂鄉中正路230號","CLASS":"第3類","DATE_":"102.09.23","LOCATION_X":200024.25109999999,"LOCATION_Y":2490661.9785000002},"geometry":{"x":120.51421244917333,"y":22.515014123105622}},{"attributes":{"OBJECTID":78,"CITY":"屏東縣","NO":"1625420TN006","NAME":"內埔工業區","TYPE":"道路交通","ADDRESS":"屏東縣內埔鄉豐田村建國路4號","CLASS":"第4類","DATE_":"102.09.10","LOCATION_X":202681.02720000001,"LOCATION_Y":2504155.912},"geometry":{"x":120.53963228442454,"y":22.636952639488985}},{"attributes":{"OBJECTID":79,"CITY":"臺東縣","NO":"1727520TN001","NAME":"台東市公園","TYPE":"道路交通","ADDRESS":"台東市桂林北路52巷23號","CLASS":"第1類","DATE_":"102.05.13","LOCATION_X":264811.58279999997,"LOCATION_Y":2516564.5043000001},"geometry":{"x":121.1442211871136,"y":22.749611386030107}},{"attributes":{"OBJECTID":80,"CITY":"臺東縣","NO":"1727520TN002","NAME":"台東縣衛生局","TYPE":"道路交通","ADDRESS":"台東市博愛路336號","CLASS":"第2類","DATE_":"102.05.06","LOCATION_X":265317.54739999998,"LOCATION_Y":2517457.6518000001},"geometry":{"x":121.14915653564023,"y":22.757672864647652}},{"attributes":{"OBJECTID":81,"CITY":"臺東縣","NO":"1727520TN007","NAME":"環保局","TYPE":"道路交通","ADDRESS":"台東市興安路一段150號","CLASS":"第2類","DATE_":"102.05.13","LOCATION_X":263182.67790000001,"LOCATION_Y":2520912.6290000002},"geometry":{"x":121.12839720357134,"y":22.788892727958761}},{"attributes":{"OBJECTID":82,"CITY":"臺東縣","NO":"1727520TN005","NAME":"東檢站","TYPE":"道路交通","ADDRESS":"台東市博愛路119號","CLASS":"第3類","DATE_":"102.05.13","LOCATION_X":265285.54810000001,"LOCATION_Y":2517452.6471000002},"geometry":{"x":121.14884489028596,"y":22.757627958010204}},{"attributes":{"OBJECTID":83,"CITY":"臺東縣","NO":"1727520TN008","NAME":"保安隊","TYPE":"道路交通","ADDRESS":"台東市更生路9號","CLASS":"第3類","DATE_":"102.05.13","LOCATION_X":265452.54889999999,"LOCATION_Y":2517308.6546},"geometry":{"x":121.15046965226769,"y":22.756326040515848}},{"attributes":{"OBJECTID":84,"CITY":"臺東縣","NO":"1727520TN006","NAME":"台糖","TYPE":"道路交通","ADDRESS":"台東市中興路二段191號","CLASS":"第4類","DATE_":"102.05.13","LOCATION_X":262768.5724,"LOCATION_Y":2518676.4040000001},"geometry":{"x":121.12434558745525,"y":22.768700649625796}},{"attributes":{"OBJECTID":85,"CITY":"花蓮縣","NO":"1830120TN002","NAME":"花蓮縣秀林鄉","TYPE":"道路交通","ADDRESS":"太管處收費站前","CLASS":"第1類","DATE_":" ","LOCATION_X":313212.43320000003,"LOCATION_Y":2672352.2736},"geometry":{"x":121.62204383298602,"y":24.15520539956109}},{"attributes":{"OBJECTID":86,"CITY":"花蓮縣","NO":"1829120TN003","NAME":"花蓮市褔建街","TYPE":"道路交通","ADDRESS":"花蓮市褔建街四三七號前","CLASS":"第2類","DATE_":" ","LOCATION_X":311942.77620000002,"LOCATION_Y":2652304.8399},"geometry":{"x":121.60869568645197,"y":23.974247755265811}},{"attributes":{"OBJECTID":87,"CITY":"花蓮縣","NO":"1829520TN005","NAME":"本局","TYPE":"道路交通","ADDRESS":"花蓮市民權路123號","CLASS":"第2類","DATE_":" ","LOCATION_X":313760.80479999998,"LOCATION_Y":2653952.0059000002},"geometry":{"x":121.62663211393104,"y":23.989048209893891}},{"attributes":{"OBJECTID":88,"CITY":"花蓮縣","NO":"1829120TN001","NAME":"花蓮市中山路五四九號","TYPE":"道路交通","ADDRESS":"花蓮市中山路五四九之一號","CLASS":"第3類","DATE_":" ","LOCATION_X":311216.68599999999,"LOCATION_Y":2653750.9808},"geometry":{"x":121.60162154022728,"y":23.987333242518297}},{"attributes":{"OBJECTID":89,"CITY":"花蓮縣","NO":"1829523TN001","NAME":"吉安鄉警察局","TYPE":"道路交通","ADDRESS":"吉安鄉中正路一段三十八號前","CLASS":"第3類","DATE_":" ","LOCATION_X":310399.6876,"LOCATION_Y":2651607.8188999998},"geometry":{"x":121.59350396988445,"y":23.968013661769081}},{"attributes":{"OBJECTID":90,"CITY":"花蓮縣","NO":"1829120TN004","NAME":"花蓮市美崙工業區","TYPE":"道路交通","ADDRESS":"管理中心前(精美路與美工路交差路口)","CLASS":"第4類","DATE_":" ","LOCATION_X":314139.52269999997,"LOCATION_Y":2656533.4407000002},"geometry":{"x":121.63046747308034,"y":24.012340807546192}},{"attributes":{"OBJECTID":91,"CITY":"基隆市","NO":"2031520TN006","NAME":"崇德測站","TYPE":"道路交通","ADDRESS":"安樂區崇德路87之1號附近","CLASS":"第2類","DATE_":"94.03.22","LOCATION_X":324687.36050000001,"LOCATION_Y":2780018.2955999998},"geometry":{"x":121.74066660017441,"y":25.12671895718087}},{"attributes":{"OBJECTID":92,"CITY":"基隆市","NO":"2031620TN007","NAME":"深美測站","TYPE":"道路交通","ADDRESS":"信義區教忠街75巷77號附近","CLASS":"第2類","DATE_":"94.03.22","LOCATION_X":329304.01610000001,"LOCATION_Y":2780960.8168000001},"geometry":{"x":121.78650066294448,"y":25.134991594073657}},{"attributes":{"OBJECTID":93,"CITY":"基隆市","NO":"2031020TN004","NAME":"海洋測站","TYPE":"道路交通","ADDRESS":"中正區新豐街426號前","CLASS":"第3類","DATE_":" ","LOCATION_X":329292.54029999999,"LOCATION_Y":2781039.7198000001},"geometry":{"x":121.78639142167029,"y":25.135704484192225}},{"attributes":{"OBJECTID":94,"CITY":"基隆市","NO":"2031623TN001","NAME":"深澳坑路測站","TYPE":"道路交通","ADDRESS":"信義區深澳坑路78號","CLASS":"第3類","DATE_":" ","LOCATION_X":329202.54090000002,"LOCATION_Y":2779971.7971999999},"geometry":{"x":121.78543725073509,"y":25.126068684470649}},{"attributes":{"OBJECTID":95,"CITY":"基隆市","NO":"2031123TN001","NAME":"工建西路測站","TYPE":"道路交通","ADDRESS":"七堵區工建西路7號","CLASS":"第4類","DATE_":" ","LOCATION_X":320821.78360000002,"LOCATION_Y":2776457.8421},"geometry":{"x":121.70215079775043,"y":25.094763330309984}},{"attributes":{"OBJECTID":96,"CITY":"新竹市","NO":"2131720TN006","NAME":"內湖國小","TYPE":"道路交通","ADDRESS":"內湖路109號","CLASS":"第2類","DATE_":"93.04.29","LOCATION_X":240521.18100000001,"LOCATION_Y":2737248.5167},"geometry":{"x":120.90628898619839,"y":24.742395105816005}},{"attributes":{"OBJECTID":97,"CITY":"新竹市","NO":"2131720TN009","NAME":"香山中學","TYPE":"道路交通","ADDRESS":"元培街124號","CLASS":"第2類","DATE_":"93.05.11","LOCATION_X":242850.34390000001,"LOCATION_Y":2742175.5131000001},"geometry":{"x":120.92929073122868,"y":24.786891910171018}},{"attributes":{"OBJECTID":98,"CITY":"新竹市","NO":"2131720TN003","NAME":"育賢國中","TYPE":"道路交通","ADDRESS":"南大路569號","CLASS":"第3類","DATE_":"93.04.29","LOCATION_X":246525.37669999999,"LOCATION_Y":2742518.6121},"geometry":{"x":120.96563551781563,"y":24.790002381750611}},{"attributes":{"OBJECTID":99,"CITY":"新竹市","NO":"2131720TN004","NAME":"新竹高工","TYPE":"道路交通","ADDRESS":"中華路二段2號","CLASS":"第3類","DATE_":"93.04.29","LOCATION_X":248283.36869999999,"LOCATION_Y":2744660.6811000002},"geometry":{"x":120.98301965586664,"y":24.80934530065187}},{"attributes":{"OBJECTID":100,"CITY":"新竹市","NO":"2131720TN010","NAME":"空軍基地古賢門崗哨","TYPE":"道路交通","ADDRESS":" ","CLASS":"第4類","DATE_":"97.03.31","LOCATION_X":242583.32620000001,"LOCATION_Y":2744100.5427000001},"geometry":{"x":120.92663973588796,"y":24.804271005316725}},{"attributes":{"OBJECTID":101,"CITY":"嘉義市","NO":"2332620TN006","NAME":"蘭潭家福護理之家","TYPE":"道路交通","ADDRESS":"嘉義市鹿寮里學府路299號","CLASS":"第2類","DATE_":"95.01.01","LOCATION_X":196705.8798,"LOCATION_Y":2595662.0671999999},"geometry":{"x":120.47832798928722,"y":23.463103716704683}},{"attributes":{"OBJECTID":102,"CITY":"嘉義市","NO":"2332620TN008","NAME":"嘉大蘭潭學苑","TYPE":"道路交通","ADDRESS":"嘉義市鹿寮里學府路300號","CLASS":"第2類","DATE_":"95.01.01","LOCATION_X":198135.08119999999,"LOCATION_Y":2595531.3171000001},"geometry":{"x":120.4923218779965,"y":23.461969221729142}},{"attributes":{"OBJECTID":103,"CITY":"嘉義市","NO":"2332620TN002","NAME":"嘉義市嘉義酒廠","TYPE":"道路交通","ADDRESS":"嘉義市驛站里中山路659號","CLASS":"第3類","DATE_":"95.01.01","LOCATION_X":192768.9044,"LOCATION_Y":2597127.0748999999},"geometry":{"x":120.4397362529882,"y":23.476198750593873}},{"attributes":{"OBJECTID":104,"CITY":"嘉義市","NO":"2332620TN007","NAME":"嘉義市西區衛生所","TYPE":"道路交通","ADDRESS":"嘉義市德明路1號","CLASS":"第3類","DATE_":"95.01.01","LOCATION_X":191884.91690000001,"LOCATION_Y":2597524.0811999999},"geometry":{"x":120.43106741193576,"y":23.4797522793626}},{"attributes":{"OBJECTID":105,"CITY":"嘉義市","NO":"2332623TN001","NAME":"嘉義市文化局前人行道","TYPE":"道路交通","ADDRESS":"嘉義市忠孝路275號前人行道","CLASS":"第3類","DATE_":"95.01.01","LOCATION_X":194126.90779999999,"LOCATION_Y":2598504.1389000001},"geometry":{"x":120.45297866541301,"y":23.488680522859347}},{"attributes":{"OBJECTID":106,"CITY":"嘉義市","NO":"2332620TN003","NAME":"嘉義市中油煉研所","TYPE":"道路交通","ADDRESS":"嘉義市美源里民生南路217號","CLASS":"第4類","DATE_":"95.01.15","LOCATION_X":193423.88510000001,"LOCATION_Y":2596085.0471999999},"geometry":{"x":120.44618722394031,"y":23.466812386334805}},{"attributes":{"OBJECTID":107,"CITY":"臺北市","NO":"2534320TN103","NAME":"格致點","TYPE":"道路交通","ADDRESS":"台北市士林區格致路237號附近","CLASS":"第1類","DATE_":"87.07.23","LOCATION_X":305344.00910000002,"LOCATION_Y":2781779.105},"geometry":{"x":121.54891987066748,"y":25.143449660780188}},{"attributes":{"OBJECTID":108,"CITY":"臺北市","NO":"2534420TN105","NAME":"陽金點","TYPE":"道路交通","ADDRESS":"台北市北投區陽金公路近七星山登山口附近","CLASS":"第1類","DATE_":"91.11.18","LOCATION_X":305127.71130000002,"LOCATION_Y":2785472.0899},"geometry":{"x":121.54692328412928,"y":25.176797030400248}},{"attributes":{"OBJECTID":109,"CITY":"臺北市","NO":"2533720TN207","NAME":"青年點","TYPE":"道路交通","ADDRESS":"台北市萬華區青年路186號附近","CLASS":"第2類","DATE_":"102.09.09","LOCATION_X":300813.72080000001,"LOCATION_Y":2768116.2552999998},"geometry":{"x":121.50348363350383,"y":25.020262047743799}},{"attributes":{"OBJECTID":110,"CITY":"臺北市","NO":"2534020TN210","NAME":"萬興點","TYPE":"道路交通","ADDRESS":"秀明路2段114號附近","CLASS":"第2類","DATE_":"97.11.19","LOCATION_X":308207.9276,"LOCATION_Y":2764839.5284000002},"geometry":{"x":121.57660767797053,"y":24.990413875336149}},{"attributes":{"OBJECTID":111,"CITY":"臺北市","NO":"2534120TN209","NAME":"舊二點","TYPE":"道路交通","ADDRESS":"南港區舊莊路1段212巷8號附近","CLASS":"第2類","DATE_":"95.07.01","LOCATION_X":313627.29800000001,"LOCATION_Y":2769956.5913999998},"geometry":{"x":121.63052536580585,"y":25.036392086151942}},{"attributes":{"OBJECTID":112,"CITY":"臺北市","NO":"2534320TN208","NAME":"至善點","TYPE":"道路交通","ADDRESS":"台北市士林區至善路二段407號附近","CLASS":"第2類","DATE_":"87.07.23","LOCATION_X":306200.25569999998,"LOCATION_Y":2777699.2944999998},"geometry":{"x":121.55724498872274,"y":25.10658623048629}},{"attributes":{"OBJECTID":113,"CITY":"臺北市","NO":"2533520TN307","NAME":"新生點","TYPE":"道路交通","ADDRESS":"台北市大安區新生南路二段32號附近","CLASS":"第3類","DATE_":"93.02.18","LOCATION_X":303752.71860000002,"LOCATION_Y":2769551.9632999999},"geometry":{"x":121.53265943632363,"y":25.033122093512276}},{"attributes":{"OBJECTID":114,"CITY":"臺北市","NO":"2534220TN308","NAME":"民權點","TYPE":"道路交通","ADDRESS":"內湖區民權東路6段附近","CLASS":"第3類","DATE_":"97.11.19","LOCATION_X":309492.57199999999,"LOCATION_Y":2773534.7442999999},"geometry":{"x":121.58970791502861,"y":25.06886327111911}},{"attributes":{"OBJECTID":115,"CITY":"臺北市","NO":"2534420TN304","NAME":"大業點","TYPE":"道路交通","ADDRESS":"台北市北投區大業路302號附近","CLASS":"第3類","DATE_":"93.02.18","LOCATION_X":300255.71879999997,"LOCATION_Y":2779913.9430999998},"geometry":{"x":121.49838578909502,"y":25.126789610230055}},{"attributes":{"OBJECTID":116,"CITY":"臺北市","NO":"2534423TN306","NAME":"石牌點","TYPE":"道路交通","ADDRESS":"台北市北投區石牌路二段111號附近","CLASS":"第3類","DATE_":"88.06.01","LOCATION_X":302137.83240000001,"LOCATION_Y":2778860.0096999998},"geometry":{"x":121.51701007379567,"y":25.117210905583853}},{"attributes":{"OBJECTID":117,"CITY":"臺北市","NO":"2533920TN404","NAME":"大同點","TYPE":"道路交通","ADDRESS":"台北市中山區中山北路三段40號附近","CLASS":"第4類","DATE_":"88.10.22","LOCATION_X":302676.76569999999,"LOCATION_Y":2773237.0805000002},"geometry":{"x":121.52213859889227,"y":25.066428962040302}},{"attributes":{"OBJECTID":118,"CITY":"臺北市","NO":"2534120TN405","NAME":"南港點","TYPE":"道路交通","ADDRESS":"台北市南港區南港路三段106號附近","CLASS":"第4類","DATE_":"87.07.23","LOCATION_X":309485.61210000003,"LOCATION_Y":2771825.3709},"geometry":{"x":121.58956507797156,"y":25.053431615649941}},{"attributes":{"OBJECTID":119,"CITY":"臺中市","NO":"3410620TN001","NAME":"和平區雪山路41K處","TYPE":"道路交通","ADDRESS":"和平區雪山路41K附近","CLASS":"第1類","DATE_":"102.04.17","LOCATION_X":240577.62049999999,"LOCATION_Y":2681716.2615999999},"geometry":{"x":120.90721553830905,"y":24.240995686822554}},{"attributes":{"OBJECTID":120,"CITY":"臺中市","NO":"3410620TN002","NAME":"和平區雪山路43K處","TYPE":"道路交通","ADDRESS":"和平區雪山路43K附近","CLASS":"第1類","DATE_":"102.04.17","LOCATION_X":239933.4607,"LOCATION_Y":2680906.1389000001},"geometry":{"x":120.90087801291648,"y":24.233676859331869}},{"attributes":{"OBJECTID":121,"CITY":"臺中市","NO":"3408623TN001","NAME":"豐原中興路","TYPE":"道路交通","ADDRESS":"台中市豐原區中興路136號","CLASS":"第2類","DATE_":"83.01.01","LOCATION_X":220977.68179999999,"LOCATION_Y":2682440.4761000001},"geometry":{"x":120.71419681339208,"y":24.247294700846457}},{"attributes":{"OBJECTID":122,"CITY":"臺中市","NO":"3409220TN002","NAME":"后里文化路","TYPE":"道路交通","ADDRESS":"台中市后里區文化路30號旁","CLASS":"第2類","DATE_":"93.06.28","LOCATION_X":221797.3131,"LOCATION_Y":2688929.2351000002},"geometry":{"x":120.72214081809827,"y":24.305897590535462}},{"attributes":{"OBJECTID":123,"CITY":"臺中市","NO":"3410423TN002","NAME":"太平永平路","TYPE":"道路交通","ADDRESS":"台中市太平區永平路體育場旁","CLASS":"第2類","DATE_":"102.08.09","LOCATION_X":221542.72630000001,"LOCATION_Y":2669598.1660000002},"geometry":{"x":120.72001438026238,"y":24.131348669725195}},{"attributes":{"OBJECTID":124,"CITY":"臺中市","NO":"3432120TN002","NAME":"英才站","TYPE":"道路交通","ADDRESS":"台中市西區英才路600號","CLASS":"第2類","DATE_":"89.01.01","LOCATION_X":215977.67679999999,"LOCATION_Y":2670818.2708999999},"geometry":{"x":120.6652329224961,"y":24.142255112958143}},{"attributes":{"OBJECTID":125,"CITY":"臺中市","NO":"3409223TN003","NAME":"后里甲后路","TYPE":"道路交通","ADDRESS":"台中市后里區甲后路700號前","CLASS":"第3類","DATE_":"93.01.01","LOCATION_X":221051.7046,"LOCATION_Y":2689414.0043000001},"geometry":{"x":120.71478519988693,"y":24.310261004857686}},{"attributes":{"OBJECTID":126,"CITY":"臺中市","NO":"3410020TN001","NAME":"烏日區環河路","TYPE":"道路交通","ADDRESS":"台中市烏日區五光路281號","CLASS":"第3類","DATE_":"101.11.12","LOCATION_X":214095.26379999999,"LOCATION_Y":2665333.7085000002},"geometry":{"x":120.64684685765774,"y":24.092691791041975}},{"attributes":{"OBJECTID":127,"CITY":"臺中市","NO":"3432020TN004","NAME":"西區三民路一段","TYPE":"道路交通","ADDRESS":"台中市西區三民路一段120號","CLASS":"第3類","DATE_":"89.01.01","LOCATION_X":216909.6923,"LOCATION_Y":2670274.2615},"geometry":{"x":120.67441593272922,"y":24.137362942182246}},{"attributes":{"OBJECTID":128,"CITY":"臺中市","NO":"3432520TN005","NAME":"北屯區梅川東路五段","TYPE":"道路交通","ADDRESS":"梅川東路五段146號","CLASS":"第3類","DATE_":"89.01.01","LOCATION_X":217689.5987,"LOCATION_Y":2674910.1644000001},"geometry":{"x":120.68198592548089,"y":24.179237847547931}},{"attributes":{"OBJECTID":129,"CITY":"臺中市","NO":"3410520TN003","NAME":"大里仁化路","TYPE":"道路交通","ADDRESS":"台中市大里區仁化路大里工業區前","CLASS":"第4類","DATE_":"89.01.01","LOCATION_X":220927.78839999999,"LOCATION_Y":2665512.247},"geometry":{"x":120.7140461495441,"y":24.094444337286724}},{"attributes":{"OBJECTID":130,"CITY":"臺中市","NO":"3432320TN002","NAME":"職訓中心","TYPE":"道路交通","ADDRESS":"台中市西屯區工業區一路100號","CLASS":"第4類","DATE_":"89.01.01","LOCATION_X":210351.56849999999,"LOCATION_Y":2673998.3138000001},"geometry":{"x":120.60978782125446,"y":24.170836868010547}},{"attributes":{"OBJECTID":131,"CITY":"臺南市","NO":"3519620TN001","NAME":"烏山頭水庫管理局","TYPE":"道路交通","ADDRESS":"臺南市六甲區烏山頭水庫","CLASS":"第1類","DATE_":"93.10.01","LOCATION_X":185713.2377,"LOCATION_Y":2566200.7192000002},"geometry":{"x":120.3719823891217,"y":23.196676299449759}},{"attributes":{"OBJECTID":132,"CITY":"臺南市","NO":"3533220TN027","NAME":"四草野生動物","TYPE":"道路交通","ADDRESS":"臺南市安南區本田路二段300巷","CLASS":"第1類","DATE_":"98.09.28","LOCATION_X":163480.5785,"LOCATION_Y":2548615.2631999999},"geometry":{"x":120.15580110211982,"y":23.03686970544307}},{"attributes":{"OBJECTID":133,"CITY":"臺南市","NO":"3518520TN001","NAME":"孫厝里(忠義廟)","TYPE":"道路交通","ADDRESS":"孫厝里15之12號旁","CLASS":"第2類","DATE_":"93.10.01","LOCATION_X":170461.2426,"LOCATION_Y":2576955.8465999998},"geometry":{"x":120.22243245465731,"y":23.2931258742043}},{"attributes":{"OBJECTID":134,"CITY":"臺南市","NO":"3520620TN001","NAME":"玉井工商","TYPE":"道路交通","ADDRESS":"臺南市玉井區玉井工商","CLASS":"第2類","DATE_":"93.10.01","LOCATION_X":194646.1409,"LOCATION_Y":2557924.4440000001},"geometry":{"x":120.45954464873913,"y":23.122264367577323}},{"attributes":{"OBJECTID":135,"CITY":"臺南市","NO":"3532720TN028","NAME":"成功大學","TYPE":"道路交通","ADDRESS":"臺南市東區大學路1號","CLASS":"第2類","DATE_":"98.09.28","LOCATION_X":169990.7824,"LOCATION_Y":2544091.4550000001},"geometry":{"x":120.21955368791414,"y":22.996346498400616}},{"attributes":{"OBJECTID":136,"CITY":"臺南市","NO":"3533020TN029","NAME":"公園國小","TYPE":"道路交通","ADDRESS":"臺南市北區公園路180號","CLASS":"第2類","DATE_":"98.09.28","LOCATION_X":168917.37450000001,"LOCATION_Y":2544530.827},"geometry":{"x":120.20906082829926,"y":23.000262043223149}},{"attributes":{"OBJECTID":137,"CITY":"臺南市","NO":"3518620TN001","NAME":"白河區公所","TYPE":"道路交通","ADDRESS":"臺南市白河區中山路","CLASS":"第3類","DATE_":"93.10.01","LOCATION_X":190281.9559,"LOCATION_Y":2583302.9095999999},"geometry":{"x":120.41593941653107,"y":23.351280056237098}},{"attributes":{"OBJECTID":138,"CITY":"臺南市","NO":"3519120TN001","NAME":"學甲區公所","TYPE":"道路交通","ADDRESS":"臺南市華宗路313號","CLASS":"第3類","DATE_":"93.10.01","LOCATION_X":166350.5227,"LOCATION_Y":2569999.6480999999},"geometry":{"x":120.18263244381031,"y":23.230110431421799}},{"attributes":{"OBJECTID":139,"CITY":"臺南市","NO":"3532820TN024","NAME":"南區衛生所","TYPE":"道路交通","ADDRESS":"臺南市南區南和路6號","CLASS":"第3類","DATE_":"93.01.06","LOCATION_X":166774.86960000001,"LOCATION_Y":2540177.7100999998},"geometry":{"x":120.18839770218167,"y":22.960848318757879}},{"attributes":{"OBJECTID":140,"CITY":"臺南市","NO":"3532820TN025","NAME":"南區圖書館","TYPE":"道路交通","ADDRESS":"臺南市南區喜樹路179號","CLASS":"第3類","DATE_":"93.01.07","LOCATION_X":165891.8187,"LOCATION_Y":2538217.7697999999},"geometry":{"x":120.17989364680685,"y":22.94310602957691}},{"attributes":{"OBJECTID":141,"CITY":"臺南市","NO":"3519720TN001","NAME":"官田工業區加油站","TYPE":"道路交通","ADDRESS":"臺南市官田區二區村工業路23-1號","CLASS":"第4類","DATE_":"93.10.01","LOCATION_X":180727.59220000001,"LOCATION_Y":2567743.3346000002},"geometry":{"x":120.32320999905326,"y":23.210404003865623}},{"attributes":{"OBJECTID":142,"CITY":"臺南市","NO":"3533320TN021","NAME":"安平污水廠","TYPE":"道路交通","ADDRESS":"臺南市安平區新樂路71號","CLASS":"第4類","DATE_":"93.01.07","LOCATION_X":165587.90030000001,"LOCATION_Y":2540628.7470999998},"geometry":{"x":120.17679876909203,"y":22.964861458624014}},{"attributes":{"OBJECTID":143,"CITY":"高雄市","NO":"3634720TN001","NAME":"西子灣監測站","TYPE":"道路交通","ADDRESS":"高雄市鼓山區蓮海路170號","CLASS":"第1類","DATE_":"93.05.21","LOCATION_X":174547.35519999999,"LOCATION_Y":2503117.9336000001},"geometry":{"x":120.26598276955313,"y":22.626559973678884}},{"attributes":{"OBJECTID":144,"CITY":"高雄市","NO":"3634820TN002","NAME":"環潭監測站","TYPE":"道路交通","ADDRESS":"高雄市左營區蓮潭路176號","CLASS":"第1類","DATE_":"93.05.19","LOCATION_X":177505.533,"LOCATION_Y":2509530.1299000001},"geometry":{"x":120.29446288179722,"y":22.68459401316575}},{"attributes":{"OBJECTID":145,"CITY":"高雄市","NO":"3621520TN006","NAME":"鳳山國泰路監測站","TYPE":"道路交通","ADDRESS":"高雄市鳳山區國泰路一段69巷1號","CLASS":"第2類","DATE_":"93.01.16","LOCATION_X":184237.76420000001,"LOCATION_Y":2501715.0633},"geometry":{"x":120.36030660991523,"y":22.614294846882565}},{"attributes":{"OBJECTID":146,"CITY":"高雄市","NO":"3635020TN003","NAME":"義華監測站","TYPE":"道路交通","ADDRESS":"高雄市三民區義華路272號","CLASS":"第2類","DATE_":"93.05.19","LOCATION_X":181933.5882,"LOCATION_Y":2504943.0181},"geometry":{"x":120.33775453712828,"y":22.643354157569068}},{"attributes":{"OBJECTID":147,"CITY":"高雄市","NO":"3635220TN004","NAME":"河東監測站","TYPE":"道路交通","ADDRESS":"高雄市前金區河東路359號","CLASS":"第2類","DATE_":"94.08.20","LOCATION_X":176683.40040000001,"LOCATION_Y":2503692.9265999999},"geometry":{"x":120.28673456251808,"y":22.631846152575882}},{"attributes":{"OBJECTID":148,"CITY":"高雄市","NO":"3635320TN005","NAME":"福德監測站","TYPE":"道路交通","ADDRESS":"高雄市苓雅區福德一路77號","CLASS":"第2類","DATE_":"94.04.28","LOCATION_X":181560.58319999999,"LOCATION_Y":2503941.9983000001},"geometry":{"x":120.33416917461957,"y":22.634299384102526}},{"attributes":{"OBJECTID":149,"CITY":"高雄市","NO":"3621520TN010","NAME":"鳳山中山西路監測站","TYPE":"道路交通","ADDRESS":"高雄市鳳山區中山西路154-6號","CLASS":"第3類","DATE_":"93.01.16","LOCATION_X":183318.69440000001,"LOCATION_Y":2503177.0592999998},"geometry":{"x":120.35130498804111,"y":22.627461643057394}},{"attributes":{"OBJECTID":150,"CITY":"高雄市","NO":"3635020TN007","NAME":"民族監測站","TYPE":"道路交通","ADDRESS":"高雄市三民區民族一路418號","CLASS":"第3類","DATE_":"94.03.13","LOCATION_X":179642.47829999999,"LOCATION_Y":2506073.9679999999},"geometry":{"x":120.31541398537591,"y":22.653473564978313}},{"attributes":{"OBJECTID":151,"CITY":"高雄市","NO":"3635320TN008","NAME":"三多監測站","TYPE":"道路交通","ADDRESS":"高雄市苓雅區三多二路102號","CLASS":"第3類","DATE_":"93.05.20","LOCATION_X":180371.53150000001,"LOCATION_Y":2502373.9432999999},"geometry":{"x":120.32267117214212,"y":22.620090582535937}},{"attributes":{"OBJECTID":152,"CITY":"高雄市","NO":"3635320TN009","NAME":"凱旋監測站","TYPE":"道路交通","ADDRESS":"高雄市苓雅區凱旋二路145號","CLASS":"第3類","DATE_":"94.06.10","LOCATION_X":180270.51949999999,"LOCATION_Y":2503413.9531999999},"geometry":{"x":120.32164252621104,"y":22.629478267994646}},{"attributes":{"OBJECTID":153,"CITY":"高雄市","NO":"3622320TN012","NAME":"大社工業區監測站","TYPE":"道路交通","ADDRESS":"高雄市大社區建經路5號","CLASS":"第4類","DATE_":"93.01.16","LOCATION_X":181860.74530000001,"LOCATION_Y":2513933.3177},"geometry":{"x":120.33665531648018,"y":22.724538015232326}},{"attributes":{"OBJECTID":154,"CITY":"高雄市","NO":"3634920TN011","NAME":"楠梓監測站","TYPE":"道路交通","ADDRESS":"高雄市楠梓區左楠路2號","CLASS":"第4類","DATE_":"93.05.19","LOCATION_X":179075.65539999999,"LOCATION_Y":2512572.2760999999},"geometry":{"x":120.30960524089252,"y":22.712132480961134}}]}